縣市代號,縣市,大類別,小類別代號,小類別名稱,地標名稱,緯度,經度
B,臺中市,交通運輸,11,火車站,臺中市臺鐵臺中港車站,24.304729227649467,120.60240585436198
B,臺中市,交通運輸,11,火車站,臺中市臺鐵潭子車站,24.212685235887527,120.70611037061813
B,臺中市,交通運輸,11,火車站,臺中市臺鐵太原車站,24.166719466619597,120.70008086468286
B,臺中市,交通運輸,11,火車站,臺中市臺鐵清水車站,24.263670618119402,120.5691415611358
B,臺中市,交通運輸,11,火車站,臺中市臺鐵日南車站,24.37786332061772,120.65432595519431
B,臺中市,交通運輸,11,火車站,臺中市臺鐵泰安車站,24.33206642066687,120.7415606936985
B,臺中市,交通運輸,11,火車站,臺中市臺鐵新烏日車站,24.10983448587049,120.61421314520575
B,臺中市,交通運輸,11,火車站,臺中市臺鐵后里車站,24.309285318847387,120.73308661848378
B,臺中市,交通運輸,11,火車站,臺中市臺鐵大慶車站,24.118920337229643,120.64786732389464
B,臺中市,交通運輸,11,火車站,臺中市臺鐵大肚車站,24.15409885107634,120.54247859593296
B,臺中市,交通運輸,11,火車站,臺中市臺鐵臺中車站,24.13691530638122,120.68516953892833
B,臺中市,交通運輸,11,火車站,日南火車站,24.378076002448303,120.65413700004348
B,臺中市,交通運輸,11,火車站,大甲火車站,24.344403998815658,120.62707200005099
B,臺中市,交通運輸,11,火車站,大甲火車站,24.344403998815658,120.62707200005099
B,臺中市,交通運輸,11,火車站,泰安火車站,24.331165995225977,120.74182000004151
B,臺中市,交通運輸,11,火車站,后里火車站,24.30929400116204,120.73287700002643
B,臺中市,交通運輸,11,火車站,臺中港火車站,24.304369992955007,120.60232000007065
B,臺中市,交通運輸,11,火車站,清水火車站,24.26365799758789,120.56920000006114
B,臺中市,交通運輸,11,火車站,神岡火車站(閒),24.255649003734614,120.64614400003931
B,臺中市,交通運輸,11,火車站,石岡火車站(閒),24.27659800216199,120.77710200002203
B,臺中市,交通運輸,11,火車站,豐原火車站,24.254163009177066,120.72287400001119
B,臺中市,交通運輸,11,火車站,豐原火車站,24.254163009177066,120.72287400001119
B,臺中市,交通運輸,11,火車站,東勢火車站(閒),24.257717008558885,120.83186000001152
B,臺中市,交通運輸,11,火車站,沙鹿火車站,24.237170006098243,120.55758500003586
B,臺中市,交通運輸,11,火車站,沙鹿火車站,24.237170006098243,120.55758500003586
B,臺中市,交通運輸,11,火車站,大肚火車站,24.154013008946446,120.54249900002628
B,臺中市,交通運輸,11,火車站,追分火車站,24.120540003890042,120.57018000004061
B,臺中市,交通運輸,11,火車站,追分火車站,24.120540003890042,120.57018000004061
B,臺中市,交通運輸,11,火車站,潭子火車站,24.212738996340008,120.70611600004588
B,臺中市,交通運輸,11,火車站,新烏日火車站,24.10883599651936,120.61417300005704
B,臺中市,交通運輸,11,火車站,成功火車站,24.114265003980965,120.59020300003581
B,臺中市,交通運輸,11,火車站,成功火車站,24.114265003980965,120.59020300003581
B,臺中市,交通運輸,11,火車站,烏日火車站,24.10866800400877,120.62247500004001
B,臺中市,交通運輸,11,火車站,烏日火車站,24.10866800400877,120.62247500004001
B,臺中市,交通運輸,11,火車站,龍井火車站,24.19745899832994,120.54335800006649
B,臺中市,交通運輸,11,火車站,龍井火車站,24.19745899832994,120.54335800006649
B,臺中市,交通運輸,11,火車站,太原火車站,24.16662199627576,120.70013700004823
B,臺中市,交通運輸,11,火車站,大慶火車站,24.118874000907184,120.64792300003751
B,臺中市,交通運輸,11,火車站,臺中火車站,24.13693699415085,120.68497700005538
B,臺中市,交通運輸,12,客運站,豐原客運-大甲站,24.343822010180464,120.62507700001838
B,臺中市,交通運輸,12,客運站,巨業汽車客運-大甲站,24.34375499696162,120.625373000056
B,臺中市,交通運輸,12,客運站,巨業汽車客運-清水站,24.27055399579802,120.57594000007384
B,臺中市,交通運輸,12,客運站,統聯客運-豐原站(自營站),24.253450001108547,120.72238800003556
B,臺中市,交通運輸,12,客運站,豐原客運-豐原站,24.25387299978538,120.72148600003676
B,臺中市,交通運輸,12,客運站,豐原客運-總公司,24.254130007454243,120.72163900001797
B,臺中市,交通運輸,12,客運站,統聯客運-東勢站(自營站),24.258478003717336,120.82416400001178
B,臺中市,交通運輸,12,客運站,豐原客運-東勢站,24.257341995114846,120.82841500002759
B,臺中市,交通運輸,12,客運站,統聯客運-靜宜大學站(代售處),24.226109003953646,120.57624900004204
B,臺中市,交通運輸,12,客運站,統聯客運-沙鹿站(代售處),24.23981600196767,120.56311100005406
B,臺中市,交通運輸,12,客運站,巨業汽車客運-沙鹿站,24.23800600488195,120.56103200004111
B,臺中市,交通運輸,12,客運站,和欣客運-朝馬轉運站,24.168133001216507,120.63821400004421
B,臺中市,交通運輸,12,客運站,統聯客運-中港轉運站(自營站),24.17925599549661,120.62193000006577
B,臺中市,交通運輸,12,客運站,國光客運-朝馬站,24.16854200569754,120.63857400002688
B,臺中市,交通運輸,12,客運站,統聯客運-朝馬站(自營站),24.167538007159138,120.63768100002457
B,臺中市,交通運輸,12,客運站,阿羅哈客運-臺中朝馬站,24.169670002109815,120.63891700003597
B,臺中市,交通運輸,12,客運站,和欣客運-中港站,24.16894700074864,120.63981400003927
B,臺中市,交通運輸,12,客運站,尊龍客運-朝馬轉運站,24.16894700074864,120.63981400003927
B,臺中市,交通運輸,12,客運站,和欣客運-中清站,24.198322997224096,120.65682100005502
B,臺中市,交通運輸,12,客運站,尊龍客運-中清站,24.198322997224096,120.65682100005502
B,臺中市,交通運輸,12,客運站,飛狗巴士-臺中朝馬站,24.170185000378194,120.63813300004094
B,臺中市,交通運輸,12,客運站,飛狗巴士-台中中清站,24.196464004420523,120.6573950000325
B,臺中市,交通運輸,12,客運站,國光客運-水湳站,24.17911600530141,120.6682600000239
B,臺中市,交通運輸,12,客運站,統聯客運-水湳站(自營站),24.179481003648377,120.66797300003343
B,臺中市,交通運輸,12,客運站,統聯客運-中清站(自營站),24.17977900307655,120.66773700003695
B,臺中市,交通運輸,12,客運站,和欣客運-中山代售站,24.148933994127745,120.67244800005744
B,臺中市,交通運輸,12,客運站,國光客運-臺中中山代售處,24.1499130001084,120.67145200004427
B,臺中市,交通運輸,12,客運站,統聯客運-中山站(自營站),24.149322002295484,120.67200600003592
B,臺中市,交通運輸,12,客運站,國光客運-臺中車站,24.137588999853833,120.68507900003654
B,臺中市,交通運輸,12,客運站,仁友汽車客運-綠川西站,24.139409994367227,120.68559100005139
B,臺中市,交通運輸,12,客運站,豐原客運-臺中站,24.13768800591694,120.68438100002984
B,臺中市,交通運輸,12,客運站,巨業汽車客運-臺中站,24.138693001127,120.68597800003168
B,臺中市,交通運輸,12,客運站,彰化客運-臺中站,24.141933998593835,120.68552600004381
B,臺中市,交通運輸,12,客運站,南投客運-臺中站,24.141933998593835,120.68552600004381
B,臺中市,交通運輸,12,客運站,和欣客運-干城總站,24.14110699926963,120.6856260000409
B,臺中市,交通運輸,12,客運站,阿羅哈客運-臺中干城站,24.14070600197197,120.6856070000394
B,臺中市,交通運輸,12,客運站,尊龍客運-干城站,24.141104009322962,120.68562600001229
B,臺中市,交通運輸,12,客運站,統聯客運-臺中車站(自營站),24.137944998500707,120.68505300004472
B,臺中市,交通運輸,12,客運站,仁友汽車客運-綠川北站,24.139402004404097,120.68531900002701
B,臺中市,交通運輸,12,客運站,仁友汽車客運-綠川東站,24.13901599716538,120.68465500004754
B,臺中市,交通運輸,15,高鐵站,臺中市台灣高鐵臺中車站,24.11172678296421,120.61540738473667
B,臺中市,交通運輸,15,高鐵站,臺中市台灣高鐵中部烏日基地,24.091674118550987,120.62849214906598
B,臺中市,交通運輸,15,高鐵站,高鐵臺中站(烏日站)-出口1,24.11175499425894,120.61620400006726
B,臺中市,交通運輸,15,高鐵站,高鐵臺中站(烏日站)-出口2,24.110285007960133,120.61604900002405
B,臺中市,交通運輸,15,高鐵站,高鐵臺中站(烏日站)-出口4,24.11176499710387,120.61521900006127
B,臺中市,交通運輸,15,高鐵站,高鐵臺中站(烏日站)-出口3,24.11048900051852,120.61505600004378
B,臺中市,交通運輸,16,航空站,臺中市交通部民用航空局臺中航空站,24.253628468830318,120.6042667920402
B,臺中市,交通運輸,16,航空站,臺中航空站-臺中機場,24.25552500812058,120.60022200002862
B,臺中市,交通運輸,17,碼頭,臺中市梧棲漁港,24.291477782091686,120.51681361968821
B,臺中市,交通運輸,17,碼頭,松柏漁港,24.431241007050748,120.61587400003303
B,臺中市,交通運輸,17,碼頭,五甲漁港,24.390504998090638,120.58865700005946
B,臺中市,交通運輸,17,碼頭,梧棲漁港,24.29017400658492,120.50425900003721
B,臺中市,交通運輸,17,碼頭,臺中港務局,24.25615800192891,120.52320500005904
B,臺中市,交通運輸,17,碼頭,臺中港,24.279886999547593,120.50821000006354
B,臺中市,交通運輸,18,主要道路建設,臺中市西屯二交流道,24.173308788727006,120.63357296490864
B,臺中市,交通運輸,18,主要道路建設,臺中市龍井交流道,24.19508303090199,120.57211702672404
B,臺中市,交通運輸,18,主要道路建設,臺中市西屯一交流道,24.167173262888248,120.63096863815332
B,臺中市,交通運輸,18,主要道路建設,臺中市西屯三交流道,24.18568651242003,120.63720514845707
B,臺中市,交通運輸,18,主要道路建設,臺中市中投公路五福南路匝道,24.077267444333184,120.66383431975851
B,臺中市,交通運輸,18,主要道路建設,臺中市豐原端,24.268499739305323,120.7496703118775
B,臺中市,交通運輸,18,主要道路建設,臺中市霧峰系統交流道,24.02701647203703,120.66918881410281
B,臺中市,交通運輸,18,主要道路建設,臺中市高鐵臺中交流道,24.120267093846163,120.61971886572249
B,臺中市,交通運輸,18,主要道路建設,臺中市臺中交流道,24.175233806732862,120.63107731046121
B,臺中市,交通運輸,18,主要道路建設,臺中市后里交流道,24.312344445300468,120.70150355987667
B,臺中市,交通運輸,18,主要道路建設,臺中市成功交流道,24.102925345972018,120.61294064860711
B,臺中市,交通運輸,18,主要道路建設,臺中市北屯二交流道,24.20049375693739,120.65784347015611
B,臺中市,交通運輸,18,主要道路建設,臺中市大甲交流道,24.337170811678956,120.64327004691425
B,臺中市,交通運輸,18,主要道路建設,臺中市中投交流道,24.06529952254878,120.66280555908439
B,臺中市,交通運輸,18,主要道路建設,臺中市中投公路丁台交流道,24.045855827576254,120.66692318252534
B,臺中市,交通運輸,18,主要道路建設,臺中市大雅交流道,24.205683114432848,120.65650579061625
B,臺中市,交通運輸,18,主要道路建設,臺中市龍井交流道,24.214786794013747,120.52121852783431
B,臺中市,交通運輸,18,主要道路建設,臺中市中投公路大里一交流道,24.09935963781087,120.66911815001147
B,臺中市,交通運輸,18,主要道路建設,臺中市中投公路丁台交流道,24.040222139866525,120.67684106770106
B,臺中市,交通運輸,18,主要道路建設,臺中市中投公路萬豐交流道,24.02945057244387,120.6854566282561
B,臺中市,交通運輸,18,主要道路建設,臺中市豐原交流道,24.25179744223554,120.69056771178957
B,臺中市,交通運輸,18,主要道路建設,臺中市臺中系統交流道,24.270716652553237,120.6928514145978
B,臺中市,交通運輸,18,主要道路建設,臺中市南屯二交流道,24.149644634212898,120.6234435869373
B,臺中市,交通運輸,18,主要道路建設,臺中市南屯交流道,24.15355901289005,120.61999068517976
B,臺中市,交通運輸,18,主要道路建設,臺中市北屯交流道,24.19498204910591,120.64501356645575
B,臺中市,交通運輸,18,主要道路建設,臺中市后豐交流道,24.277924992755523,120.72237266411975
B,臺中市,交通運輸,18,主要道路建設,臺中市王田交流道,24.11884935765487,120.58311734131075
B,臺中市,交通運輸,18,主要道路建設,臺中市沙鹿交流道,24.250005476021208,120.59051249379002
B,臺中市,交通運輸,18,主要道路建設,臺中市中投公路大里二交流道,24.091207295224468,120.6644643088692
B,臺中市,交通運輸,18,主要道路建設,臺中市烏日交流道,24.068315137498228,120.64612868640408
B,臺中市,交通運輸,18,主要道路建設,臺中市南屯一交流道,24.135207267341848,120.62176650357321
B,臺中市,交通運輸,18,主要道路建設,臺中市霧峰交流道,24.050803486170206,120.67998211337861
B,臺中市,交通運輸,18,主要道路建設,臺中市中投公路127線匝道,24.055124131275665,120.6618479124379
B,臺中市,交通運輸,18,主要道路建設,臺中市中港系統交流道,24.307304041538156,120.6132969290281
B,臺中市,交通運輸,18,主要道路建設,台61-中1線平交匝道-南下,24.42605700923532,120.62361000002552
B,臺中市,交通運輸,18,主要道路建設,台61-中3線平交匝道-北上,24.41337699394206,120.61676700006984
B,臺中市,交通運輸,18,主要道路建設,台61-中3線平交匝道-南下,24.406511001008734,120.61406200005146
B,臺中市,交通運輸,18,主要道路建設,國3-苑裡交流道-南下,24.394741998211007,120.66847700004388
B,臺中市,交通運輸,18,主要道路建設,大甲收費站,24.380002997737567,120.66626000004901
B,臺中市,交通運輸,18,主要道路建設,台61-東西四路平交匝道-北上,24.38705700591351,120.59455500003766
B,臺中市,交通運輸,18,主要道路建設,台61-132線平交匝道-南下,24.375703993473905,120.59077200007516
B,臺中市,交通運輸,18,主要道路建設,台61-中16線平交匝道-北上,24.363714001549294,120.58574100005423
B,臺中市,交通運輸,18,主要道路建設,台61-中16線平交匝道-南下,24.358111994167917,120.58471900007493
B,臺中市,交通運輸,18,主要道路建設,台61-中海路平交匝道,24.35464100482723,120.58246000003693
B,臺中市,交通運輸,18,主要道路建設,台61-中17線平交匝道-北上,24.352743009406367,120.58079000002738
B,臺中市,交通運輸,18,主要道路建設,台61-中17線平交匝道-南下,24.347933010159228,120.57606900001828
B,臺中市,交通運輸,18,主要道路建設,台61-南埔路平交匝道-北上,24.34231900886365,120.57180500002656
B,臺中市,交通運輸,18,主要道路建設,台61-南埔路平交匝道-南下,24.3371479929187,120.5701260000857
B,臺中市,交通運輸,18,主要道路建設,國3-大甲交流道-南下,24.336670997522045,120.64048700005732
B,臺中市,交通運輸,18,主要道路建設,國3-大甲交流道-北上,24.33755900307329,120.64537000003446
B,臺中市,交通運輸,18,主要道路建設,泰安服務區,24.32738200785654,120.71203800002192
B,臺中市,交通運輸,18,主要道路建設,國1-后里交流道-南下,24.312623997891137,120.70109800004406
B,臺中市,交通運輸,18,主要道路建設,后里收費站,24.296436004546212,120.69616200002561
B,臺中市,交通運輸,18,主要道路建設,月眉收費站,24.314908998956003,120.7023040000375
B,臺中市,交通運輸,18,主要道路建設,清水服務區,24.28223499460347,120.59770400007464
B,臺中市,交通運輸,18,主要道路建設,國3-中港系統交流道-東行,24.306670000863296,120.6189120000458
B,臺中市,交通運輸,18,主要道路建設,國3-中港系統交流道-西行,24.30764200106392,120.60872100004502
B,臺中市,交通運輸,18,主要道路建設,國3-中港系統交流道-南下,24.3051690072743,120.61011600002965
B,臺中市,交通運輸,18,主要道路建設,國3-中港系統交流道-北上,24.31026500603107,120.61645600002953
B,臺中市,交通運輸,18,主要道路建設,國4-清水端,24.304817001953985,120.59302400005183
B,臺中市,交通運輸,18,主要道路建設,台61-清水交流道-北上,24.29889500007026,120.55369200006385
B,臺中市,交通運輸,18,主要道路建設,台61-清水交流道-南下,24.273501001052367,120.5461840000536
B,臺中市,交通運輸,18,主要道路建設,國4-后豐交流道-西行,24.27829499335672,120.71802400004803
B,臺中市,交通運輸,18,主要道路建設,國4-豐原端-往西,24.26868199704922,120.74952600003934
B,臺中市,交通運輸,18,主要道路建設,國1-豐原交流道-北上,24.25320100404082,120.69097800003303
B,臺中市,交通運輸,18,主要道路建設,國4-臺中系統交流道-北上,24.273377002625725,120.69337300003211
B,臺中市,交通運輸,18,主要道路建設,國4-臺中系統交流道-南下,24.26791700748153,120.69230400002084
B,臺中市,交通運輸,18,主要道路建設,國4-臺中系統交流道-西行,24.27058400216293,120.68897100003394
B,臺中市,交通運輸,18,主要道路建設,國4-神岡交流道-北上,24.281018996554113,120.66628400005263
B,臺中市,交通運輸,18,主要道路建設,國1-豐原交流道-南下,24.249578997998555,120.68981500004884
B,臺中市,交通運輸,18,主要道路建設,國4-神岡交流道-南下,24.27594699642598,120.67111800005121
B,臺中市,交通運輸,18,主要道路建設,國4-臺中系統交流道-東行,24.27106599381096,120.6962620000514
B,臺中市,交通運輸,18,主要道路建設,台61-龍井交流道-南下,24.222597000039563,120.52403100006592
B,臺中市,交通運輸,18,主要道路建設,國3-沙鹿交流道-南下,24.245918002211017,120.59201800004233
B,臺中市,交通運輸,18,主要道路建設,國3-龍井交流道-北上,24.197304998842892,120.57489400006104
B,臺中市,交通運輸,18,主要道路建設,國3-沙鹿交流道-北上,24.253975001663747,120.5893250000479
B,臺中市,交通運輸,18,主要道路建設,國1-王田交流道-西行,24.118525004902224,120.57572800003423
B,臺中市,交通運輸,18,主要道路建設,台63-大里一交流道北側匝道-北上,24.106027996959252,120.67248700005136
B,臺中市,交通運輸,18,主要道路建設,台63-大里一交流道南側匝道-南下,24.10197599682997,120.67110900005008
B,臺中市,交通運輸,18,主要道路建設,台63-大里二交流道北側匝道-北上,24.09700300360591,120.66733100002922
B,臺中市,交通運輸,18,主要道路建設,台63-大里二交流道南側匝道-南下,24.093964008942965,120.66456600002151
B,臺中市,交通運輸,18,主要道路建設,國1-臺中交流道-南下,24.17336300294905,120.62902900004342
B,臺中市,交通運輸,18,主要道路建設,國3-烏日交流道-北上,24.069437004223918,120.64211700003166
B,臺中市,交通運輸,18,主要道路建設,國1-王田交流道-東行,24.117812999171395,120.58762900005974
B,臺中市,交通運輸,18,主要道路建設,國3-烏日交流道-南下,24.06785500972306,120.6489230000134
B,臺中市,交通運輸,18,主要道路建設,台74-成功交流道-東行,24.10420800075821,120.61416200004895
B,臺中市,交通運輸,18,主要道路建設,國3-龍井交流道-南下,24.193358996700887,120.56891900006644
B,臺中市,交通運輸,18,主要道路建設,台61-龍井交流道-南下,24.213960005441667,120.52069500004214
B,臺中市,交通運輸,18,主要道路建設,國6-中橫系統交流道-東行,24.026011002292893,120.66847800003728
B,臺中市,交通運輸,18,主要道路建設,國6-中橫系統交流道-東行,24.028973006907208,120.66937900002078
B,臺中市,交通運輸,18,主要道路建設,國3-霧峰系統交流道聯絡道-東行,24.055584007581217,120.67594000002593
B,臺中市,交通運輸,18,主要道路建設,國3-霧峰系統交流道聯絡道-東行,24.046900002736585,120.67955500003633
B,臺中市,交通運輸,18,主要道路建設,國3-中投公路交流道-北上,24.06725600047545,120.65727700003987
B,臺中市,交通運輸,18,主要道路建設,國3-霧峰系統交流道-南下,24.048892997539614,120.67855000004936
B,臺中市,交通運輸,18,主要道路建設,國3-中投公路交流道-南下,24.06364499921878,120.66603800004133
B,臺中市,交通運輸,18,主要道路建設,國3-霧峰系統交流道-北上,24.053829006738592,120.67782400002493
B,臺中市,交通運輸,18,主要道路建設,台63-中投交流道北側五福路匝道-北上,24.073401999734013,120.66339200004136
B,臺中市,交通運輸,18,主要道路建設,台63-中投交流道南側127線匝道-南下,24.05695100573689,120.66229700003117
B,臺中市,交通運輸,18,主要道路建設,台63-丁台交流道-北側匝道-北上,24.04566100335068,120.66780700003339
B,臺中市,交通運輸,18,主要道路建設,台63-丁台交流道-南側匝道-南下,24.040832003464615,120.67561000003214
B,臺中市,交通運輸,18,主要道路建設,台63-萬豐交流道-北上,24.030544997955776,120.68512000004723
B,臺中市,交通運輸,18,主要道路建設,台63-萬豐交流道-南下,24.027825009899246,120.68593900001723
B,臺中市,交通運輸,18,主要道路建設,國3-中橫系統交流道-北上,24.02670400842949,120.67047000001817
B,臺中市,交通運輸,18,主要道路建設,國3-中橫系統交流道-南下,24.026586001716726,120.67024700003576
B,臺中市,交通運輸,18,主要道路建設,國3-霧峰交流道聯絡道-霧峰端-西行,24.05212001012087,120.69410100001797
B,臺中市,交通運輸,18,主要道路建設,台63-臺中端-北上,24.111386000331258,120.67005500004274
B,臺中市,交通運輸,18,主要道路建設,台63-臺中端-北上,24.111386000331258,120.67005500004274
B,臺中市,交通運輸,18,主要道路建設,國1-南屯交流道-南下,24.149858002190392,120.6193340000391
B,臺中市,交通運輸,18,主要道路建設,國1-南屯交流道-北上,24.15482800582736,120.62034000002797
B,臺中市,交通運輸,18,主要道路建設,台74-南屯一交流道-西行,24.13238200512614,120.62049400003247
B,臺中市,交通運輸,18,主要道路建設,台74-南屯二交流道-東行,24.152623999337873,120.62412100005149
B,臺中市,交通運輸,18,主要道路建設,台74-高鐵臺中交流道-西行,24.117275997692495,120.62020500005751
B,臺中市,交通運輸,18,主要道路建設,台74-高鐵臺中交流道-東行,24.12236800804059,120.6200110000261
B,臺中市,交通運輸,18,主要道路建設,台74-南屯二交流道-西行,24.146025001131537,120.62304900004283
B,臺中市,交通運輸,18,主要道路建設,國1-臺中交流道-北上,24.1771219983802,120.6327270000502
B,臺中市,交通運輸,18,主要道路建設,國1-大雅交流道-南下,24.204645993118916,120.65385000006118
B,臺中市,交通運輸,18,主要道路建設,國1-大雅交流道-北上,24.206505002613643,120.6591810000409
B,臺中市,交通運輸,18,主要道路建設,台74-西屯三交流道-西行,24.179783005093302,120.63470800003333
B,臺中市,交通運輸,18,主要道路建設,台74-西屯一交流道-西行,24.159321997262577,120.62673800005753
B,臺中市,交通運輸,18,主要道路建設,台74-西屯一交流道-東行,24.16625599703361,120.63076500005816
B,臺中市,交通運輸,18,主要道路建設,台74-西屯二交流道-西行,24.17491900375558,120.63375500003144
B,臺中市,交通運輸,18,主要道路建設,台74-西屯二交流道-東行,24.171846004129808,120.63327700003383
B,臺中市,交通運輸,18,主要道路建設,台74-西屯三交流道-東行,24.184154994202437,120.63660000006541
B,臺中市,交通運輸,18,主要道路建設,台74-北屯交流-西行,24.19504900562041,120.64476300002563
B,臺中市,交通運輸,18,主要道路建設,台74-北屯交流-東行,24.196973002524587,120.64975900003706
B,臺中市,交通運輸,18,主要道路建設,台74-北屯端-西行,24.20094800046782,120.65933000004124
B,臺中市,公共建設,21,國小,臺中市國立臺中教育大學附屬國民小學,24.14388130010712,120.67394748445388
B,臺中市,公共建設,21,國小,臺中市東海大學附屬國民小學,24.182138466536404,120.60680813341241
B,臺中市,公共建設,21,國小,市立順天國中,24.34991200304345,120.61473400003796
B,臺中市,公共建設,21,國小,市立大甲國小,24.351204001975685,120.6257190000461
B,臺中市,公共建設,21,國小,市立華龍國小,24.406065001335737,120.64866900004644
B,臺中市,公共建設,21,國小,市立大甲國中,24.353075003918686,120.62294800003758
B,臺中市,公共建設,21,國小,市立文武國小,24.33628999659958,120.60087700006304
B,臺中市,公共建設,21,國小,市立文昌國小,24.34793799700124,120.6240690000599
B,臺中市,公共建設,21,國小,市立順天國小,24.34412700131522,120.61871000004915
B,臺中市,公共建設,21,國小,市立德化國小,24.361994999668113,120.62467400005264
B,臺中市,公共建設,21,國小,市立東明國小,24.375100997341107,120.68009500004582
B,臺中市,公共建設,21,國小,市立東陽國小,24.341036006845982,120.62890800002866
B,臺中市,公共建設,21,國小,市立西岐國小,24.420893999713403,120.62901900005505
B,臺中市,公共建設,21,國小,市立日南國中,24.377359010257425,120.65169600001549
B,臺中市,公共建設,21,國小,市立日南國小,24.39054899855274,120.65489400005093
B,臺中市,公共建設,21,國小,市立永安國小,24.38257499597307,120.6062760000668
B,臺中市,公共建設,21,國小,市立大安國中,24.365103996257293,120.60171500006297
B,臺中市,公共建設,21,國小,市立海墘國小,24.379211996914982,120.58899600006313
B,臺中市,公共建設,21,國小,市立大安國小,24.345189005934007,120.58829900003784
B,臺中市,公共建設,21,國小,市立三光國小,24.358013002044235,120.60049500005127
B,臺中市,公共建設,21,國小,市立外埔國中,24.33236799746933,120.64912900004842
B,臺中市,公共建設,21,國小,市立水美國小,24.32625200414064,120.63582400003438
B,臺中市,公共建設,21,國小,市立安定國小,24.345477003055453,120.70365800003151
B,臺中市,公共建設,21,國小,市立外埔國小,24.332597999396597,120.65395300004927
B,臺中市,公共建設,21,國小,市立鐵山國小,24.349031998206147,120.65646600004663
B,臺中市,公共建設,21,國小,市立馬鳴國小,24.338021994244627,120.66456500005691
B,臺中市,公共建設,21,國小,市立后里國小,24.31007100225234,120.72953700003183
B,臺中市,公共建設,21,國小,市立育英國小,24.310703998492347,120.67934600004925
B,臺中市,公共建設,21,國小,市立內埔國小,24.307569000118235,120.71441200003451
B,臺中市,公共建設,21,國小,市立月眉國小,24.315250998809706,120.69195100004089
B,臺中市,公共建設,21,國小,市立泰安國小,24.32518000586707,120.75047100001993
B,臺中市,公共建設,21,國小,市立七星國小,24.301536995673377,120.71131800004366
B,臺中市,公共建設,21,國小,市立后里國中,24.307839006197028,120.6953840000206
B,臺中市,公共建設,21,國小,國立臺中啟明學校,24.30511599879029,120.72351000003385
B,臺中市,公共建設,21,國小,市立西寧國小,24.27639800371183,120.5745330000405
B,臺中市,公共建設,21,國小,市立大楊國小,24.292295002813795,120.61014000004513
B,臺中市,公共建設,21,國小,市立清泉國中,24.305971007263246,120.59175400002735
B,臺中市,公共建設,21,國小,市立三田國小,24.289870001578358,120.58106800005488
B,臺中市,公共建設,21,國小,市立大秀國小,24.271817999403414,120.57288400005719
B,臺中市,公共建設,21,國小,市立東山國小,24.276283995552944,120.63458700005539
B,臺中市,公共建設,21,國小,市立清海國中,24.276424997281023,120.55365800006706
B,臺中市,公共建設,21,國小,市立清水國中,24.26851200265248,120.56252200005281
B,臺中市,公共建設,21,國小,市立清水國小,24.26682600410782,120.57316700004087
B,臺中市,公共建設,21,國小,市立吳厝國小,24.267220998038447,120.60284700006238
B,臺中市,公共建設,21,國小,市立建國國小,24.270328009911335,120.56078600002148
B,臺中市,公共建設,21,國小,市立甲南國小,24.30486700743057,120.5956060000254
B,臺中市,公共建設,21,國小,市立高美國小,24.311772999538515,120.56260300006028
B,臺中市,公共建設,21,國小,市立_榔國小,24.26421601047863,120.54580500002494
B,臺中市,公共建設,21,國小,市立梨山國小,24.255010997937408,121.25906699995315
B,臺中市,公共建設,21,國小,市立和平國中,24.178349008137058,120.88284500000404
B,臺中市,公共建設,21,國小,市立平等國小,24.317612999281632,121.29304099994738
B,臺中市,公共建設,21,國小,市立達觀國小,24.32798799422313,120.92092200001093
B,臺中市,公共建設,21,國小,市立自由國小,24.29105199802202,120.90920200000622
B,臺中市,公共建設,21,國小,市立和平國小,24.171134002876645,120.89529200000516
B,臺中市,公共建設,21,國小,市立白冷國小,24.183163000010882,120.93009600000242
B,臺中市,公共建設,21,國小,市立自由國小烏石分校,24.292871001899986,120.935089999999
B,臺中市,公共建設,21,國小,市立博愛國小,24.177308998528883,120.97895699999405
B,臺中市,公共建設,21,國小,博愛國小谷關分校,24.20205099936168,121.00635899999054
B,臺中市,公共建設,21,國小,市立翁子國小,24.262691005004488,120.74319900002595
B,臺中市,公共建設,21,國小,市立豐原國中,24.261138005540168,120.71893200002374
B,臺中市,公共建設,21,國小,市立豐陽國中,24.262028006086666,120.74495700001764
B,臺中市,公共建設,21,國小,市立豐東國中,24.24739600809082,120.7289770000151
B,臺中市,公共建設,21,國小,市立豐南國中,24.239377996344952,120.7168780000446
B,臺中市,公共建設,21,國小,市立富春國小,24.252410999204493,120.71326000003548
B,臺中市,公共建設,21,國小,市立豐村國小,24.25527599826761,120.73666400004046
B,臺中市,公共建設,21,國小,市立豐田國小,24.237034001120932,120.72202200003011
B,臺中市,公共建設,21,國小,市立瑞穗國小,24.249281003463746,120.71166800003125
B,臺中市,公共建設,21,國小,市立合作國小,24.240204003014505,120.70399700002774
B,臺中市,公共建設,21,國小,市立南陽國小,24.24805300184107,120.72335300003178
B,臺中市,公共建設,21,國小,市立豐原國小,24.255395000637233,120.72113700002971
B,臺中市,公共建設,21,國小,市立葫蘆墩國小,24.26112600212787,120.71434000002897
B,臺中市,公共建設,21,國小,市立福陽國小,24.24805300184107,120.72335300003178
B,臺中市,公共建設,21,國小,臺中市立福陽國小,24.246141996424235,120.72732800004246
B,臺中市,公共建設,21,國小,市立豐洲國小,24.26257000668607,120.7039410000221
B,臺中市,公共建設,21,國小,市立神岡國中,24.246592996127994,120.68136900004575
B,臺中市,公共建設,21,國小,市立神圳國中,24.26094800064049,120.6581530000457
B,臺中市,公共建設,21,國小,市立圳堵國小,24.27306100611848,120.6588190000282
B,臺中市,公共建設,21,國小,市立岸裡國小,24.24953199692218,120.69735600004512
B,臺中市,公共建設,21,國小,市立社口國小,24.24569699987363,120.68470500003845
B,臺中市,公共建設,21,國小,市立神岡國小,24.258399996153187,120.66069800005049
B,臺中市,公共建設,21,國小,市立石岡國小,24.275923000999697,120.77379600002294
B,臺中市,公共建設,21,國小,市立土牛國小,24.26611799450081,120.80785100002997
B,臺中市,公共建設,21,國小,市立石岡國小龍興分班,24.257073996422978,120.78958700002742
B,臺中市,公共建設,21,國小,市立梧棲國中,24.253524996718067,120.53341400007363
B,臺中市,公共建設,21,國小,市立梧棲國小,24.252704995944566,120.53098500008079
B,臺中市,公共建設,21,國小,市立梧南國小,24.242479000074763,120.5236470000645
B,臺中市,公共建設,21,國小,市立永寧國小,24.228984006275194,120.53293200003718
B,臺中市,公共建設,21,國小,市立中正國小,24.250617003393057,120.53815400004854
B,臺中市,公共建設,21,國小,市立中港國小,24.240619001815627,120.5552440000571
B,臺中市,公共建設,21,國小,市立大德國小,24.24354099720243,120.54213600007287
B,臺中市,公共建設,21,國小,市立石城國小,24.286513002733518,120.79229700002236
B,臺中市,公共建設,21,國小,市立石角國小,24.237914004166576,120.85030500000703
B,臺中市,公共建設,21,國小,市立中科國小,24.25832499318121,120.873832000021
B,臺中市,公共建設,21,國小,市立東勢國中,24.250265005676443,120.83244600000684
B,臺中市,公共建設,21,國小,市立中山國小,24.252886998387645,120.83526000001919
B,臺中市,公共建設,21,國小,市立成功國小,24.20754399593516,120.83984200002769
B,臺中市,公共建設,21,國小,市立新盛國小,24.24335500979004,120.8306020000091
B,臺中市,公共建設,21,國小,市立東新國小,24.260287996652963,120.82703800002118
B,臺中市,公共建設,21,國小,市立東華國中,24.205308006655542,120.84025300001063
B,臺中市,公共建設,21,國小,市立東新國中,24.263354000845297,120.8294650000138
B,臺中市,公共建設,21,國小,市立中坑國小,24.236585995969552,120.87995600001439
B,臺中市,公共建設,21,國小,市立明正國小,24.30935399725853,120.79030900003391
B,臺中市,公共建設,21,國小,市立東勢國小,24.258750996071225,120.83048500002613
B,臺中市,公共建設,21,國小,市立新成國小,24.22128900072174,120.83941600001812
B,臺中市,公共建設,21,國小,市立沙鹿國小,24.235188997722144,120.5615050000626
B,臺中市,公共建設,21,國小,市立沙鹿國中,24.235696003001436,120.56145000005256
B,臺中市,公共建設,21,國小,市立鹿寮國中,24.2440080036009,120.56659100004978
B,臺中市,公共建設,21,國小,市立北勢國中,24.22538000414111,120.5692440000403
B,臺中市,公共建設,21,國小,市立公館國小,24.260295997123876,120.59586500006652
B,臺中市,公共建設,21,國小,市立文光國小,24.217976002509484,120.55054300005467
B,臺中市,公共建設,21,國小,市立公明國小,24.243761002381017,120.60874800004386
B,臺中市,公共建設,21,國小,市立北勢國小,24.21669999936274,120.57167500005795
B,臺中市,公共建設,21,國小,市立鹿峰國小,24.25935299686104,120.57436900006682
B,臺中市,公共建設,21,國小,市立竹林國小,24.237733006183294,120.56713800003783
B,臺中市,公共建設,21,國小,市立鹿峰國小星河分部,24.259423999003147,120.57443100006272
B,臺中市,公共建設,21,國小,市立上楓國小,24.236449006655484,120.66706700002781
B,臺中市,公共建設,21,國小,市立大明國小,24.229083006472496,120.64383000003014
B,臺中市,公共建設,21,國小,市立汝鎏國小,24.234900000823075,120.62216100004247
B,臺中市,公共建設,21,國小,市立大雅國小,24.222238009717863,120.6511050000144
B,臺中市,公共建設,21,國小,市立六寶國小,24.238544995151745,120.6356400000573
B,臺中市,公共建設,21,國小,市立大華國中,24.2159990072412,120.65087200002735
B,臺中市,公共建設,21,國小,市立大雅國中,24.224096993230678,120.65045500006434
B,臺中市,公共建設,21,國小,市立文雅國小,24.219517998438768,120.64605500005257
B,臺中市,公共建設,21,國小,市立陽明國小,24.22145100306358,120.63234700004071
B,臺中市,公共建設,21,國小,市立三和國小,24.219294995794662,120.66746600005169
B,臺中市,公共建設,21,國小,私立惠明學校,24.220339002141554,120.66041800004125
B,臺中市,公共建設,21,國小,市立瑞井國小,24.15963499920519,120.56849400006227
B,臺中市,公共建設,21,國小,市立瑞峰國小,24.169128995044925,120.57338300007285
B,臺中市,公共建設,21,國小,市立大道國中,24.14701800271832,120.54983900004584
B,臺中市,公共建設,21,國小,市立大肚國小,24.154583000494377,120.54632300005964
B,臺中市,公共建設,21,國小,市立山陽國小,24.163476002822016,120.54466800004576
B,臺中市,公共建設,21,國小,市立大忠國小,24.134408010393617,120.5564380000235
B,臺中市,公共建設,21,國小,市立永順國小,24.15853700414815,120.53306100005116
B,臺中市,公共建設,21,國小,市立追分國小,24.122254007125544,120.5686200000292
B,臺中市,公共建設,21,國小,市立塗城國小,24.092593007975776,120.70094100001621
B,臺中市,公共建設,21,國小,市立光正國中,24.095655997653186,120.71840100004012
B,臺中市,公共建設,21,國小,市立爽文國中,24.10752700133127,120.67852300003577
B,臺中市,公共建設,21,國小,市立崇光國小,24.11507899973786,120.68362000004444
B,臺中市,公共建設,21,國小,市立立新國小,24.10550899902501,120.69893300004239
B,臺中市,公共建設,21,國小,市立美群國小,24.0838579983778,120.70947900004134
B,臺中市,公共建設,21,國小,市立大里國小,24.100442004658422,120.67730600002812
B,臺中市,公共建設,21,國小,市立瑞城國小,24.086276000572024,120.70294200003387
B,臺中市,公共建設,21,國小,市立益民國小,24.107464006733203,120.68745900001912
B,臺中市,公共建設,21,國小,市立內新國小,24.11181500702767,120.69584000002014
B,臺中市,公共建設,21,國小,市立龍港國小,24.19897600994812,120.50102000002992
B,臺中市,公共建設,21,國小,市立四箴國中,24.17945100142619,120.57651100005039
B,臺中市,公共建設,21,國小,市立龍井國中,24.191906005055923,120.54355100004247
B,臺中市,公共建設,21,國小,市立崑山國小,24.241451000877237,120.7874270000232
B,臺中市,公共建設,21,國小,市立大南國小,24.22973500724757,120.80430300000862
B,臺中市,公共建設,21,國小,市立新社國小,24.241300994833175,120.81108000002915
B,臺中市,公共建設,21,國小,市立協成國小,24.193990003754045,120.81306900001663
B,臺中市,公共建設,21,國小,市立中和國小,24.156839994026278,120.82836900002413
B,臺中市,公共建設,21,國小,市立新社國中,24.23886099648898,120.80909400003074
B,臺中市,公共建設,21,國小,市立新社高中附設國中部,24.237775008249756,120.80718600001171
B,臺中市,公共建設,21,國小,市立福民國小,24.16344899344331,120.88120500001361
B,臺中市,公共建設,21,國小,市立東興國小,24.206547998807935,120.81896700002336
B,臺中市,公共建設,21,國小,市立石岡國中,24.267286996270986,120.79669100003072
B,臺中市,公共建設,21,國小,市立大林國小,24.15964199766535,120.86377100001424
B,臺中市,公共建設,21,國小,市立立人國中,24.170814001282594,120.67026900003813
B,臺中市,公共建設,21,國小,市立立人國小,24.17090099828622,120.66892000004674
B,臺中市,公共建設,21,國小,市立中華國小,24.165929007312815,120.66593200002674
B,臺中市,公共建設,21,國小,市立光德國中,24.105104997854504,120.6412030000518
B,臺中市,公共建設,21,國小,市立溪南國中,24.071884993187155,120.64468800006355
B,臺中市,公共建設,21,國小,市立旭光國小,24.114206998193364,120.59781400005348
B,臺中市,公共建設,21,國小,市立烏日國中,24.104669000510665,120.61736800004242
B,臺中市,公共建設,21,國小,市立五光國小,24.09443499311342,120.6469530000638
B,臺中市,公共建設,21,國小,市立九德國小,24.109876999456542,120.6389200000425
B,臺中市,公共建設,21,國小,市立溪尾國小,24.041113009663718,120.63967700001753
B,臺中市,公共建設,21,國小,市立東園國小,24.08397299355012,120.6398260000657
B,臺中市,公共建設,21,國小,市立僑仁國小,24.107722002034787,120.64057600003729
B,臺中市,公共建設,21,國小,市立烏日國小,24.107681999337256,120.62362700005312
B,臺中市,公共建設,21,國小,市立喀哩國小,24.061677996978794,120.64268100005602
B,臺中市,公共建設,21,國小,市立龍峰國小,24.17945100142619,120.57651100005039
B,臺中市,公共建設,21,國小,市立龍井國小,24.1840270066238,120.52929800003461
B,臺中市,公共建設,21,國小,市立龍泉國小,24.19617800404836,120.54768900004584
B,臺中市,公共建設,21,國小,市立龍津國中,24.20455199599117,120.52215400007735
B,臺中市,公共建設,21,國小,市立龍津國小,24.201210003915424,120.52171400004546
B,臺中市,公共建設,21,國小,市立龍海國小,24.216214002654564,120.52682600005303
B,臺中市,公共建設,21,國小,市立龍山國小,24.213668005253034,120.55068000004078
B,臺中市,公共建設,21,國小,市立東汴國小,24.117490003837396,120.79591500001946
B,臺中市,公共建設,21,國小,市立頭汴國小,24.122933007080057,120.75209700001808
B,臺中市,公共建設,21,國小,市立長億國小,24.11294700611402,120.72103100002136
B,臺中市,公共建設,21,國小,市立中華國小,24.147989994263767,120.7260610000416
B,臺中市,公共建設,21,國小,市立車籠埔國小,24.109626996939586,120.73299000003401
B,臺中市,公共建設,21,國小,市立中平國中,24.12340801028915,120.7190470000099
B,臺中市,公共建設,21,國小,市立新光國中,24.157667001080107,120.70907800002989
B,臺中市,公共建設,21,國小,市立太平國小,24.127830996111616,120.71768000003922
B,臺中市,公共建設,21,國小,市立黃竹國小,24.07983900382038,120.76459000002158
B,臺中市,公共建設,21,國小,市立坪林國小,24.144975993872823,120.73675600004518
B,臺中市,公共建設,21,國小,市立新光國小,24.152275000813816,120.70655300003743
B,臺中市,公共建設,21,國小,市立建平國小,24.124172996282915,120.72449600004447
B,臺中市,公共建設,21,國小,市立新平國小,24.154906999483163,120.71978300003715
B,臺中市,公共建設,21,國小,市立太平國中,24.147281999686086,120.73402400003273
B,臺中市,公共建設,21,國小,市立宜欣國小,24.139933999060748,120.71545200003237
B,臺中市,公共建設,21,國小,市立坪林國小坪廓分校,24.15680000989397,120.7566370000081
B,臺中市,公共建設,21,國小,市立立新國中,24.110251002893147,120.69931600002762
B,臺中市,公共建設,21,國小,市立成功國中,24.093400993320856,120.69887300005072
B,臺中市,公共建設,21,國小,市立光榮國中,24.111165996469698,120.68738100004967
B,臺中市,公共建設,21,國小,市立永隆國小,24.111415997111898,120.67741600004783
B,臺中市,公共建設,21,國小,市立草湖國小,24.078576001841753,120.69022400003534
B,臺中市,公共建設,21,國小,市立健民國小,24.089575004548713,120.72869400001936
B,臺中市,公共建設,21,國小,市立大元國小,24.100247005996838,120.69053600002833
B,臺中市,公共建設,21,國小,市立霧峰國中,24.06763300390586,120.68895600003376
B,臺中市,公共建設,21,國小,市立光復國中,24.04346100547105,120.68994000002539
B,臺中市,公共建設,21,國小,市立四德國小,24.06170299543302,120.66733100005273
B,臺中市,公共建設,21,國小,市立萬豐國小,24.028749997727022,120.69723900003753
B,臺中市,公共建設,21,國小,市立霧峰國小,24.05710700318149,120.69843700002916
B,臺中市,公共建設,21,國小,市立僑榮國小,24.06984800166546,120.7033140000352
B,臺中市,公共建設,21,國小,市立吉峰國小,24.079603002265124,120.71909900003335
B,臺中市,公共建設,21,國小,市立桐林國小,24.065732995479742,120.73581000004346
B,臺中市,公共建設,21,國小,市立峰谷國小,24.035317005405787,120.72487400002107
B,臺中市,公共建設,21,國小,市立五福國小,24.077432006673643,120.66985500002644
B,臺中市,公共建設,21,國小,市立光正國小,24.036703004178957,120.66876700003291
B,臺中市,公共建設,21,國小,市立光復國小,24.04346100547105,120.68994000002539
B,臺中市,公共建設,21,國小,市立復興國小,24.042630001535866,120.69684600003482
B,臺中市,公共建設,21,國小,市立北新國中,24.17936600150199,120.69802200003727
B,臺中市,公共建設,21,國小,市立逢甲國小,24.168091003572695,120.75928300001755
B,臺中市,公共建設,21,國小,市立大德國中,24.18036699590932,120.66889600005098
B,臺中市,公共建設,21,國小,市立四張犁國中,24.1940920045686,120.67708100003115
B,臺中市,公共建設,21,國小,市立崇德國中,24.175132995486432,120.68457600005476
B,臺中市,公共建設,21,國小,市立仁愛國小,24.180202000852685,120.67152700003466
B,臺中市,公共建設,21,國小,市立文心國小,24.17316999616006,120.68267100004567
B,臺中市,公共建設,21,國小,市立四維國小,24.170451999283852,120.69495800003897
B,臺中市,公共建設,21,國小,市立僑孝國小,24.17767300000064,120.69955300004011
B,臺中市,公共建設,21,國小,市立雙十國中,24.15271199860706,120.69099200004125
B,臺中市,公共建設,21,國小,市立五權國中,24.15539300510162,120.6783330000269
B,臺中市,公共建設,21,國小,市立太平國小,24.149246996870556,120.68203800004328
B,臺中市,公共建設,21,國小,市立省三國小,24.15944599940812,120.6838780000459
B,臺中市,公共建設,21,國小,市立健行國小,24.159377999656158,120.67276500004311
B,臺中市,公共建設,21,國小,市立賴厝國小,24.16654199881929,120.67870600004215
B,臺中市,公共建設,21,國小,市立篤行國小,24.155210995700966,120.67301200004914
B,臺中市,公共建設,21,國小,私立育仁小學,24.156953006342373,120.6906830000247
B,臺中市,公共建設,21,國小,臺中教育大學附小,24.144738997850723,120.67235900005097
B,臺中市,公共建設,21,國小,市立中正國小,24.152610004931148,120.66667200003282
B,臺中市,公共建設,21,國小,市立忠孝國小,24.13786399538157,120.6735610000571
B,臺中市,公共建設,21,國小,市立四育國中,24.125114003796114,120.66508300003694
B,臺中市,公共建設,21,國小,市立信義國小,24.121599997680303,120.66855600005053
B,臺中市,公共建設,21,國小,市立國光國小,24.125418002190194,120.68023400003504
B,臺中市,公共建設,21,國小,市立和平國小,24.120498008260114,120.65979300001959
B,臺中市,公共建設,21,國小,市立崇倫國中,24.13187300199944,120.65866600003847
B,臺中市,公共建設,21,國小,市立樹義國小,24.111975998562265,120.65740400005022
B,臺中市,公共建設,21,國小,市立潭秀國中,24.215479004987998,120.6994530000294
B,臺中市,公共建設,21,國小,市立頭家國小,24.19623999931479,120.69601400003505
B,臺中市,公共建設,21,國小,私立常春藤高中附設國中部,24.19456500007845,120.71712300003976
B,臺中市,公共建設,21,國小,市立潭子國中,24.209919003351512,120.70833500002875
B,臺中市,公共建設,21,國小,市立僑忠國小,24.20247900243549,120.70335400003206
B,臺中市,公共建設,21,國小,市立潭子國小,24.214519009432188,120.70401900001872
B,臺中市,公共建設,21,國小,市立東寶國小,24.216814000977948,120.6842650000413
B,臺中市,公共建設,21,國小,市立潭陽國小,24.212472004569907,120.70999700002378
B,臺中市,公共建設,21,國小,市立新興國小,24.204236006983482,120.72600300001987
B,臺中市,公共建設,21,國小,私立華盛頓國小,24.19681800732386,120.71744500002279
B,臺中市,公共建設,21,國小,市立四張犁國小,24.19263700539818,120.67808400002377
B,臺中市,公共建設,21,國小,市立文昌國小,24.16818700353327,120.6914630000322
B,臺中市,公共建設,21,國小,市立松竹國小,24.18089500120381,120.68991700003458
B,臺中市,公共建設,21,國小,市立光正國小,24.196219997682,120.74832300003884
B,臺中市,公共建設,21,國小,市立建功國小,24.175954995681195,120.71545200004242
B,臺中市,公共建設,21,國小,市立陳平國小,24.18480399572374,120.6674760000485
B,臺中市,公共建設,21,國小,市立北屯國小,24.16333600220572,120.69127100002996
B,臺中市,公共建設,21,國小,市立新興國小,24.194712997571198,120.66250100005423
B,臺中市,公共建設,21,國小,私立明道普霖斯頓小學,24.177016007186314,120.68396700002125
B,臺中市,公共建設,21,國小,私立慎齋小學,24.17585699381627,120.67714300005801
B,臺中市,公共建設,21,國小,市立東光國小,24.17180800504234,120.7017320000248
B,臺中市,公共建設,21,國小,市立仁美國小,24.17767300000064,120.69955300004011
B,臺中市,公共建設,21,國小,市立三光國中,24.167599003166337,120.69783400002721
B,臺中市,公共建設,21,國小,市立軍功國小,24.173257004896026,120.71929300002779
B,臺中市,公共建設,21,國小,市立東山國中,24.16801000341736,120.71247700002654
B,臺中市,公共建設,21,國小,市立建仁國小,24.18876699966384,120.66342100004495
B,臺中市,公共建設,21,國小,市立惠文國小,24.15250199960315,120.63808900004591
B,臺中市,公共建設,21,國小,市立文山國小,24.149193997879888,120.61475800005569
B,臺中市,公共建設,21,國小,市立南屯國小,24.136972005987904,120.63818200003055
B,臺中市,公共建設,21,國小,市立惠文高中附設國中部,24.15160299999436,120.63981400004222
B,臺中市,公共建設,21,國小,市立大業國中,24.154470997990085,120.6524970000542
B,臺中市,公共建設,21,國小,市立萬和國中,24.13411600027795,120.64030900004771
B,臺中市,公共建設,21,國小,市立黎明國中,24.156377997214207,120.63277000005758
B,臺中市,公共建設,21,國小,市立大新國小,24.14586800368734,120.64697900003021
B,臺中市,公共建設,21,國小,市立永春國小,24.135028000214593,120.64826000004294
B,臺中市,公共建設,21,國小,市立春安國小,24.134762997234738,120.60842000006139
B,臺中市,公共建設,21,國小,市立鎮平國小,24.12158100930344,120.62895300002268
B,臺中市,公共建設,21,國小,市立黎明國小,24.157273009313403,120.63274100002194
B,臺中市,公共建設,21,國小,私立嶺東高中附設國中部,24.13729400769783,120.6102700000289
B,臺中市,公共建設,21,國小,國立臺中特殊教育學校,24.151459003142264,120.64139500003645
B,臺中市,公共建設,21,國小,市立光隆國小,24.103207007698373,120.72755400002042
B,臺中市,公共建設,21,國小,市立東平國小,24.13290600204922,120.72327000003361
B,臺中市,公共建設,21,國小,市立大鵬國小,24.177303998554283,120.66540000005095
B,臺中市,公共建設,21,國小,市立永安國小,24.18443299612381,120.62474100005699
B,臺中市,公共建設,21,國小,私立東海大學附小,24.181951000531633,120.6070310000465
B,臺中市,公共建設,21,國小,市立安和國中,24.172957003920427,120.61619400004193
B,臺中市,公共建設,21,國小,市立至善國中,24.17461900247836,120.64035700003988
B,臺中市,公共建設,21,國小,市立光復國小,24.14366099779139,120.68196900004104
B,臺中市,公共建設,21,國小,市立大智國小,24.12878100490977,120.69096900002839
B,臺中市,公共建設,21,國小,市立進德國小,24.145309007730912,120.69342900001982
B,臺中市,公共建設,21,國小,市立東峰國中,24.12530100156975,120.68586100003203
B,臺中市,公共建設,21,國小,市立育英國中,24.136226997944142,120.69939700003792
B,臺中市,公共建設,21,國小,市立臺中國小,24.131521995666713,120.6847180000525
B,臺中市,公共建設,21,國小,市立成功國小,24.137287996002087,120.69836200004634
B,臺中市,公共建設,21,國小,市立力行國小,24.150700008570958,120.69393500002187
B,臺中市,公共建設,21,國小,市立樂業國小,24.138091004893063,120.69439400002648
B,臺中市,公共建設,21,國小,市立中山國中,24.168288002216887,120.65926400003544
B,臺中市,公共建設,21,國小,市立漢口國中,24.161016004489028,120.6574700000315
B,臺中市,公共建設,21,國小,私立葳格國中,24.170739000648947,120.65440300004056
B,臺中市,公共建設,21,國小,市立協和國小,24.17036900793863,120.6195560000284
B,臺中市,公共建設,21,國小,市立西屯國小,24.179548004571945,120.64068700003122
B,臺中市,公共建設,21,國小,市立何厝國小,24.163559996955883,120.65391500005396
B,臺中市,公共建設,21,國小,市立大仁國小,24.167667001898224,120.65818000003618
B,臺中市,公共建設,21,國小,市立重慶國小,24.170449995177844,120.66377900005382
B,臺中市,公共建設,21,國小,市立國安國小,24.19371699422312,120.60887100006357
B,臺中市,公共建設,21,國小,市立泰安國小,24.19765499408815,120.64876700005938
B,臺中市,公共建設,21,國小,私立葳格小學,24.17051800690126,120.6539540000239
B,臺中市,公共建設,21,國小,市立上安國小,24.172519003529743,120.63914000003436
B,臺中市,公共建設,21,國小,市立東興國小,24.155858996719488,120.65234300005163
B,臺中市,公共建設,21,國小,市立上石國小,24.1727409964401,120.64367100005073
B,臺中市,公共建設,21,國小,國立臺中啟聰學校,24.161516007918074,120.6173960000268
B,臺中市,公共建設,21,國小,市立光明國中,24.132717007057213,120.67335800002027
B,臺中市,公共建設,21,國小,市立向上國中,24.1433489992164,120.66316600004913
B,臺中市,公共建設,21,國小,市立居仁國中,24.137080007614955,120.67872900001785
B,臺中市,公共建設,21,國小,市立忠明國小,24.15780700540466,120.65913000002816
B,臺中市,公共建設,21,國小,市立大同國小,24.135640999895568,120.67825300004549
B,臺中市,公共建設,21,國小,市立大勇國小,24.13449101042458,120.65780200001606
B,臺中市,公共建設,21,國小,市立忠信國小,24.139287002859874,120.66857300002962
B,臺中市,公共建設,22,國中,臺中市國立臺中第二高級中學,24.153089702125055,120.67520871475607
B,臺中市,公共建設,22,國中,臺中市國立臺中第一高級中學,24.149724239148114,120.68635694553598
B,臺中市,公共建設,22,國中,臺中市國立臺中第二高級中學,24.15294218066167,120.6755695899967
B,臺中市,公共建設,22,國中,臺中市東海大學附屬高級中學,24.182433116707294,120.60535074357807
B,臺中市,公共建設,22,國中,臺中市國立大里高級中學,24.10977108421101,120.68346895604374
B,臺中市,公共建設,22,國中,臺中市國立清水高級中學,24.26480330026983,120.57454615583153
B,臺中市,公共建設,22,國中,臺中市國立豐原高級中學,24.25624752798327,120.74197060340654
B,臺中市,公共建設,22,國中,臺中市國立大甲高級中學,24.341078493899243,120.62264473001414
B,臺中市,公共建設,22,國中,臺中市國立臺中女子高級中學,24.136137761232707,120.67766027561953
B,臺中市,公共建設,22,國中,臺中市國立臺中文華高級中學,24.170250289989923,120.65998965736901
B,臺中市,公共建設,23,高中,臺中市國立沙鹿高級工業職業學校進修學校,24.237935747101705,120.56560338588535
B,臺中市,公共建設,23,高中,臺中市國立臺中啟明學校高商進修學校,24.30514411699096,120.72405919697121
B,臺中市,公共建設,23,高中,臺中市國立豐原高級商業職業學校進修學校,24.245823546372847,120.71371428381809
B,臺中市,公共建設,23,高中,臺中市國立東勢高級工業職業學校進修學校,24.240255445414974,120.83536980332022
B,臺中市,公共建設,23,高中,臺中市國立霧峰高級農工職業學校,24.07350760278952,120.70001467688567
B,臺中市,公共建設,23,高中,臺中市國立大甲高級工業職業學校進修學校,24.349540224361593,120.64303992165036
B,臺中市,公共建設,23,高中,臺中市國立豐原高級商業職業學校,24.245936337811518,120.71354822830475
B,臺中市,公共建設,23,高中,臺中市國立臺中高級農業職業學校教育農園,24.164941583945083,120.64677334795539
B,臺中市,公共建設,23,高中,臺中市國立臺中家商,24.13342348323349,120.68564386096783
B,臺中市,公共建設,23,高中,臺中市國立東勢高級工業職業學校,24.239916262842282,120.83553818259338
B,臺中市,公共建設,23,高中,臺中市國立大甲高級工業職業學校,24.349607703967017,120.64285145293712
B,臺中市,公共建設,23,高中,臺中市國立臺中高級農業職業學校第二校區,24.16610675966382,120.64818812671608
B,臺中市,公共建設,23,高中,臺中市國立沙鹿高級工業職業學校,24.237954534593392,120.56544089876797
B,臺中市,公共建設,23,高中,臺中市國立臺中高級農業職業學校,24.128164275758945,120.6856266876512
B,臺中市,公共建設,23,高中,私立致用高中,24.34157399767974,120.6242480000611
B,臺中市,公共建設,23,高中,國立大甲高工,24.350380004359256,120.64502300003615
B,臺中市,公共建設,23,高中,國立大甲高中,24.340993009306395,120.62267500002321
B,臺中市,公共建設,23,高中,市立后綜高中,24.306224996002115,120.72262000003977
B,臺中市,公共建設,23,高中,國立清水高中,24.265283999820724,120.57410800006116
B,臺中市,公共建設,23,高中,國立豐原高中,24.25620900006148,120.74194000003617
B,臺中市,公共建設,23,高中,國立豐原高商,24.24605299657461,120.71294500004068
B,臺中市,公共建設,23,高中,市立中港高中,24.24479900006894,120.54212500005622
B,臺中市,公共建設,23,高中,市立中港高中附設國中部,24.24479900006894,120.54212500005622
B,臺中市,公共建設,23,高中,國立東勢高工,24.248483006616265,120.83639600000973
B,臺中市,公共建設,23,高中,私立玉山高中,24.250508994836544,120.84472100002652
B,臺中市,公共建設,23,高中,私立嘉陽高中,24.265677005448527,120.58271300003373
B,臺中市,公共建設,23,高中,國立沙鹿高工,24.23890300071971,120.56523000005008
B,臺中市,公共建設,23,高中,市立大里高中,24.093278000683654,120.678765000037
B,臺中市,公共建設,23,高中,市立大里高中附設國中部,24.093278000683654,120.678765000037
B,臺中市,公共建設,23,高中,私立青年高中,24.087972006076058,120.69310300002286
B,臺中市,公共建設,23,高中,私立立人高中,24.105484995859143,120.69088700005061
B,臺中市,公共建設,23,高中,私立大明高中,24.116580000133492,120.68566600004154
B,臺中市,公共建設,23,高中,私立立人高中附設國中部,24.1055760064519,120.69133900002169
B,臺中市,公共建設,23,高中,私立大明高中附設國中部,24.116490004713715,120.68576500003014
B,臺中市,公共建設,23,高中,市立新社高中,24.237504003767135,120.80710700001718
B,臺中市,公共建設,23,高中,私立曉明女中,24.168288003721983,120.67372000003161
B,臺中市,公共建設,23,高中,國立臺中一中,24.149175004177984,120.68699000003198
B,臺中市,公共建設,23,高中,國立臺中二中,24.153190997798912,120.67520200004537
B,臺中市,公共建設,23,高中,私立光華高工,24.15853200114415,120.69411700004025
B,臺中市,公共建設,23,高中,私立曉明女中附設國中部,24.168288003721983,120.67372000003161
B,臺中市,公共建設,23,高中,私立明道高中,24.105726005474164,120.63627300003216
B,臺中市,公共建設,23,高中,私立明道高中附設國中部,24.105726005474164,120.63627300003216
B,臺中市,公共建設,23,高中,市立長億高中,24.114095993190787,120.72062700005144
B,臺中市,公共建設,23,高中,私立慈明高中,24.106496007449266,120.72448800002103
B,臺中市,公共建設,23,高中,市立長億高中附設國中部,24.114095993190787,120.72062700005144
B,臺中市,公共建設,23,高中,私立華盛頓高中,24.1583169932439,120.74533700004781
B,臺中市,公共建設,23,高中,私立華盛頓高中附設國中部,24.15804600836017,120.74561300001697
B,臺中市,公共建設,23,高中,國立大里高中,24.109260994796795,120.6828900000556
B,臺中市,公共建設,23,高中,私立僑泰高中,24.111936997839564,120.6678030000463
B,臺中市,公共建設,23,高中,私立僑泰高中附設國中部,24.111936997839564,120.6678030000463
B,臺中市,公共建設,23,高中,國立霧峰農工,24.073808004735234,120.7016180000303
B,臺中市,公共建設,23,高中,私立明台高中,24.060780995695197,120.70403000004562
B,臺中市,公共建設,23,高中,私立慈明高中,24.052771006293526,120.70006900001869
B,臺中市,公共建設,23,高中,私立衛道高中,24.18393799387993,120.67455900005507
B,臺中市,公共建設,23,高中,私立衛道高中附設國中部,24.18393799387993,120.67455900005507
B,臺中市,公共建設,23,高中,私立新民高中,24.157936008673293,120.68654900001549
B,臺中市,公共建設,23,高中,私立新民高中附設國中部,24.158026004591754,120.6864510000323
B,臺中市,公共建設,23,高中,私立明德女中,24.12058999272301,120.68392000005669
B,臺中市,公共建設,23,高中,私立宜寧高中,24.11952299795569,120.65947300005142
B,臺中市,公共建設,23,高中,國立臺中高工,24.114436997623024,120.6614800000468
B,臺中市,公共建設,23,高中,國立臺中高工,24.114436997623024,120.6614800000468
B,臺中市,公共建設,23,高中,私立明德女中附設國中部,24.12058999272301,120.68392000005669
B,臺中市,公共建設,23,高中,私立宜寧高中附設國中部,24.11952299795569,120.65947300005142
B,臺中市,公共建設,23,高中,私立弘文高中,24.226233004330364,120.704312000029
B,臺中市,公共建設,23,高中,私立常春藤高中,24.19438399454006,120.71713300004429
B,臺中市,公共建設,23,高中,私立弘文高中附設國中部,24.226413997244574,120.70453800004529
B,臺中市,公共建設,23,高中,市立惠文高中,24.15160299921908,120.63971500005266
B,臺中市,公共建設,23,高中,私立嶺東高中,24.13729400769783,120.6102700000289
B,臺中市,公共建設,23,高中,市立西苑高中,24.186101996941737,120.6428860000525
B,臺中市,公共建設,23,高中,私立懷恩高中,24.18233299567703,120.6078150000606
B,臺中市,公共建設,23,高中,國立文華高中,24.170181004211248,120.66011200003014
B,臺中市,公共建設,23,高中,私立東大附中,24.18233299567703,120.6078150000606
B,臺中市,公共建設,23,高中,私立東大附中附設國中部,24.18233299567703,120.6078150000606
B,臺中市,公共建設,23,高中,國立臺中高農,24.12659300373558,120.68565000003167
B,臺中市,公共建設,23,高中,國立臺中家商,24.133515003893205,120.68461200002714
B,臺中市,公共建設,23,高中,國立臺中女中,24.13590100131391,120.67737700003714
B,臺中市,公共建設,23,高中,市立忠明高中,24.157866005842486,120.66372200003174
B,臺中市,公共建設,24,專科,臺中市國立臺中護理專科學校,24.139530089877507,120.67570526135988
B,臺中市,公共建設,25,大學及研究所,臺中市國立中興大學育成中心,24.20305351002161,120.60962464632486
B,臺中市,公共建設,25,大學及研究所,臺中市嶺東科技大學第二校區,24.13338251366881,120.60265250018053
B,臺中市,公共建設,25,大學及研究所,臺中市國立臺中教育大學學生宿舍,24.144991798204327,120.6702778086132
B,臺中市,公共建設,25,大學及研究所,臺中市國立中興大學農業試驗場葡萄中心,24.07781582727586,120.72297505701596
B,臺中市,公共建設,25,大學及研究所,臺中市亞洲大學,24.045946607152185,120.68700237643282
B,臺中市,公共建設,25,大學及研究所,臺中市逢甲大學,24.17873426101543,120.64655594841359
B,臺中市,公共建設,25,大學及研究所,臺中市弘光科技大學,24.217641617241657,120.58185383376674
B,臺中市,公共建設,25,大學及研究所,臺中市嶺東科技大學,24.138253059318185,120.60813746662937
B,臺中市,公共建設,25,大學及研究所,臺中市修平科技大學,24.09564332522708,120.712911958274
B,臺中市,公共建設,25,大學及研究所,臺中市逢甲大學育成中心,24.20158834832051,120.60898757059013
B,臺中市,公共建設,25,大學及研究所,臺中市中國醫藥大學,24.155995673906467,120.68012232548797
B,臺中市,公共建設,25,大學及研究所,臺中市國立臺中教育大學第二校區,24.144219438860237,120.66647541453729
B,臺中市,公共建設,25,大學及研究所,臺中市國立中興大學森林學系北溝實習園區,24.07832416617178,120.71767333473285
B,臺中市,公共建設,25,大學及研究所,臺中市國立中興大學農業試驗場葡萄中心,24.077206057980703,120.7227685910629
B,臺中市,公共建設,25,大學及研究所,臺中市靜宜大學,24.227586734633526,120.58022550913847
B,臺中市,公共建設,25,大學及研究所,臺中市朝陽科技大學,24.06952088494787,120.71473089145759
B,臺中市,公共建設,25,大學及研究所,臺中市臺中私立市僑光科技大學,24.189664847214125,120.64324895305921
B,臺中市,公共建設,25,大學及研究所,臺中市朝陽科技大學,24.069142136516707,120.7160124405338
B,臺中市,公共建設,25,大學及研究所,臺中市華梵大學臺中推廣中心,24.161473236344055,120.61762335409408
B,臺中市,公共建設,25,大學及研究所,臺中市國立中興大學農業試驗場,24.07867840798848,120.71184135219238
B,臺中市,公共建設,25,大學及研究所,臺中市國立臺中技術學院,24.15042536128377,120.68371435262665
B,臺中市,公共建設,25,大學及研究所,臺中市中臺科技大學,24.174120496243305,120.73528049865641
B,臺中市,公共建設,25,大學及研究所,臺中市國立臺灣體育運動大學臺中校區,24.149261065867258,120.68794526537677
B,臺中市,公共建設,25,大學及研究所,臺中市國立臺中教育大學,24.142654334259156,120.67214970554166
B,臺中市,公共建設,25,大學及研究所,臺中市國立臺中技術學院,24.151338539258315,120.68433471802135
B,臺中市,公共建設,25,大學及研究所,臺中市國立臺中大學預定地,24.147591247344323,120.61018051878219
B,臺中市,公共建設,25,大學及研究所,臺中市國立中興大學,24.118444635292974,120.67583124556285
B,臺中市,公共建設,25,大學及研究所,臺中市國立臺中技術學院,24.152184988243842,120.68365723782118
B,臺中市,公共建設,25,大學及研究所,臺中市朝陽科技大學育成中心,24.203510244001276,120.60828258211029
B,臺中市,公共建設,25,大學及研究所,臺中市國立臺中教育大學附屬幼稚園,24.143824014292836,120.67388751915331
B,臺中市,公共建設,25,大學及研究所,臺中市國立中興大學,24.123669651981615,120.67488778770479
B,臺中市,公共建設,25,大學及研究所,臺中市中國醫藥大學學生宿舍,24.155496136797787,120.68074329944766
B,臺中市,公共建設,25,大學及研究所,臺中市東海大學,24.182288735090026,120.6024934542077
B,臺中市,公共建設,25,大學及研究所,臺中市國立勤益科技大學,24.143985339609493,120.73192828962196
B,臺中市,公共建設,25,大學及研究所,臺中市中山醫學大學,24.122041858060534,120.65167065186225
B,臺中市,公共建設,25,大學及研究所,臺中市國立中興大學農業試驗場第一試驗區,24.078056518201883,120.70633309037109
B,臺中市,公共建設,25,大學及研究所,臺中市南華大學推廣教育中心,24.14949043629062,120.65497936505284
B,臺中市,公共建設,25,大學及研究所,弘光科技大學,24.217095001675595,120.58086300005023
B,臺中市,公共建設,25,大學及研究所,靜宜大學,24.22584400397061,120.5772070000441
B,臺中市,公共建設,25,大學及研究所,私立修平技術學院,24.09538400029399,120.71336800003749
B,臺中市,公共建設,25,大學及研究所,國立台灣體育大學,24.14927300293654,120.68906000003152
B,臺中市,公共建設,25,大學及研究所,國立中興大學畜牧試驗場,24.08034999558724,120.63498700006224
B,臺中市,公共建設,25,大學及研究所,國立勤益技術學院,24.14465499943607,120.7296010000305
B,臺中市,公共建設,25,大學及研究所,朝陽科技大學,24.068952998771636,120.71485200003397
B,臺中市,公共建設,25,大學及研究所,私立臺中健康暨管理學院,24.04720200460117,120.68661000002949
B,臺中市,公共建設,25,大學及研究所,亞洲大學,24.04720200460117,120.68661000002949
B,臺中市,公共建設,25,大學及研究所,中國醫藥大學,24.156338003411985,120.68110100003264
B,臺中市,公共建設,25,大學及研究所,國立臺中技術學院,24.15070600531419,120.68332000002458
B,臺中市,公共建設,25,大學及研究所,國立臺中技術學院附空中商專,24.150977005635838,120.68321100002099
B,臺中市,公共建設,25,大學及研究所,私立曉明長春大學,24.16721200864917,120.67492300002229
B,臺中市,公共建設,25,大學及研究所,私立天主教教理研究院,24.16207500164753,120.67959100004059
B,臺中市,公共建設,25,大學及研究所,中台神學院,24.13634000027156,120.67254400003678
B,臺中市,公共建設,25,大學及研究所,國立臺中教育大學,24.14339800229664,120.67179300003801
B,臺中市,公共建設,25,大學及研究所,國立臺中護理專科學校,24.14030600568303,120.6755820000265
B,臺中市,公共建設,25,大學及研究所,中山醫學大學大慶校區,24.117856001271484,120.64958800004504
B,臺中市,公共建設,25,大學及研究所,中山醫學大學大慶校區,24.117856001271484,120.64958800004504
B,臺中市,公共建設,25,大學及研究所,中山醫學大學,24.121761003562817,120.6499000000383
B,臺中市,公共建設,25,大學及研究所,國立中興大學,24.12279700641278,120.67896300002043
B,臺中市,公共建設,25,大學及研究所,私立樹德工商專科學校,24.11379599656012,120.65083900005449
B,臺中市,公共建設,25,大學及研究所,中台科技大學,24.174373003679634,120.73573900002529
B,臺中市,公共建設,25,大學及研究所,神召神學院,24.1393739956803,120.5883490000646
B,臺中市,公共建設,25,大學及研究所,嶺東科技大學春安校區,24.13799399313268,120.6076350000719
B,臺中市,公共建設,25,大學及研究所,私立喜信聖經學院,24.129041005667567,120.68564600002257
B,臺中市,公共建設,25,大學及研究所,逢甲大學,24.179317000658443,120.64999100003892
B,臺中市,公共建設,25,大學及研究所,僑光技術學院,24.189111006300532,120.64319000002551
B,臺中市,公共建設,25,大學及研究所,東海大學,24.182391010176403,120.60265000002246
B,臺中市,公共建設,26,幼稚園、托兒所,臺中市向上社會福利基金會臺中光音育幼院,24.16290112219994,120.66455001362331
B,臺中市,公共建設,31,傳統市場,臺中市臺中魚市場,24.14930927544838,120.62236931621256
B,臺中市,公共建設,31,傳統市場,臺中市清水第一公有市場,24.26806831571461,120.57618524585686
B,臺中市,公共建設,31,傳統市場,臺中市大甲第二市場,24.34874335340238,120.62626090288762
B,臺中市,公共建設,31,傳統市場,臺中市第三市場,24.229154989117745,120.6485732780758
B,臺中市,公共建設,31,傳統市場,臺中市東海夜市,24.18152769531972,120.59258713605205
B,臺中市,公共建設,31,傳統市場,臺中市東勢區農會果菜市場,24.25103895662541,120.82796160124907
B,臺中市,公共建設,31,傳統市場,臺中市大雅第一市場,24.224211678426485,120.64919061137391
B,臺中市,公共建設,31,傳統市場,臺中市清水區第二公有零售市場,24.26821046236463,120.56027333584697
B,臺中市,公共建設,31,傳統市場,臺中市后里第一公有零售市場,24.305935955984182,120.71306252778744
B,臺中市,公共建設,31,傳統市場,臺中市東勢區第一公有市場,24.25344353128932,120.83099768086281
B,臺中市,公共建設,31,傳統市場,臺中市沙鹿公有零售市場,24.237965408705442,120.55906865906142
B,臺中市,公共建設,31,傳統市場,臺中市大甲第一市場,24.34511720134008,120.62288547780408
B,臺中市,公共建設,31,傳統市場,臺中市日南市場,24.37994903654567,120.6537554288541
B,臺中市,公共建設,31,傳統市場,臺中市梧棲港魚市場,24.29239005522606,120.52080846066734
B,臺中市,公共建設,31,傳統市場,臺中市后里第二市場,24.30916411525423,120.73110020841263
B,臺中市,公共建設,31,傳統市場,臺中市后里第三市場,24.308449962381793,120.7210755169099
B,臺中市,公共建設,31,傳統市場,臺中市梧棲區第一公有零售市場,24.254186020794773,120.53290919630923
B,臺中市,公共建設,31,傳統市場,臺中市豐原第一市場,24.25024577497929,120.7161281161662
B,臺中市,公共建設,31,傳統市場,臺中市外埔區外埔零售市場,24.331741576513984,120.65441710749498
B,臺中市,公共建設,31,傳統市場,臺中市清水第一市場,24.268371206560168,120.57549721219132
B,臺中市,公共建設,34,生活百貨量販,臺中市全聯福利中心臺中崇德店,24.160563028503898,120.68527349414781
B,臺中市,公共建設,34,生活百貨量販,臺中市臺灣楓康超市中科店,24.189546567249344,120.61098041557162
B,臺中市,公共建設,34,生活百貨量販,臺中市全聯福利中心沙鹿二分店,24.243944591672925,120.56216340888031
B,臺中市,公共建設,34,生活百貨量販,臺中市全聯福利中心太平宜昌店,24.147943195403272,120.71586929808716
B,臺中市,公共建設,34,生活百貨量販,臺中市全聯福利中心大智店,24.12934313363538,120.69001912405687
B,臺中市,公共建設,34,生活百貨量販,臺中市家樂福青海店,24.170014695199665,120.64473431063423
B,臺中市,公共建設,34,生活百貨量販,臺中市全聯福利中心旅順店,24.17409592814047,120.68764538303286
B,臺中市,公共建設,34,生活百貨量販,臺中市全聯福利中心大墩店,24.160001590686264,120.65322908547259
B,臺中市,公共建設,34,生活百貨量販,臺中市家樂福中清店,24.207239624858403,120.65257215470169
B,臺中市,公共建設,34,生活百貨量販,臺中市臺灣楓康超市忠明店,24.137704727895215,120.65706424232945
B,臺中市,公共建設,34,生活百貨量販,臺中市全聯福利中心東勢分店,24.26665618780916,120.8245939775355
B,臺中市,公共建設,34,生活百貨量販,臺中市頂好惠康超市建成二店,24.128780621306877,120.68380538652127
B,臺中市,公共建設,34,生活百貨量販,臺中市全聯福利中心遊園店,24.174209087065172,120.5813479073014
B,臺中市,公共建設,34,生活百貨量販,臺中市全聯福利中心烏日店,24.106280916110276,120.62673257610955
B,臺中市,公共建設,34,生活百貨量販,臺中市愛買臺中中港店,24.16167916920341,120.65005619602645
B,臺中市,公共建設,34,生活百貨量販,臺中市全聯福利中心天津店,24.170059334650553,120.67870522485104
B,臺中市,公共建設,34,生活百貨量販,臺中市全聯福利中心臺中忠義店,24.16156841540033,120.65951911776702
B,臺中市,公共建設,34,生活百貨量販,臺中市頂好惠康超市東大店,24.179250358643742,120.6055251652378
B,臺中市,公共建設,34,生活百貨量販,臺中市家樂福大墩店,24.149387946109982,120.64925516656481
B,臺中市,公共建設,34,生活百貨量販,臺中市全聯福利中心神岡二分店,24.24627576884111,120.68519836627078
B,臺中市,公共建設,34,生活百貨量販,臺中市大潤發北屯店,24.176420648539178,120.69994824188647
B,臺中市,公共建設,34,生活百貨量販,臺中市全聯福利中心大里店,24.110243139502312,120.68942693624848
B,臺中市,公共建設,34,生活百貨量販,臺中市全聯福利中心大甲分店,24.3462613124805,120.62013850250064
B,臺中市,公共建設,34,生活百貨量販,臺中市全聯福利中心神崗二店,24.244816113494014,120.68354788352957
B,臺中市,公共建設,34,生活百貨量販,臺中市全聯福利中心軍功店,24.17642000633359,120.7190886955418
B,臺中市,公共建設,34,生活百貨量販,臺中市全聯福利中心忠明店,24.13828779383148,120.65754968065285
B,臺中市,公共建設,34,生活百貨量販,臺中市全聯福利中心豐原大社分店,24.247784229386514,120.69951757362679
B,臺中市,公共建設,34,生活百貨量販,臺中市全聯福利中心田心分店,24.239674400745386,120.72095388715937
B,臺中市,公共建設,34,生活百貨量販,臺中市全聯福利中心頭家店,24.197148844118676,120.70215672805523
B,臺中市,公共建設,34,生活百貨量販,臺中市全聯福利中心沙鹿北勢分店,24.22604723189679,120.5758253745388
B,臺中市,公共建設,34,生活百貨量販,臺中市全聯福利中心塗城店,24.091262013850557,120.70375951491027
B,臺中市,公共建設,34,生活百貨量販,臺中市家樂福量販店豐原店,24.252236859415643,120.70606810213539
B,臺中市,公共建設,34,生活百貨量販,臺中市全聯福利中心十甲店,24.144286983468188,120.70943786104634
B,臺中市,公共建設,34,生活百貨量販,臺中市頂好惠康超市青海店,24.16506521720339,120.65407660469607
B,臺中市,公共建設,34,生活百貨量販,臺中市全聯福利中心逢甲店,24.179693866808307,120.63774819878418
B,臺中市,公共建設,34,生活百貨量販,臺中市家樂福崇德店,24.167554698727223,120.68483087087154
B,臺中市,公共建設,34,生活百貨量販,臺中市全聯福利中心太平店,24.15418297549287,120.71194100902233
B,臺中市,公共建設,34,生活百貨量販,臺中市全聯福利中心神岡店,24.24973998663203,120.67857456904386
B,臺中市,公共建設,34,生活百貨量販,臺中市全聯福利中心中清店,24.189748241169752,120.66315961826976
B,臺中市,公共建設,34,生活百貨量販,臺中市特力屋北屯店,24.173716539122296,120.69772155423686
B,臺中市,公共建設,34,生活百貨量販,臺中市臺灣楓康超市大連店,24.17539835095207,120.69157106580651
B,臺中市,公共建設,34,生活百貨量販,臺中市全聯福利中心南屯店,24.13521182529311,120.6379811670728
B,臺中市,公共建設,34,生活百貨量販,臺中市臺中中友百貨,24.152240222048643,120.68473075094364
B,臺中市,公共建設,34,生活百貨量販,臺中市頂好惠康超市南屯店,24.13720113533135,120.64851600500555
B,臺中市,公共建設,34,生活百貨量販,臺中市沙鹿新天地量販店,24.24254426619818,120.56564227437951
B,臺中市,公共建設,34,生活百貨量販,臺中市全聯福利中心后里店,24.30944599231427,120.71819168586684
B,臺中市,公共建設,34,生活百貨量販,臺中市全聯福利中心五權店,24.14922476955409,120.67548146032811
B,臺中市,公共建設,34,生活百貨量販,臺中市頂好惠康超市北屯店,24.16964256396428,120.69157347861471
B,臺中市,公共建設,34,生活百貨量販,臺中市全聯福利中心沙鹿分店,24.239383974279107,120.5587762409601
B,臺中市,公共建設,34,生活百貨量販,臺中市全聯福利中心豐原分店,24.246144117636746,120.7081676675966
B,臺中市,公共建設,34,生活百貨量販,臺中市全聯福利中心大連店,24.17608934125348,120.68221970620698
B,臺中市,公共建設,34,生活百貨量販,臺中市全聯福利中心五權二店,24.15276937124165,120.67711903796169
B,臺中市,公共建設,34,生活百貨量販,臺中市家樂福文心店,24.15418575762615,120.64621785136968
B,臺中市,公共建設,34,生活百貨量販,臺中市全聯福利中心國光店,24.102077039165795,120.68227866824131
B,臺中市,公共建設,34,生活百貨量販,臺中市全聯福利中心東勢二分店,24.24942597773071,120.83079501252124
B,臺中市,公共建設,34,生活百貨量販,臺中市全聯福利中心臺中黎明店,24.13904445523134,120.63798999562125
B,臺中市,公共建設,34,生活百貨量販,臺中市頂好生鮮超市太平永豐店,24.1117999067178,120.70374751902355
B,臺中市,公共建設,34,生活百貨量販,臺中市臺灣楓康超市東光店,24.14643546272677,120.69850348309194
B,臺中市,公共建設,34,生活百貨量販,臺中市頂好惠康超市霧峰店,24.072234559338078,120.69944291592039
B,臺中市,公共建設,34,生活百貨量販,臺中市臺灣楓康超市敦化店,24.185902773882635,120.66527695283153
B,臺中市,公共建設,34,生活百貨量販,臺中市家樂福太平店,24.125188789839036,120.7196537626204
B,臺中市,公共建設,34,生活百貨量販,臺中市全聯福利中心北豐原分店,24.26033188159294,120.72370567643858
B,臺中市,公共建設,34,生活百貨量販,臺中市全聯福利中心豐原三豐分店,24.25877766258692,120.71334883850889
B,臺中市,公共建設,34,生活百貨量販,臺中市臺灣楓康超市大昌店,24.147910243293623,120.65196882455757
B,臺中市,公共建設,34,生活百貨量販,臺中市臺灣楓康超市南屯店,24.136166031798236,120.63650913369824
B,臺中市,公共建設,34,生活百貨量販,臺中市全聯福利中心北屯店,24.167861012031903,120.69561807250926
B,臺中市,公共建設,34,生活百貨量販,臺中市全聯福利中心臺中復興店,24.126561190125404,120.66557778211076
B,臺中市,公共建設,34,生活百貨量販,臺中市全聯福利中心中興分店,24.271879590931444,120.5748495684194
B,臺中市,公共建設,34,生活百貨量販,臺中市臺灣楓康超市健行店,24.159467186691916,120.67075724753926
B,臺中市,公共建設,34,生活百貨量販,臺中市全聯福利中心臺中中科店,24.187051094196374,120.61335280161886
B,臺中市,公共建設,34,生活百貨量販,臺中市全聯福利中心霧峰店,24.064532554114997,120.70006732115563
B,臺中市,公共建設,34,生活百貨量販,臺中市全聯福利中心潭子店,24.21432062506897,120.70076120884934
B,臺中市,公共建設,34,生活百貨量販,臺中市大潤發忠明店,24.163329900744284,120.67201657123185
B,臺中市,公共建設,34,生活百貨量販,臺中市家樂福德安店,24.13547556323297,120.68765229798078
B,臺中市,公共建設,34,生活百貨量販,臺中市全聯福利中心臺中東興店,24.14231880895886,120.65317974538321
B,臺中市,公共建設,34,生活百貨量販,臺中市頂好惠康超市大連店,24.17542894768785,120.6897362255384
B,臺中市,公共建設,34,生活百貨量販,臺中市臺灣楓康超市太平店,24.15127071714962,120.71021727345159
B,臺中市,公共建設,34,生活百貨量販,臺中市臺灣楓康超市黎明店,24.148822662658056,120.63621766937557
B,臺中市,公共建設,34,生活百貨量販,臺中市全聯福利中心健康店,24.11823699921923,120.6673546133163
B,臺中市,公共建設,34,生活百貨量販,臺中市臺灣楓康超市大里店,24.10492654926537,120.68668258757143
B,臺中市,公共建設,34,生活百貨量販,臺中市大買家國光店,24.115683142864825,120.67977199356466
B,臺中市,公共建設,34,生活百貨量販,臺中市臺灣楓康超市高鐵店,24.106383021966785,120.62603408484995
B,臺中市,公共建設,34,生活百貨量販,臺中市全聯福利中心臺中陝西店,24.16899509676693,120.66850326156613
B,臺中市,公共建設,34,生活百貨量販,臺中市臺灣楓康超市青海店,24.170582014827463,120.6455464927442
B,臺中市,公共建設,34,生活百貨量販,臺中市全聯福利中心后里文明店,24.306659123372413,120.71706435367847
B,臺中市,公共建設,34,生活百貨量販,臺中市頂好惠康超市漢口店,24.166061007446096,120.66388316434482
B,臺中市,公共建設,34,生活百貨量販,臺中市全聯福利中心臺中精誠二店,24.139814172638975,120.64789081217477
B,臺中市,公共建設,34,生活百貨量販,臺中市全聯福利中心精誠店,24.14864587491264,120.65498517495055
B,臺中市,公共建設,34,生活百貨量販,臺中市全聯福利中心雅環店,24.226179582640196,120.65276103538162
B,臺中市,公共建設,34,生活百貨量販,臺中市全聯福利中心松竹店,24.184559575519927,120.69573622850609
B,臺中市,公共建設,34,生活百貨量販,臺中市全聯福利中心臺中外埔分店,24.3318644949076,120.65430388511648
B,臺中市,公共建設,34,生活百貨量販,臺中市全聯福利中心向陽分店,24.25174673476719,120.72681290336024
B,臺中市,公共建設,34,生活百貨量販,臺中市全聯福利中心中工店,24.18201038716647,120.61653039910773
B,臺中市,公共建設,34,生活百貨量販,臺中市全聯福利中心大肚店,24.150091046725382,120.54599553408045
B,臺中市,公共建設,34,生活百貨量販,臺中市頂好惠康超市中興店,24.131921414745484,120.72252680584087
B,臺中市,公共建設,34,生活百貨量販,臺中市全聯福利中心大里永隆店,24.109535370715125,120.6767569798259
B,臺中市,公共建設,34,生活百貨量販,臺中市臺灣楓康超市東山店,24.17556154199792,120.71661889826824
B,臺中市,公共建設,34,生活百貨量販,臺中市大潤發精品家具,24.10700148566691,120.66518815693789
B,臺中市,公共建設,34,生活百貨量販,臺中市臺灣楓康超市三民店,24.158273263175154,120.68993894802367
B,臺中市,公共建設,34,生活百貨量販,臺中市全聯福利中心臺中東山店,24.17043218340077,120.70814216120193
B,臺中市,公共建設,34,生活百貨量販,臺中市全聯福利中心文心店,24.16634452927978,120.65668714068306
B,臺中市,公共建設,34,生活百貨量販,臺中市全聯福利中心東平店,24.13348721707497,120.71907502440733
B,臺中市,公共建設,34,生活百貨量販,臺中市臺灣楓康超市大墩店,24.155783982150986,120.64804326644611
B,臺中市,公共建設,42,一般公園,中正紀念公園,24.331092995272623,120.71125800004376
B,臺中市,公共建設,42,一般公園,永信運動公園,24.36043500419939,120.64797400003408
B,臺中市,公共建設,42,一般公園,永信運動公園,24.36043500419939,120.64797400003408
B,臺中市,公共建設,42,一般公園,成功公園,24.3597020071154,120.64748500002472
B,臺中市,公共建設,42,一般公園,中正紀念公園,24.331092995272623,120.71125800004376
B,臺中市,公共建設,42,一般公園,社區公園,24.33336801076705,120.72797300001582
B,臺中市,公共建設,42,一般公園,美化公園,24.29950600738376,120.57886300003355
B,臺中市,公共建設,42,一般公園,雕塑公園,24.273048999147555,120.58161100005498
B,臺中市,公共建設,42,一般公園,鰲峰山公園,24.270831006952072,120.58359400002793
B,臺中市,公共建設,42,一般公園,石頭瀨公園,24.27224399689536,120.58116400006868
B,臺中市,公共建設,42,一般公園,清水公園,24.26923700421661,120.5805240000368
B,臺中市,公共建設,42,一般公園,親鳥公園,24.26826599325742,120.58208800007976
B,臺中市,公共建設,42,一般公園,公老坪休閒公園,24.262240993472115,120.75817500004362
B,臺中市,公共建設,42,一般公園,翁明公園,24.258261009890546,120.72681500001666
B,臺中市,公共建設,42,一般公園,翁明公園,24.258261009890546,120.72681500001666
B,臺中市,公共建設,42,一般公園,中正公園,24.255446998814385,120.7480700000346
B,臺中市,公共建設,42,一般公園,豐圳公園,24.253301998582725,120.70735200004106
B,臺中市,公共建設,42,一般公園,田心公園,24.242452993428465,120.718598000047
B,臺中市,公共建設,42,一般公園,軟埤溪親水公園,24.267057999259364,120.75695700003007
B,臺中市,公共建設,42,一般公園,港區公園,24.25714199324575,120.52140100009369
B,臺中市,公共建設,42,一般公園,梧棲區運動公園,24.24730700674128,120.5292710000332
B,臺中市,公共建設,42,一般公園,河濱公園,24.257961994916947,120.82372100003178
B,臺中市,公共建設,42,一般公園,青山公園,24.21642799594021,120.56346800007074
B,臺中市,公共建設,42,一般公園,西勢社區小型公園,24.259608997331746,120.59791600006446
B,臺中市,公共建設,42,一般公園,鹿鳴公園,24.243297002019478,120.56756600004915
B,臺中市,公共建設,42,一般公園,洛泉公園,24.236860010437567,120.56350500002061
B,臺中市,公共建設,42,一般公園,沙鹿公園,24.234483004742653,120.56502700004592
B,臺中市,公共建設,42,一般公園,沙鹿公園,24.234483004742653,120.56502700004592
B,臺中市,公共建設,42,一般公園,兒童公園,24.228872996269153,120.56995500007082
B,臺中市,公共建設,42,一般公園,青年公園,24.221976001820607,120.5735430000543
B,臺中市,公共建設,42,一般公園,六福公園,24.21607200723674,120.5791920000279
B,臺中市,公共建設,42,一般公園,明透公園,24.203953995839818,120.57292100006987
B,臺中市,公共建設,42,一般公園,三鹿公園,24.201512998872968,120.56741500005572
B,臺中市,公共建設,42,一般公園,上楓社區公園,24.230672008480827,120.6640100000187
B,臺中市,公共建設,42,一般公園,大肚區環保運動公園,24.158239001223425,120.55361300004925
B,臺中市,公共建設,42,一般公園,五五公園,24.196859008232394,120.56313800002854
B,臺中市,公共建設,42,一般公園,尚德公園,24.158849998406527,120.67745800004533
B,臺中市,公共建設,42,一般公園,英士公園,24.15146299909502,120.67647900003992
B,臺中市,公共建設,42,一般公園,英才兒童公園,24.154855994807125,120.67123100005959
B,臺中市,公共建設,42,一般公園,中正公園,24.156836998859042,120.68293200004699
B,臺中市,公共建設,42,一般公園,同心花園,24.159217005584022,120.688086000025
B,臺中市,公共建設,42,一般公園,中德公園,24.163746999829918,120.66836900004398
B,臺中市,公共建設,42,一般公園,社區公園,24.11403399619758,120.60276400006106
B,臺中市,公共建設,42,一般公園,健康公園,24.105792003713397,120.63954600003342
B,臺中市,公共建設,42,一般公園,日新公園,24.121096997133318,120.69134100004423
B,臺中市,公共建設,42,一般公園,大里國家公園,24.110176006177976,120.6933530000185
B,臺中市,公共建設,42,一般公園,大里公園,24.109221009831117,120.6872010000111
B,臺中市,公共建設,42,一般公園,環保公園,24.1046249968985,120.67877400004554
B,臺中市,公共建設,42,一般公園,霧峰運動公園,24.04191799309073,120.69837300004868
B,臺中市,公共建設,42,一般公園,四平公園,24.19213400263077,120.68000900003233
B,臺中市,公共建設,42,一般公園,瀋陽公園,24.17692600273235,120.67233800003314
B,臺中市,公共建設,42,一般公園,民俗公園,24.175110997727987,120.68718900004522
B,臺中市,公共建設,42,一般公園,熱河公園,24.174586997029966,120.68774200004987
B,臺中市,公共建設,42,一般公園,遼寧公園,24.174050005776262,120.69648700002789
B,臺中市,公共建設,42,一般公園,舊社公園,24.181196998544454,120.70024700003779
B,臺中市,公共建設,42,一般公園,松竹公園,24.179942995733185,120.68739800005126
B,臺中市,公共建設,42,一般公園,同榮公園,24.19759400876402,120.66316700001889
B,臺中市,公共建設,42,一般公園,后庄公園,24.191585996377512,120.66259900004816
B,臺中市,公共建設,42,一般公園,梅川公園,24.17018799808481,120.67893300004557
B,臺中市,公共建設,42,一般公園,東新公園,24.175344007655173,120.68074600002446
B,臺中市,公共建設,42,一般公園,松安公園,24.18003500057962,120.6917410000408
B,臺中市,公共建設,42,一般公園,旅順公園,24.173633997026002,120.69197700004568
B,臺中市,公共建設,42,一般公園,兒童公園,24.168474003177938,120.69468600003471
B,臺中市,公共建設,42,一般公園,崇德公園,24.16936900193459,120.68375100003486
B,臺中市,公共建設,42,一般公園,福光公園,24.17112300204877,120.69927700003241
B,臺中市,公共建設,42,一般公園,水景公園,24.17380999426805,120.71332500004607
B,臺中市,公共建設,42,一般公園,東光公園,24.168766997019237,120.68899200004446
B,臺中市,公共建設,42,一般公園,中山公園,24.144537000128647,120.68444700003465
B,臺中市,公共建設,42,一般公園,武昌公園,24.168984998429774,120.66802600004367
B,臺中市,公共建設,42,一般公園,中清公園,24.171868992793982,120.6691030000626
B,臺中市,公共建設,42,一般公園,長青公園,24.172032004650724,120.66994900002702
B,臺中市,公共建設,42,一般公園,曉明公園,24.168141995669377,120.67093800005236
B,臺中市,公共建設,42,一般公園,山西公園,24.170999004453726,120.67603000003079
B,臺中市,公共建設,42,一般公園,崇倫公園,24.13210200513888,120.66012700003226
B,臺中市,公共建設,42,一般公園,長春公園,24.131341003743383,120.68005400002853
B,臺中市,公共建設,42,一般公園,樹德公園,24.117656005889764,120.65404500002849
B,臺中市,公共建設,42,一般公園,健康公園,24.12009600539521,120.6685230000254
B,臺中市,公共建設,42,一般公園,南平公園,24.12457500607334,120.66885100002993
B,臺中市,公共建設,42,一般公園,福平公園,24.124041002293925,120.66188500003422
B,臺中市,公共建設,42,一般公園,復新公園,24.124489998360808,120.67579500004034
B,臺中市,公共建設,42,一般公園,豐富公園,24.130382999694927,120.65392000004428
B,臺中市,公共建設,42,一般公園,潭子運動公園,24.209893998289093,120.70155000003898
B,臺中市,公共建設,42,一般公園,大容公園,24.155968004369875,120.64848700003705
B,臺中市,公共建設,42,一般公園,臺中都會公園,24.20639699366578,120.59737700007146
B,臺中市,公共建設,42,一般公園,五龍公園,24.187684006799486,120.6046880000281
B,臺中市,公共建設,42,一般公園,兒童公園,24.190978001451832,120.61532000004539
B,臺中市,公共建設,42,一般公園,宏恩公園,24.189621998182684,120.61777400005805
B,臺中市,公共建設,42,一般公園,世斌公園,24.18213300894653,120.62009200002541
B,臺中市,公共建設,42,一般公園,朝貴公園,24.170533005499212,120.63537400003034
B,臺中市,公共建設,42,一般公園,逢甲公園,24.17695100712877,120.64054000002183
B,臺中市,公共建設,42,一般公園,福星公園,24.172159005687615,120.64920600002803
B,臺中市,公共建設,42,一般公園,大鵬公園,24.17388299940478,120.6627110000441
B,臺中市,公共建設,42,一般公園,河南公園,24.17087400232059,120.66323800003721
B,臺中市,公共建設,42,一般公園,潮洋環保公園,24.166390995037286,120.63297700006149
B,臺中市,公共建設,42,一般公園,惠來公園,24.15517899930365,120.63953400005042
B,臺中市,公共建設,42,一般公園,惠中公園,24.16582599836703,120.64668500004814
B,臺中市,公共建設,42,一般公園,重慶公園,24.165796004626756,120.65579300003222
B,臺中市,公共建設,42,一般公園,大仁公園,24.165533997120118,120.65901500004634
B,臺中市,公共建設,42,一般公園,中仁公園,24.1655419988703,120.66084200004356
B,臺中市,公共建設,42,一般公園,三信公園,24.166398992467876,120.66311700006584
B,臺中市,公共建設,42,一般公園,成都公園,24.169116000590247,120.66512700003602
B,臺中市,公共建設,42,一般公園,華美公園,24.16481800353932,120.66412000003587
B,臺中市,公共建設,42,一般公園,青海公園,24.164252000294287,120.65337500004065
B,臺中市,公共建設,42,一般公園,何厝公園,24.161784003598886,120.65458000003676
B,臺中市,公共建設,42,一般公園,社區公園,24.17794000239407,120.616425000042
B,臺中市,公共建設,42,一般公園,長安公園,24.17004400343117,120.65450400003562
B,臺中市,公共建設,42,一般公園,甘肅公園,24.16897300151979,120.65698500004095
B,臺中市,公共建設,42,一般公園,大墩公園,24.158788000468334,120.65156400004308
B,臺中市,公共建設,42,一般公園,惠智公園,24.149027992519645,120.6389840000638
B,臺中市,公共建設,42,一般公園,惠仁公園,24.149646993592665,120.64514300006348
B,臺中市,公共建設,42,一般公園,東興公園,24.15441800609229,120.6537290000305
B,臺中市,公共建設,42,一般公園,嶺東公園,24.14091299660045,120.6107450000624
B,臺中市,公共建設,42,一般公園,文昌兒童公園,24.138018994349334,120.63581500006295
B,臺中市,公共建設,42,一般公園,文心公園,24.13236400613789,120.64263300002573
B,臺中市,公共建設,42,一般公園,豐樂公園,24.1308490039731,120.64261000003404
B,臺中市,公共建設,42,一般公園,京展海德公園,24.135629996851634,120.64480600005783
B,臺中市,公共建設,42,一般公園,禮惠公園,24.142501996611475,120.6442290000499
B,臺中市,公共建設,42,一般公園,光明公園,24.13920699657181,120.65568400005412
B,臺中市,公共建設,42,一般公園,大忠公園,24.143470004422632,120.65630600003242
B,臺中市,公共建設,42,一般公園,鎮平公園,24.120722001647948,120.62920400004148
B,臺中市,公共建設,42,一般公園,南屯河濱公園,24.12663100643899,120.62056400002531
B,臺中市,公共建設,42,一般公園,正心兒童公園,24.13570599493455,120.65052400005968
B,臺中市,公共建設,42,一般公園,南苑兒童公園,24.132651994521513,120.64456900006249
B,臺中市,公共建設,42,一般公園,立德公園,24.15257300127417,120.71363700003097
B,臺中市,公共建設,42,一般公園,太平運動公園,24.1464129957487,120.724821000047
B,臺中市,公共建設,42,一般公園,福平公園,24.12633300861847,120.72434000001711
B,臺中市,公共建設,42,一般公園,宜樂公園,24.144046996802256,120.712788000046
B,臺中市,公共建設,42,一般公園,西安公園,24.17865300202122,120.64226100004421
B,臺中市,公共建設,42,一般公園,忠誠公園,24.160676004781394,120.66267900003365
B,臺中市,公共建設,42,一般公園,忠明公園,24.154227007190958,120.65993700002718
B,臺中市,公共建設,42,一般公園,公益公園,24.150448996293417,120.65779700005167
B,臺中市,公共建設,42,一般公園,大益公園,24.148657998197237,120.65276400005044
B,臺中市,公共建設,42,一般公園,民龍公園,24.152441993812598,120.66971200005595
B,臺中市,公共建設,42,一般公園,自立公園,24.140476996083937,120.67104500005347
B,臺中市,公共建設,42,一般公園,忠勤公園,24.14244799606209,120.66959000005313
B,臺中市,公共建設,42,一般公園,東峰公園,24.12455500926507,120.68721700002088
B,臺中市,公共建設,42,一般公園,祖聖公園,24.141318004731,120.69621700002415
B,臺中市,公共建設,42,一般公園,樂豐公園,24.141880010083337,120.70473100001138
B,臺中市,公共建設,42,一般公園,旱平公園,24.141435007666047,120.70879200002086
B,臺中市,公共建設,42,一般公園,進業公園,24.146384992673156,120.70922200005623
B,臺中市,公共建設,42,一般公園,長福公園,24.144137000010844,120.70224000004137
B,臺中市,公共建設,42,一般公園,樂明公園,24.14126800217524,120.70204400003279
B,臺中市,公共建設,42,一般公園,樂利公園,24.138670995638975,120.70765600004536
B,臺中市,公共建設,42,一般公園,樂成公園,24.13735700439337,120.70309000002212
B,臺中市,民眾服務,51,觀光遊憩設施,臺中市公園,24.15452237199621,120.6307038671176
B,臺中市,民眾服務,51,觀光遊憩設施,臺中市怡然園公園,24.25104149129327,120.70786404971822
B,臺中市,民眾服務,51,觀光遊憩設施,臺中市青山公園,24.225469835530472,120.5674478432349
B,臺中市,民眾服務,51,觀光遊憩設施,臺中市新社環保公園(3),24.22952800120512,120.80957028898192
B,臺中市,民眾服務,51,觀光遊憩設施,臺中市武陵森林遊樂區,24.353757960425774,121.31005684867868
B,臺中市,民眾服務,51,觀光遊憩設施,臺中市葫蘆墩公園(9),24.255675905344788,120.7117869000364
B,臺中市,民眾服務,51,觀光遊憩設施,臺中市雕塑公園,24.272843965130665,120.5818042089844
B,臺中市,民眾服務,51,觀光遊憩設施,臺中市葫蘆墩公園(2),24.257186888296232,120.7164405712922
B,臺中市,民眾服務,51,觀光遊憩設施,臺中市豐東公園,24.247191781946142,120.7304448532076
B,臺中市,民眾服務,51,觀光遊憩設施,臺中市環保公園,24.23778462934254,120.51172700483696
B,臺中市,民眾服務,51,觀光遊憩設施,臺中市大雅公園,24.2239628746572,120.6466734137022
B,臺中市,民眾服務,51,觀光遊憩設施,臺中市公園,24.12155194527059,120.73505588880013
B,臺中市,民眾服務,51,觀光遊憩設施,臺中市社區公園,24.141813413882364,120.72271089873358
B,臺中市,民眾服務,51,觀光遊憩設施,臺中市公園,24.26877294547669,120.56410385944643
B,臺中市,民眾服務,51,觀光遊憩設施,臺中市公園,24.1547825983804,120.62906699997588
B,臺中市,民眾服務,51,觀光遊憩設施,臺中市臺中文化創意產業園區,24.13294467481606,120.68049788384437
B,臺中市,民眾服務,51,觀光遊憩設施,臺中市怡心園,24.105495890056083,120.6235559596801
B,臺中市,民眾服務,51,觀光遊憩設施,臺中市石岡壩遊憩區,24.280099834252482,120.76992337290102
B,臺中市,民眾服務,51,觀光遊憩設施,臺中市公園,24.155703634151095,120.62979811183038
B,臺中市,民眾服務,51,觀光遊憩設施,臺中市大屯區聯合掩埋場復育公園,24.081623177621978,120.7247101223185
B,臺中市,民眾服務,51,觀光遊憩設施,臺中市大雪山森林遊樂區,24.257610077428982,121.0072044620512
B,臺中市,民眾服務,51,觀光遊憩設施,臺中市親鳥公園,24.268182851704793,120.58222810538403
B,臺中市,民眾服務,51,觀光遊憩設施,臺中市石岡壩小型公園,24.280124243646238,120.7690578207681
B,臺中市,民眾服務,51,觀光遊憩設施,臺中市永生昆蟲植物館,24.352646334007257,121.30949401789586
B,臺中市,民眾服務,51,觀光遊憩設施,臺中市公園,24.140399843820756,120.69161411650471
B,臺中市,民眾服務,51,觀光遊憩設施,臺中市石頭瀨公園,24.27216049584346,120.58259605848808
B,臺中市,民眾服務,51,觀光遊憩設施,臺中市清泉公園(2),24.244112047518502,120.61396102630171
B,臺中市,民眾服務,51,觀光遊憩設施,臺中市公園,24.24736061115853,120.55121879221586
B,臺中市,民眾服務,51,觀光遊憩設施,臺中市東勢區中正公園,24.260821831063662,120.82394573244252
B,臺中市,民眾服務,51,觀光遊憩設施,臺中市公園,24.16646679557042,120.6966883755411
B,臺中市,民眾服務,51,觀光遊憩設施,臺中市東山樂園,24.198148321064426,120.76460725464426
B,臺中市,民眾服務,51,觀光遊憩設施,臺中市葫蘆墩防災公園(2),24.261008859878824,120.72045597097194
B,臺中市,民眾服務,51,觀光遊憩設施,臺中市谷關風景特定區,24.202926490604906,121.01005490899705
B,臺中市,民眾服務,51,觀光遊憩設施,臺中市公園,24.253597473868627,121.1649125306181
B,臺中市,民眾服務,51,觀光遊憩設施,臺中市丘逢甲紀念公園,24.263258932419976,120.75454209140608
B,臺中市,民眾服務,51,觀光遊憩設施,臺中市私立東海大學農牧場,24.17960390925566,120.6083303165174
B,臺中市,民眾服務,51,觀光遊憩設施,臺中市葫蘆墩公園(6),24.256102825664467,120.710519177189
B,臺中市,民眾服務,51,觀光遊憩設施,臺中市大安休閒農場,24.357113880497618,120.57425164010965
B,臺中市,民眾服務,51,觀光遊憩設施,臺中市月眉育樂世界-馬拉灣,24.321926688891807,120.69334799476881
B,臺中市,民眾服務,51,觀光遊憩設施,臺中市清水公園,24.269064499168916,120.5806652425729
B,臺中市,民眾服務,51,觀光遊憩設施,臺中市新社環保公園(2),24.23030177961016,120.80841085831773
B,臺中市,民眾服務,51,觀光遊憩設施,臺中市九二一震災紀念公園,24.116800633031993,120.72369268164927
B,臺中市,民眾服務,51,觀光遊憩設施,臺中市臺灣櫻花鉤吻鮭生態中心,24.354332541829173,121.3128972398092
B,臺中市,民眾服務,51,觀光遊憩設施,臺中市社區公園,24.16756741033566,120.71608781062253
B,臺中市,民眾服務,51,觀光遊憩設施,臺中市港區公園,24.25763636678236,120.52050261113958
B,臺中市,民眾服務,51,觀光遊憩設施,臺中市社區公園,24.14466444640668,120.72140806305312
B,臺中市,民眾服務,51,觀光遊憩設施,臺中市后里區第四號公園,24.30251459786909,120.70892122095373
B,臺中市,民眾服務,51,觀光遊憩設施,臺中市栗林公園,24.233358061657132,120.7110990146837
B,臺中市,民眾服務,51,觀光遊憩設施,臺中市公園,24.149576718344985,120.72306846898248
B,臺中市,民眾服務,51,觀光遊憩設施,臺中市兒童公園,24.229082908272574,120.56999278867426
B,臺中市,民眾服務,51,觀光遊憩設施,臺中市圳堵公園,24.270338649618576,120.65589865570452
B,臺中市,民眾服務,51,觀光遊憩設施,臺中市公園,24.15212599862804,120.63028871489871
B,臺中市,民眾服務,51,觀光遊憩設施,臺中市公園,24.14050850277681,120.68977713782222
B,臺中市,民眾服務,51,觀光遊憩設施,臺中市公園,24.136200992561413,120.66490863911007
B,臺中市,民眾服務,51,觀光遊憩設施,臺中市公園,24.110514391607772,120.69102615560284
B,臺中市,民眾服務,51,觀光遊憩設施,臺中市梨山風景區,24.25516885841555,121.25152931026777
B,臺中市,民眾服務,51,觀光遊憩設施,臺中市公園,24.149282502119455,120.72300525042286
B,臺中市,民眾服務,51,觀光遊憩設施,臺中市葫蘆墩公園(3),24.25640733255255,120.71404781133405
B,臺中市,民眾服務,51,觀光遊憩設施,臺中市公園,24.152316095203602,120.62834099886793
B,臺中市,民眾服務,51,觀光遊憩設施,臺中市葫蘆墩公園(4),24.25618304075342,120.71177295412481
B,臺中市,民眾服務,51,觀光遊憩設施,臺中市公園,24.18740763451831,120.68659681279729
B,臺中市,民眾服務,51,觀光遊憩設施,臺中市石岡水壩風景特定區,24.280040080706915,120.76993666995727
B,臺中市,民眾服務,51,觀光遊憩設施,臺中市石頭公園,24.354437162523443,120.67370944699069
B,臺中市,民眾服務,51,觀光遊憩設施,臺中市公園,24.340162624576777,120.63171909458518
B,臺中市,民眾服務,51,觀光遊憩設施,臺中市公園,24.170319685083747,120.70196212533497
B,臺中市,民眾服務,51,觀光遊憩設施,臺中市公園,24.119407845214138,120.72587318073214
B,臺中市,民眾服務,51,觀光遊憩設施,臺中市公園,24.15670735884194,120.7156416781231
B,臺中市,民眾服務,51,觀光遊憩設施,臺中市葫蘆墩公園(5),24.256109504308725,120.70913142469963
B,臺中市,民眾服務,51,觀光遊憩設施,臺中市公園,24.109596955081557,120.6263712790206
B,臺中市,民眾服務,51,觀光遊憩設施,臺中市公園,24.141082810268536,120.69052488088839
B,臺中市,民眾服務,51,觀光遊憩設施,臺中市清泉公園(1),24.24417781456728,120.61345200587232
B,臺中市,民眾服務,51,觀光遊憩設施,臺中市三陽運動公園,24.252165215861993,120.73183028121694
B,臺中市,民眾服務,51,觀光遊憩設施,臺中市臺灣大道大臺中旅遊服務中心興中站,24.144256624154714,120.67832164384492
B,臺中市,民眾服務,51,觀光遊憩設施,臺中市國軍紀念公園,24.35858395833781,120.64619481819445
B,臺中市,民眾服務,51,觀光遊憩設施,臺中市新社環保公園(1),24.23123608760414,120.80797846088505
B,臺中市,民眾服務,51,觀光遊憩設施,臺中市葫蘆墩公園(8),24.255603587412605,120.71124280728675
B,臺中市,民眾服務,51,觀光遊憩設施,臺中市南陽公園,24.241253046377135,120.72613659479968
B,臺中市,民眾服務,51,觀光遊憩設施,臺中市白冷圳紀念公園,24.16803991108663,120.8294898505263
B,臺中市,民眾服務,51,觀光遊憩設施,臺中市成功公園,24.359374843426046,120.64755158086822
B,臺中市,民眾服務,51,觀光遊憩設施,臺中市公園,24.14728081874568,120.70711004144277
B,臺中市,民眾服務,51,觀光遊憩設施,臺中市公園,24.14227685290419,120.69171441508405
B,臺中市,民眾服務,51,觀光遊憩設施,臺中市后里馬場,24.297960719078187,120.73655038749013
B,臺中市,民眾服務,51,觀光遊憩設施,臺中市龍谷天然遊樂區,24.208667381523362,121.00639700709986
B,臺中市,民眾服務,51,觀光遊憩設施,臺中市公園,24.154913931759253,120.6296196076279
B,臺中市,民眾服務,51,觀光遊憩設施,臺中市公園,24.14246504747408,120.69064450877876
B,臺中市,民眾服務,51,觀光遊憩設施,臺中市豐圳公園,24.253032492067344,120.70758115539883
B,臺中市,民眾服務,51,觀光遊憩設施,臺中市消防公園,24.26233713195163,120.71430625694661
B,臺中市,民眾服務,51,觀光遊憩設施,臺中市公園,24.170698793395378,120.70585325722149
B,臺中市,民眾服務,51,觀光遊憩設施,臺中市田心公園,24.24257634463494,120.71845838054622
B,臺中市,民眾服務,51,觀光遊憩設施,臺中市河濱公園,24.257709458307417,120.82376841191272
B,臺中市,民眾服務,51,觀光遊憩設施,臺中市中正公園,24.35998274906065,120.65072933569625
B,臺中市,民眾服務,51,觀光遊憩設施,臺中市臺中植物園,24.158623662595627,120.66830800448685
B,臺中市,民眾服務,51,觀光遊憩設施,臺中市鹿鳴公園,24.243126652367494,120.56703274363053
B,臺中市,民眾服務,51,觀光遊憩設施,臺中市公老坪休閒公園,24.2619514485769,120.7573192453718
B,臺中市,民眾服務,51,觀光遊憩設施,臺中市社區公園,24.14387089230382,120.72336108683106
B,臺中市,民眾服務,51,觀光遊憩設施,臺中市公園,24.175615958836094,120.63773319463877
B,臺中市,民眾服務,51,觀光遊憩設施,臺中市新社環保公園(5),24.227956119089324,120.81070187854618
B,臺中市,民眾服務,51,觀光遊憩設施,臺中市八仙山森林遊樂區,24.192054335072495,121.01250241650109
B,臺中市,民眾服務,51,觀光遊憩設施,臺中市臺中公園,24.14392174319808,120.68355377438644
B,臺中市,民眾服務,51,觀光遊憩設施,臺中市葫蘆墩防災公園(1),24.2597315953972,120.72102341426951
B,臺中市,民眾服務,51,觀光遊憩設施,臺中市鰲峰山運動公園,24.273049122557254,120.5846338523669
B,臺中市,民眾服務,51,觀光遊憩設施,臺中市社區公園,24.170604282346208,120.72302059890603
B,臺中市,民眾服務,51,觀光遊憩設施,臺中市公園,24.18251645985983,120.61558228393788
B,臺中市,民眾服務,51,觀光遊憩設施,臺中市啟成紀念公園,24.265731256929673,120.81024026654607
B,臺中市,民眾服務,51,觀光遊憩設施,臺中市公園,24.15306179709457,120.63099939895841
B,臺中市,民眾服務,51,觀光遊憩設施,臺中市豐洲公園,24.26539154809823,120.70019262191899
B,臺中市,民眾服務,51,觀光遊憩設施,臺中市和盛公園,24.258496776149165,120.81564132832062
B,臺中市,民眾服務,51,觀光遊憩設施,臺中市窯坑橋公園,24.263950858237912,120.85608686499887
B,臺中市,民眾服務,51,觀光遊憩設施,臺中市社區公園,24.171788668910814,120.71686295947787
B,臺中市,民眾服務,51,觀光遊憩設施,臺中市公園,24.154377690013785,120.63156803915331
B,臺中市,民眾服務,51,觀光遊憩設施,臺中市公園,24.2568428961989,120.72324807674786
B,臺中市,民眾服務,51,觀光遊憩設施,臺中市社區公園,24.191204688921847,120.6081757152428
B,臺中市,民眾服務,51,觀光遊憩設施,臺中市公園,24.159724689639113,120.70905047672885
B,臺中市,民眾服務,51,觀光遊憩設施,臺中市梨山風景管理所,24.25432342262263,121.25137593565518
B,臺中市,民眾服務,51,觀光遊憩設施,臺中市社皮鄰里公園,24.245530421913347,120.70459868587515
B,臺中市,民眾服務,51,觀光遊憩設施,臺中市鐵砧山風景特定區,24.359654115259172,120.6465278533383
B,臺中市,民眾服務,51,觀光遊憩設施,臺中市公園,24.15314951971349,120.63177263910441
B,臺中市,民眾服務,51,觀光遊憩設施,臺中市公園,24.13750745297129,120.71193129937052
B,臺中市,民眾服務,51,觀光遊憩設施,臺中市林務局東勢林管處烏石坑苗圃,24.2779475097651,120.94581955163
B,臺中市,民眾服務,51,觀光遊憩設施,臺中市武陵農場旅遊服務中心,24.353382870119543,121.30980409894644
B,臺中市,民眾服務,51,觀光遊憩設施,臺中市上楓社區公園,24.230720405019248,120.66317630718736
B,臺中市,民眾服務,51,觀光遊憩設施,臺中市葫蘆墩公園(7),24.255632498678708,120.70838918068748
B,臺中市,民眾服務,51,觀光遊憩設施,臺中市公園,24.111379104588508,120.66214073963127
B,臺中市,民眾服務,51,觀光遊憩設施,臺中市中正公園,24.254968656553213,120.74753421873322
B,臺中市,民眾服務,51,觀光遊憩設施,臺中市丘逢甲紀念公園,24.263862780621743,120.75543084327211
B,臺中市,民眾服務,51,觀光遊憩設施,臺中市六寶公園,24.23791988468983,120.6265946048056
B,臺中市,民眾服務,51,觀光遊憩設施,臺中市慈濟公園,24.257260385006994,120.7311905177744
B,臺中市,民眾服務,51,觀光遊憩設施,臺中市外埔區清水公園,24.33285099446936,120.65145202071317
B,臺中市,民眾服務,51,觀光遊憩設施,臺中市新社環保公園(4),24.22873081888011,120.81026146165942
B,臺中市,民眾服務,51,觀光遊憩設施,臺中市怡松園公園,24.247326413995232,120.73342605730329
B,臺中市,民眾服務,51,觀光遊憩設施,臺中市公園,24.10483754540894,120.72644245192433
B,臺中市,民眾服務,51,觀光遊憩設施,臺中市公園,24.152655657334993,120.62864919968324
B,臺中市,民眾服務,51,觀光遊憩設施,臺中市武陵森林遊樂區,24.404558818204066,121.30186632511115
B,臺中市,民眾服務,51,觀光遊憩設施,臺中市社區公園,24.25113159224511,120.72515757529067
B,臺中市,民眾服務,51,觀光遊憩設施,臺中市亞哥花園,24.175287079587395,120.7562985079461
B,臺中市,民眾服務,51,觀光遊憩設施,臺中市公園,24.151915635376508,120.63206206464321
B,臺中市,民眾服務,51,觀光遊憩設施,臺中市公園,24.255192622024566,120.53271301821717
B,臺中市,民眾服務,51,觀光遊憩設施,臺中市葫蘆墩公園(1),24.258223900605415,120.7178161050487
B,臺中市,民眾服務,51,觀光遊憩設施,臺中市公園,24.12158211366472,120.66119989916325
B,臺中市,民眾服務,51,觀光遊憩設施,臺中市西勢社區小型公園,24.259056019287694,120.59662910451958
B,臺中市,民眾服務,51,觀光遊憩設施,臺中市公園,24.15983728209694,120.7115996621889
B,臺中市,民眾服務,51,觀光遊憩設施,臺中市公園,24.122376599534025,120.66085593563056
B,臺中市,民眾服務,51,觀光遊憩設施,臺中市公園,24.15067424279628,120.70143165160066
B,臺中市,民眾服務,51,觀光遊憩設施,臺中市臺中都會公園,24.207828589255797,120.59881261196497
B,臺中市,民眾服務,51,觀光遊憩設施,臺中市鰲峰山公園,24.27359465651269,120.58321987502109
B,臺中市,民眾服務,51,觀光遊憩設施,大甲文昌祠,24.34764000631046,120.62252100002728
B,臺中市,民眾服務,51,觀光遊憩設施,林氏貞孝坊,24.344412003471206,120.6218170000364
B,臺中市,民眾服務,51,觀光遊憩設施,大甲鎮瀾宮媽祖文物陳列館,24.35387400309062,120.62143100004096
B,臺中市,民眾服務,51,觀光遊憩設施,大甲鐵砧山風景區,24.35751200851565,120.64312300001957
B,臺中市,民眾服務,51,觀光遊憩設施,台農牧場休閒農場,24.331710995266285,120.64372100006227
B,臺中市,民眾服務,51,觀光遊憩設施,農村文物館(中原紫雲寺),24.332246999834712,120.61609400004662
B,臺中市,民眾服務,51,觀光遊憩設施,縱貫鐵路舊山線-泰安車站,24.32262200331891,120.7494170000239
B,臺中市,民眾服務,51,觀光遊憩設施,后里馬場,24.298562010100593,120.73593000001645
B,臺中市,民眾服務,51,觀光遊憩設施,月眉育樂世界,24.322272003827436,120.69748300003218
B,臺中市,民眾服務,51,觀光遊憩設施,天山馬術俱樂部,24.302481999910015,120.73460100003773
B,臺中市,民眾服務,51,觀光遊憩設施,清水區韭黃產業文化館,24.26662500519258,120.574902000036
B,臺中市,民眾服務,51,觀光遊憩設施,梧棲港觀光漁市,24.293292005794378,120.52112600004247
B,臺中市,民眾服務,51,觀光遊憩設施,清水高爾夫球練習場,24.295728000108515,120.58699500005108
B,臺中市,民眾服務,51,觀光遊憩設施,清泉崗高爾夫球場,24.28723100169085,120.62179100004097
B,臺中市,民眾服務,51,觀光遊憩設施,高美濕地風景區,24.31185899657265,120.55036500007387
B,臺中市,民眾服務,51,觀光遊憩設施,臺中市立港區藝術中心,24.27032600198166,120.55773400005197
B,臺中市,民眾服務,51,觀光遊憩設施,武陵森林遊樂區,24.40291699653915,121.30589099994346
B,臺中市,民眾服務,51,觀光遊憩設施,八仙山森林遊樂區,24.192450007647583,121.0132529999976
B,臺中市,民眾服務,51,觀光遊憩設施,統一健康世界,24.18496099611703,120.98596500000127
B,臺中市,民眾服務,51,觀光遊憩設施,梨山風景區,24.25523700691864,121.2505159999743
B,臺中市,民眾服務,51,觀光遊憩設施,梨山風景區管理所,24.25523700735361,121.25043699997161
B,臺中市,民眾服務,51,觀光遊憩設施,武陵富野渡假村,24.354772995705776,121.31153599994383
B,臺中市,民眾服務,51,觀光遊憩設施,梨山旅遊服務中心,24.25523700656567,121.25058099996794
B,臺中市,民眾服務,51,觀光遊憩設施,谷關旅遊服務中心,24.202566005088293,121.01119599999825
B,臺中市,民眾服務,51,觀光遊憩設施,環山泰雅民俗文物館,24.31857300183829,121.29398099995313
B,臺中市,民眾服務,51,觀光遊憩設施,梨山文物陳列館,24.2526110037398,121.25649799996795
B,臺中市,民眾服務,51,觀光遊憩設施,七家灣遺址展示館,24.345658008852407,121.30810199996803
B,臺中市,民眾服務,51,觀光遊憩設施,水舞谷關渡假溫泉館,24.20276800087283,121.00840599999353
B,臺中市,民眾服務,51,觀光遊憩設施,伊豆日式露天溫泉,24.20182700284666,121.00879199999059
B,臺中市,民眾服務,51,觀光遊憩設施,谷關大飯店,24.20291699431418,121.00909099999188
B,臺中市,民眾服務,51,觀光遊憩設施,神木谷假期大飯店,24.204332002070988,121.00939599999882
B,臺中市,民眾服務,51,觀光遊憩設施,明治溫泉大飯店,24.204135004982042,121.00963999999449
B,臺中市,民眾服務,51,觀光遊憩設施,汶山大旅社,24.205642003351866,121.0102959999911
B,臺中市,民眾服務,51,觀光遊憩設施,八仙山莊,24.191543000904794,121.0153089999963
B,臺中市,民眾服務,51,觀光遊憩設施,蘭谷瀑布,24.19786500322436,120.98877999999966
B,臺中市,民眾服務,51,觀光遊憩設施,龍谷大瀑布,24.214209009471027,121.00452499999291
B,臺中市,民眾服務,51,觀光遊憩設施,雪山神木,24.280504003586515,121.03012999998802
B,臺中市,民眾服務,51,觀光遊憩設施,青山溪瀑布群,24.23289700092899,121.08986899998287
B,臺中市,民眾服務,51,觀光遊憩設施,思源亭,24.25361100945193,121.1733169999852
B,臺中市,民眾服務,51,觀光遊憩設施,攬勝亭,24.25659000701882,121.24517299997342
B,臺中市,民眾服務,51,觀光遊憩設施,天池,24.283041994915912,121.02751999998806
B,臺中市,民眾服務,51,觀光遊憩設施,谷關水庫,24.233417001659433,121.07697599998464
B,臺中市,民眾服務,51,觀光遊憩設施,德基水庫,24.25439400089384,121.16628999997077
B,臺中市,民眾服務,51,觀光遊憩設施,雪山登山口服務站,24.385542001417612,121.29876499995238
B,臺中市,民眾服務,51,觀光遊憩設施,谷關水岸湯泉,24.202224999127836,121.00233099999647
B,臺中市,民眾服務,51,觀光遊憩設施,桃山瀑布(煙聲瀑布),24.414674993048862,121.3023349999366
B,臺中市,民眾服務,51,觀光遊憩設施,白鹿瀑布,24.171601002637683,120.91613100000626
B,臺中市,民眾服務,51,觀光遊憩設施,大雪山森林遊樂區,24.24536400429004,120.97496600000208
B,臺中市,民眾服務,51,觀光遊憩設施,龍谷觀光飯店,24.203112995288024,121.00505199998948
B,臺中市,民眾服務,51,觀光遊憩設施,雪山,24.383401999332044,121.23176899996233
B,臺中市,民眾服務,51,觀光遊憩設施,中央尖山,24.310230996642897,121.41622499992808
B,臺中市,民眾服務,51,觀光遊憩設施,大劍山,24.34094600374116,121.20049999996955
B,臺中市,民眾服務,51,觀光遊憩設施,品田山,24.428218993829613,121.26683099993986
B,臺中市,民眾服務,51,觀光遊憩設施,頭鷹山,24.35961399864586,121.14072899997433
B,臺中市,民眾服務,51,觀光遊憩設施,白姑大山,24.20268199497345,121.10897499997284
B,臺中市,民眾服務,51,觀光遊憩設施,志佳陽大山,24.357781993422932,121.25133599994443
B,臺中市,民眾服務,51,觀光遊憩設施,桃山,24.432625994318954,121.30491799993435
B,臺中市,民眾服務,51,觀光遊憩設施,佳陽山,24.306632005640484,121.18801199997245
B,臺中市,民眾服務,51,觀光遊憩設施,鈴鳴山,24.244382010378946,121.35166599997822
B,臺中市,民眾服務,51,觀光遊憩設施,劍山,24.295574009071274,121.17021299998308
B,臺中市,民眾服務,51,觀光遊憩設施,雪山東峰,24.38868900446383,121.27209099996108
B,臺中市,民眾服務,51,觀光遊憩設施,閂山,24.258711999231405,121.30987799995151
B,臺中市,民眾服務,51,觀光遊憩設施,甘藷峰,24.290392010388267,121.38983799997035
B,臺中市,民眾服務,51,觀光遊憩設施,南湖大山東峰,24.365897003790458,121.45067999993906
B,臺中市,民眾服務,51,觀光遊憩設施,南湖大山南峰,24.347787007709847,121.4346009999594
B,臺中市,民眾服務,51,觀光遊憩設施,南湖大山,24.361385000851033,121.43870399993135
B,臺中市,民眾服務,51,觀光遊憩設施,谷關警光山莊,24.2043079928299,121.00973899999111
B,臺中市,民眾服務,51,觀光遊憩設施,葫蘆墩文物館,24.260504007312733,120.72182600001744
B,臺中市,民眾服務,51,觀光遊憩設施,臺中市立文化中心編織工藝館,24.252961010207372,120.73010500001074
B,臺中市,民眾服務,51,觀光遊憩設施,豐原夜市(廟東夜市),24.251113002608175,120.71937400003083
B,臺中市,民眾服務,51,觀光遊憩設施,豐原高爾夫球場,24.265106007414538,120.75601000001521
B,臺中市,民眾服務,51,觀光遊憩設施,中部橫貫公路,24.258069995940538,121.26226699995064
B,臺中市,民眾服務,51,觀光遊憩設施,雪霸國家公園,24.35311900627323,121.30978599996881
B,臺中市,民眾服務,51,觀光遊憩設施,雪霸國家公園,24.35311900627323,121.30978599996881
B,臺中市,民眾服務,51,觀光遊憩設施,裡冷部落,24.16670699807841,120.94784400000785
B,臺中市,民眾服務,51,觀光遊憩設施,谷關溫泉,24.203358010416473,121.00677299999218
B,臺中市,民眾服務,51,觀光遊憩設施,谷關風景區,24.203368006783723,121.00676799999256
B,臺中市,民眾服務,51,觀光遊憩設施,太魯閣國家公園,24.357750999840444,121.42036599993061
B,臺中市,民眾服務,51,觀光遊憩設施,武陵休閒農場,24.35270100830835,121.31000199997506
B,臺中市,民眾服務,51,觀光遊憩設施,福壽山休閒農場,24.255170007085205,121.25849999996849
B,臺中市,民眾服務,51,觀光遊憩設施,公老坪觀光果園,24.262324999747527,120.76164000003322
B,臺中市,民眾服務,51,觀光遊憩設施,雲仙谷綜合觀光果園,24.262551997229473,120.7606290000339
B,臺中市,民眾服務,51,觀光遊憩設施,臺中市風景區管理所,24.247051007472088,120.72079100001564
B,臺中市,民眾服務,51,觀光遊憩設施,社口林宅,24.246947998902304,120.68286700004032
B,臺中市,民眾服務,51,觀光遊憩設施,神岡筱雲山莊,24.233202997271196,120.69468800004704
B,臺中市,民眾服務,51,觀光遊憩設施,石岡客家文物館,24.27396099676841,120.77604100003121
B,臺中市,民眾服務,51,觀光遊憩設施,五福臨門神木,24.264086997187263,120.78639800003256
B,臺中市,民眾服務,51,觀光遊憩設施,石岡水壩風景區,24.279963996762717,120.7700120000336
B,臺中市,民眾服務,51,觀光遊憩設施,東豐自行車綠廊,24.271832005507648,120.74012400001814
B,臺中市,民眾服務,51,觀光遊憩設施,臺中市政府文化中心,24.252931004919965,120.72992200002145
B,臺中市,民眾服務,51,觀光遊憩設施,中港舶來品商店街,24.269305002735585,120.53172000004882
B,臺中市,民眾服務,51,觀光遊憩設施,梨文化館,24.27129600565078,120.86392600000801
B,臺中市,民眾服務,51,觀光遊憩設施,東勢林場賞鳥區,24.281806999999752,120.86992000001015
B,臺中市,民眾服務,51,觀光遊憩設施,東勢林場忘憂池,24.281834004577323,120.87174100000448
B,臺中市,民眾服務,51,觀光遊憩設施,東勢林場得福亭,24.284807006678314,120.87223200000719
B,臺中市,民眾服務,51,觀光遊憩設施,東勢林場螢火蟲區,24.28085200274391,120.87292600000809
B,臺中市,民眾服務,51,觀光遊憩設施,東勢林場螢火蟲展示館,24.282526993919976,120.87329200002239
B,臺中市,民眾服務,51,觀光遊憩設施,東勢林場森林浴場,24.28031399589331,120.87397800001268
B,臺中市,民眾服務,51,觀光遊憩設施,東勢林場觀日亭,24.28658699771403,120.87482400001716
B,臺中市,民眾服務,51,觀光遊憩設施,東勢林場,24.28520200343621,120.86765400001227
B,臺中市,民眾服務,51,觀光遊憩設施,臺中興農高爾夫球場,24.217467000425955,120.6082260000505
B,臺中市,民眾服務,51,觀光遊憩設施,摘星山莊,24.224431000726923,120.69704800004087
B,臺中市,民眾服務,51,觀光遊憩設施,新田登山步道,24.21445800345712,120.73789600002773
B,臺中市,民眾服務,51,觀光遊憩設施,沈老師高爾夫練習場,24.225102004542126,120.69410200002854
B,臺中市,民眾服務,51,觀光遊憩設施,企業家高爾夫練習場,24.19963300708948,120.70041500001629
B,臺中市,民眾服務,51,觀光遊憩設施,中興休閒農場,24.15758299695287,120.82916700001975
B,臺中市,民眾服務,51,觀光遊憩設施,安石園茶園,24.239458009479208,120.7844600000065
B,臺中市,民眾服務,51,觀光遊憩設施,新社莊園,24.18930700477292,120.81263600001222
B,臺中市,民眾服務,51,觀光遊憩設施,薰衣草森林‧新社店,24.12856800104924,120.8413440000196
B,臺中市,民眾服務,51,觀光遊憩設施,臺中都會公園,24.20769600329524,120.59916000004613
B,臺中市,民眾服務,51,觀光遊憩設施,興農高爾夫球練習場,24.196153998963023,120.61814200005195
B,臺中市,民眾服務,51,觀光遊憩設施,臺中市政府文化局文英館,24.14759399485527,120.6867520000482
B,臺中市,民眾服務,51,觀光遊憩設施,臺中市政府文化局中山堂,24.155192999846488,120.68191900003805
B,臺中市,民眾服務,51,觀光遊憩設施,中國醫藥學院中醫藥展示館,24.155928008211372,120.67932300002244
B,臺中市,民眾服務,51,觀光遊憩設施,清新溫泉渡假飯店,24.136335001513398,120.58802000004708
B,臺中市,民眾服務,51,觀光遊憩設施,大坑風景區大坑一號步道,24.188378006732776,120.79065000001263
B,臺中市,民眾服務,51,觀光遊憩設施,大坑風景區大坑三號步道,24.17817499471397,120.79126300003402
B,臺中市,民眾服務,51,觀光遊憩設施,大坑風景區大坑二號步道,24.182993999099764,120.79282100002422
B,臺中市,民眾服務,51,觀光遊憩設施,大坑風景區大坑五號步道,24.18744799873706,120.79952000002923
B,臺中市,民眾服務,51,觀光遊憩設施,臺中市兒童館,24.169333998974523,120.6945360000444
B,臺中市,民眾服務,51,觀光遊憩設施,八二三紀念公園,24.187538001457526,120.6890300000341
B,臺中市,民眾服務,51,觀光遊憩設施,亞哥花園,24.175000003710228,120.75670500002096
B,臺中市,民眾服務,51,觀光遊憩設施,東山樂園,24.19831700260308,120.76488900002477
B,臺中市,民眾服務,51,觀光遊憩設施,卡多里樂園(停),24.193349001409295,120.74799800002945
B,臺中市,民眾服務,51,觀光遊憩設施,三光高爾夫練習場,24.17844600182349,120.67717400003707
B,臺中市,民眾服務,51,觀光遊憩設施,楊老師高爾夫練習場,24.18241100334965,120.68036600002999
B,臺中市,民眾服務,51,觀光遊憩設施,亞加達高爾夫練習場,24.181281993362184,120.70421400004889
B,臺中市,民眾服務,51,觀光遊憩設施,冠祐花園高爾夫練習場,24.188053998718516,120.71802400003976
B,臺中市,民眾服務,51,觀光遊憩設施,臺中國際高爾夫球場,24.162701002348985,120.75869300002465
B,臺中市,民眾服務,51,觀光遊憩設施,東海夜市,24.18141600694301,120.59226500002706
B,臺中市,民眾服務,51,觀光遊憩設施,大肚溪口野生動物保護區,24.20784900568454,120.48165800004801
B,臺中市,民眾服務,51,觀光遊憩設施,大坑風景區,24.184816999968188,120.79082800002153
B,臺中市,民眾服務,51,觀光遊憩設施,台中市大坑風景區管理所,24.189403000063987,120.75110800002531
B,臺中市,民眾服務,51,觀光遊憩設施,逢甲夜市,24.17789200462981,120.64658700002936
B,臺中市,民眾服務,51,觀光遊憩設施,臺中西屯張廖家廟,24.182018004754674,120.64579600003034
B,臺中市,民眾服務,51,觀光遊憩設施,臺中張家祖廟,24.177794000929943,120.62377300004115
B,臺中市,民眾服務,51,觀光遊憩設施,仙女瀑布,24.122149005542806,120.82011900000896
B,臺中市,民眾服務,51,觀光遊憩設施,非洲觀光鱷魚養殖場,24.103701009772987,120.7750520000089
B,臺中市,民眾服務,51,觀光遊憩設施,鴻禧太平高爾夫球場,24.129315004508648,120.7605970000194
B,臺中市,民眾服務,51,觀光遊憩設施,台中市立屯區藝文中心,24.156361996814347,120.73441600004257
B,臺中市,民眾服務,51,觀光遊憩設施,霧峰林宅,24.064658006711255,120.70034100002414
B,臺中市,民眾服務,51,觀光遊憩設施,參山國家風景區,24.058317001296192,120.69821000003861
B,臺中市,民眾服務,51,觀光遊憩設施,處本部旅遊服務中心,24.02343500149757,120.69612800003154
B,臺中市,民眾服務,51,觀光遊憩設施,林獻堂文物紀念館,24.061075002349998,120.70352000003346
B,臺中市,民眾服務,51,觀光遊憩設施,台灣省農業試驗所昆蟲標本館,24.026848999417346,120.69650800004327
B,臺中市,民眾服務,51,觀光遊憩設施,霧峰高爾夫球場,24.033469003864788,120.74678700002183
B,臺中市,民眾服務,51,觀光遊憩設施,921地震教育園區,24.043396003687075,120.69703400002486
B,臺中市,民眾服務,51,觀光遊憩設施,參山國家風景區管理處,24.058197002435875,120.69821000002798
B,臺中市,民眾服務,51,觀光遊憩設施,臺中文昌廟,24.191102997028082,120.68470500005046
B,臺中市,民眾服務,51,觀光遊憩設施,青青休閒農園,24.169216005312823,120.75611800002248
B,臺中市,民眾服務,51,觀光遊憩設施,積善樓,24.16931499809796,120.69380900004569
B,臺中市,民眾服務,51,觀光遊憩設施,台灣民俗文物館,24.17450999816535,120.68726600003932
B,臺中市,民眾服務,51,觀光遊憩設施,臺中市政府文化局兒童館,24.169115996309742,120.69419000004748
B,臺中市,民眾服務,51,觀光遊憩設施,中山公園湖心亭,24.14355900553178,120.6832110000214
B,臺中市,民眾服務,51,觀光遊憩設施,精明一街形象商圈,24.157334001632513,120.65800000003885
B,臺中市,民眾服務,51,觀光遊憩設施,學士夜市,24.162865004660347,120.68115100002528
B,臺中市,民眾服務,51,觀光遊憩設施,臺中林氏宗祠,24.131550993579094,120.6770290000527
B,臺中市,民眾服務,51,觀光遊憩設施,忠孝路夜市,24.129076999197487,120.68064800003926
B,臺中市,民眾服務,51,觀光遊憩設施,磺溪書院,24.15005100297692,120.53936700004995
B,臺中市,民眾服務,51,觀光遊憩設施,磺溪書院,24.15005100297692,120.53936700004995
B,臺中市,民眾服務,51,觀光遊憩設施,大坑風景區九號步道,24.181995997570176,120.73220300004049
B,臺中市,民眾服務,51,觀光遊憩設施,大坑風景區九號步道口,24.177055997384297,120.73369600003568
B,臺中市,民眾服務,51,觀光遊憩設施,大坑風景區七號步道,24.1900249990979,120.73159000003717
B,臺中市,民眾服務,51,觀光遊憩設施,大坑風景區六號步道,24.18985300573916,120.73627200002396
B,臺中市,民眾服務,51,觀光遊憩設施,大坑風景區大坑一號步道口,24.1903229983746,120.78448000002614
B,臺中市,民眾服務,51,觀光遊憩設施,大坑風景區大坑三號步道口,24.179903995456797,120.78595600003244
B,臺中市,民眾服務,51,觀光遊憩設施,大坑風景區大坑二號步道口,24.184319002924195,120.78564000002268
B,臺中市,民眾服務,51,觀光遊憩設施,大坑風景區大坑四號步道,24.17501499948327,120.7899070000281
B,臺中市,民眾服務,51,觀光遊憩設施,觀光局旅遊服務中心臺中服務處,24.155377996131648,120.63119300006213
B,臺中市,民眾服務,51,觀光遊憩設施,萬和宮文物館,24.137575006017997,120.63939100002735
B,臺中市,民眾服務,51,觀光遊憩設施,湖水岸藝術社區,24.131621006074578,120.64420800003073
B,臺中市,民眾服務,51,觀光遊憩設施,臺中市花卉市場,24.14711201026634,120.64348300002034
B,臺中市,民眾服務,51,觀光遊憩設施,嶺東高爾夫球場,24.149874006462937,120.60684900002765
B,臺中市,民眾服務,51,觀光遊憩設施,高仕成功嶺高爾夫俱樂部,24.12778200085377,120.60761700004338
B,臺中市,民眾服務,51,觀光遊憩設施,吳鸞旂墓園,24.12287800150954,120.73681800002853
B,臺中市,民眾服務,51,觀光遊憩設施,古農莊民俗中心,24.117563006629528,120.73416500001443
B,臺中市,民眾服務,51,觀光遊憩設施,明梨園北管曲藝館,24.115793998661736,120.73472200003106
B,臺中市,民眾服務,51,觀光遊憩設施,麒麟峰溫泉,24.187739994055985,120.7437440000411
B,臺中市,民眾服務,51,觀光遊憩設施,霞客溫泉,24.181345000149033,120.74783800003293
B,臺中市,民眾服務,51,觀光遊憩設施,日光溫泉會館,24.192708006808868,120.74395000001884
B,臺中市,民眾服務,51,觀光遊憩設施,大坑風景區八號步道口,24.19107800350625,120.7282490000289
B,臺中市,民眾服務,51,觀光遊憩設施,大坑風景區七號步道口,24.18771099928452,120.73041800003583
B,臺中市,民眾服務,51,觀光遊憩設施,大坑風景區八號步道,24.19218799784568,120.73020700003796
B,臺中市,民眾服務,51,觀光遊憩設施,大坑風景區六號步道口,24.18780300699169,120.73085000001845
B,臺中市,民眾服務,51,觀光遊憩設施,臺中酒廠文物館,24.168529993946375,120.59855400006622
B,臺中市,民眾服務,51,觀光遊憩設施,中國民間美術博物館,24.15397000924516,120.65867100001843
B,臺中市,民眾服務,51,觀光遊憩設施,臺中繼光商店街,24.139661998102948,120.68329300004658
B,臺中市,民眾服務,51,觀光遊憩設施,中華路夜市,24.144733001065678,120.67624900003717
B,臺中市,民眾服務,51,觀光遊憩設施,臺中樂成宮,24.14061400696147,120.69803500002156
B,臺中市,民眾服務,51,觀光遊憩設施,台灣漆文化博物館,24.12689000091434,120.68922600003872
B,臺中市,民眾服務,51,觀光遊憩設施,台灣漆文化博物館,24.12689000091434,120.68922600003872
B,臺中市,民眾服務,51,觀光遊憩設施,臺中市孔廟忠烈祠,24.1543840066117,120.68969200002492
B,臺中市,民眾服務,51,觀光遊憩設施,新美畫廊,24.13724799846307,120.67075100004193
B,臺中市,民眾服務,51,觀光遊憩設施,臺中市政府文化局大墩藝廊,24.141245004339673,120.66549600003535
B,臺中市,民眾服務,51,觀光遊憩設施,臺中市立文化中心—陳列館,24.141273997187856,120.66558200005345
B,臺中市,民眾服務,51,觀光遊憩設施,國立自然科學博物館,24.156114007419266,120.6663670000255
B,臺中市,民眾服務,51,觀光遊憩設施,國立台灣美術館,24.14154700615055,120.66356100002596
B,臺中市,民眾服務,51,觀光遊憩設施,迪諾歡樂世界,24.13605400640695,120.68755100002275
B,臺中市,民眾服務,51,觀光遊憩設施,20號倉庫,24.136054001720098,120.6847090000332
B,臺中市,民眾服務,52,停車場地,臺中市室外停車場,24.350259616278525,120.6180388751578
B,臺中市,民眾服務,52,停車場地,臺中市停車場,24.256210208818644,121.00816101903658
B,臺中市,民眾服務,52,停車場地,臺中市臺中公園地下停車場,24.145443045836,120.683120048931
B,臺中市,民眾服務,52,停車場地,臺中市豐原區公共造產停車場(5),24.252626423491247,120.71954266998748
B,臺中市,民眾服務,52,停車場地,臺中市觀光漁市停車場二,24.293174857960047,120.52325565501148
B,臺中市,民眾服務,52,停車場地,臺中市豐原區公共造產停車場(3),24.254120049194903,120.7210372037419
B,臺中市,民眾服務,52,停車場地,臺中市豐原區收費停車場(7),24.249969438088318,120.71980835175344
B,臺中市,民眾服務,52,停車場地,臺中市公有停車場,24.1029534312235,120.6871217116949
B,臺中市,民眾服務,52,停車場地,臺中市豐原區公共造產停車場(4),24.253398486875362,120.72061768188823
B,臺中市,民眾服務,52,停車場地,臺中市豐原區公共造產停車場(1),24.25559622801003,120.72225797842113
B,臺中市,民眾服務,52,停車場地,臺中市豐原區收費停車場(3),24.249573725242172,120.73052658319051
B,臺中市,民眾服務,52,停車場地,臺中市停車場,24.255888635581005,121.00807904019024
B,臺中市,民眾服務,52,停車場地,臺中市室外停車場,24.349948803530214,120.61769021304514
B,臺中市,民眾服務,52,停車場地,臺中市豐原區收費停車場(17),24.25946173767081,120.71978526723304
B,臺中市,民眾服務,52,停車場地,臺中市停車場,24.197364558007695,120.68521652685546
B,臺中市,民眾服務,52,停車場地,臺中市豐原區公共造產停車場(6),24.252561243182747,120.71852834484709
B,臺中市,民眾服務,52,停車場地,臺中市停車場,24.25581949666709,121.00830194421728
B,臺中市,民眾服務,52,停車場地,臺中市和平里地震公園停車場,24.178037885675142,120.73359543190942
B,臺中市,民眾服務,52,停車場地,臺中市停車場,24.190608884073736,121.01478357584737
B,臺中市,民眾服務,52,停車場地,臺中市豐原區收費停車場(21),24.252867637354633,120.7332009916886
B,臺中市,民眾服務,52,停車場地,臺中市停車場,24.383549552581375,120.58735166868156
B,臺中市,民眾服務,52,停車場地,臺中市921地震教育園區停車場,24.040591068294493,120.7012156402213
B,臺中市,民眾服務,52,停車場地,臺中市豐原區收費停車場(14),24.256788802654636,120.71388114104732
B,臺中市,民眾服務,52,停車場地,臺中市公有第四停車場,24.359524954244996,120.65012318941073
B,臺中市,民眾服務,52,停車場地,臺中市豐原區公共造產停車場(9),24.249236301175348,120.71776125075645
B,臺中市,民眾服務,52,停車場地,臺中市豐原區收費停車場(18),24.25168301087842,120.71675619206313
B,臺中市,民眾服務,52,停車場地,臺中市大雪山森林遊樂區停車場,24.281081773098112,121.03343487009602
B,臺中市,民眾服務,52,停車場地,臺中市豐原區收費停車場(5),24.266905129898323,120.73000895953778
B,臺中市,民眾服務,52,停車場地,臺中市921地震教育園區停車場,24.040406543143717,120.70012737182533
B,臺中市,民眾服務,52,停車場地,臺中市臺中世貿中心小型車停車場,24.175949661055434,120.61613673550687
B,臺中市,民眾服務,52,停車場地,臺中市新光市場專用第二停車場,24.143584684188216,120.71020944328372
B,臺中市,民眾服務,52,停車場地,臺中市財團法人佛教慈濟綜合醫院潭子分院停車場,24.19283659275296,120.72015807067568
B,臺中市,民眾服務,52,停車場地,臺中市鐵砧山風景區第七停車場,24.355392963337593,120.6461523987797
B,臺中市,民眾服務,52,停車場地,臺中市豐原區公共造產停車場(8),24.250387664203608,120.71768427976049
B,臺中市,民眾服務,52,停車場地,臺中市豐原區收費停車場(8),24.254443078452084,120.73032573066489
B,臺中市,民眾服務,52,停車場地,臺中市港區停車場,24.265338281118353,120.52543387915874
B,臺中市,民眾服務,52,停車場地,臺中市南突堤停車場,24.26708221040447,120.52683115628373
B,臺中市,民眾服務,52,停車場地,臺中市福壽山農場旅遊服務中心停車場,24.2449656619423,121.24511721070283
B,臺中市,民眾服務,52,停車場地,臺中市石岡壩小型公園停車場,24.279545509356403,120.7677743469349
B,臺中市,民眾服務,52,停車場地,臺中市后里區復興街停車場,24.30772648320155,120.72053111328704
B,臺中市,民眾服務,52,停車場地,臺中市停車場,24.157494456538537,120.64310850323443
B,臺中市,民眾服務,52,停車場地,臺中市豐原區收費停車場(4),24.25453110590921,120.72403191614515
B,臺中市,民眾服務,52,停車場地,臺中市觀光漁市停車場一,24.29403076209305,120.52356939782032
B,臺中市,民眾服務,52,停車場地,臺中市豐原區公共造產停車場(2),24.255150305166104,120.72161566859639
B,臺中市,民眾服務,52,停車場地,臺中市高鐵臺中站停車場,24.111316871274852,120.61764587322148
B,臺中市,民眾服務,52,停車場地,臺中市第一停車場,24.256882875728504,120.71276477345745
B,臺中市,民眾服務,52,停車場地,臺中市財政部臺中關稅局停車場,24.256669166940007,120.52391864803415
B,臺中市,民眾服務,52,停車場地,臺中市鐵砧山風景區停車場,24.35806268667307,120.64563907906387
B,臺中市,民眾服務,52,停車場地,臺中市東勢區延平停車場,24.25195133704661,120.82863689627432
B,臺中市,民眾服務,52,停車場地,臺中市港區停車場,24.261131477873633,120.52378450802782
B,臺中市,民眾服務,52,停車場地,臺中市新光市場專用第四停車場,24.142908739881904,120.70988742031639
B,臺中市,民眾服務,52,停車場地,臺中市停車場,24.255527964958222,121.00843960542849
B,臺中市,民眾服務,52,停車場地,臺中市豐原區收費停車場(19),24.256633200048185,120.72294093638165
B,臺中市,民眾服務,52,停車場地,臺中市停車場,24.10361417375812,120.68331216646625
B,臺中市,民眾服務,52,停車場地,臺中市豐原區收費停車場(20),24.251871250317212,120.73045264880517
B,臺中市,民眾服務,52,停車場地,臺中市停車場,24.38068863764738,120.58456595481617
B,臺中市,民眾服務,52,停車場地,臺中市港區一號停車場,24.260255272670097,120.52268304590847
B,臺中市,民眾服務,52,停車場地,臺中市福壽山休閒農場停車場,24.244676460337406,121.2443960778864
B,臺中市,民眾服務,52,停車場地,臺中市新光市場專用第五停車場,24.142442938626182,120.70985040215932
B,臺中市,民眾服務,52,停車場地,臺中市豐原區公共造產停車場(7),24.25130665061914,120.71793155234234
B,臺中市,民眾服務,52,停車場地,臺中市港區停車場,24.265734449737575,120.52574116212459
B,臺中市,民眾服務,52,停車場地,臺中市停車場(無名),24.14258780234489,120.72292323998
B,臺中市,民眾服務,52,停車場地,臺中市豐原區收費停車場(6),24.255283214817858,120.7229230225221
B,臺中市,民眾服務,52,停車場地,臺中市觀光漁市停車場三,24.294389067130734,120.51922960214003
B,臺中市,民眾服務,52,停車場地,臺中市停車場,24.190812073572058,121.01482297282398
B,臺中市,民眾服務,52,停車場地,臺中市武陵森林遊樂區停車場,24.35369040292104,121.31030912198337
B,臺中市,民眾服務,52,停車場地,臺中市停車場,24.382946688888925,120.58488035157674
B,臺中市,民眾服務,52,停車場地,臺中市港區停車場,24.265860465882692,120.52504745749103
B,臺中市,民眾服務,52,停車場地,匠師的故鄉停車場,24.421182007531353,120.61744300003063
B,臺中市,民眾服務,52,停車場地,臺中幼獅停車場,24.40340900991356,120.64745100002274
B,臺中市,民眾服務,52,停車場地,鐵砧山風景區停車場,24.358319997708463,120.64592200004824
B,臺中市,民眾服務,52,停車場地,貞節牌坊停車場,24.34477999682636,120.6212120000637
B,臺中市,民眾服務,52,停車場地,后里區復興街停車場,24.308526998059207,120.71902400003586
B,臺中市,民眾服務,52,停車場地,月眉育樂世界停車場,24.31923199912692,120.69247000004094
B,臺中市,民眾服務,52,停車場地,后里馬場停車場,24.298409008207024,120.73509000001877
B,臺中市,民眾服務,52,停車場地,臺中市自由車場停車場,24.27127100557696,120.58256200003805
B,臺中市,民眾服務,52,停車場地,清水服務區小型車停車場,24.28113199440306,120.59985600007002
B,臺中市,民眾服務,52,停車場地,清水服務區停車場,24.283879009311487,120.60227800002565
B,臺中市,民眾服務,52,停車場地,北突堤停車場,24.279331998420172,120.5334150000714
B,臺中市,民眾服務,52,停車場地,北突堤停車場,24.279331998420172,120.5334150000714
B,臺中市,民眾服務,52,停車場地,第二停車場,24.29459800171785,120.51929500005562
B,臺中市,民眾服務,52,停車場地,大雪山森林遊樂區停車場,24.245113007338603,120.97446299999962
B,臺中市,民眾服務,52,停車場地,谷關風景區大型遊覽車停車場,24.20278100274564,121.0036199999955
B,臺中市,民眾服務,52,停車場地,龍谷觀光飯店附屬立體停車場,24.202915998320442,121.00468299999697
B,臺中市,民眾服務,52,停車場地,谷關風景區小型車立體停車場,24.202918006405735,121.00580599999627
B,臺中市,民眾服務,52,停車場地,谷關大飯店停車場,24.20372100356533,121.00815599999052
B,臺中市,民眾服務,52,停車場地,大雪山森林遊樂區埡口觀景台停車場,24.268833007230537,121.03061999999434
B,臺中市,民眾服務,52,停車場地,梨山停車場,24.244625997885272,121.24506699995435
B,臺中市,民眾服務,52,停車場地,梨山賓館停車場,24.254298007944634,121.25102199997286
B,臺中市,民眾服務,52,停車場地,八仙山森林遊樂區停車場,24.18530999281769,121.00304099999262
B,臺中市,民眾服務,52,停車場地,八仙山森林遊樂區停車場,24.18530999281769,121.00304099999262
B,臺中市,民眾服務,52,停車場地,武陵森林遊樂區停車場,24.35356700414913,121.3102639999578
B,臺中市,民眾服務,52,停車場地,青山河濱公園停車場,24.248925994797325,121.1487049999709
B,臺中市,民眾服務,52,停車場地,福壽山休閒農場停車場,24.251743002107684,121.2497519999625
B,臺中市,民眾服務,52,停車場地,福壽山休閒農場停車場,24.251743002107684,121.2497519999625
B,臺中市,民眾服務,52,停車場地,富春國小地下停車場,24.252960001158336,120.71342500003418
B,臺中市,民眾服務,52,停車場地,府前停車場,24.247884997542695,120.7138970000457
B,臺中市,民眾服務,52,停車場地,豐原區公有第一零售市場地下停車場,24.249986998418187,120.71588500004331
B,臺中市,民眾服務,52,停車場地,中興嘟嘟房停車場-豐原府前站,24.249435004357515,120.71774100002135
B,臺中市,民眾服務,52,停車場地,中興嘟嘟房停車場-豐原中興站,24.248316997810353,120.71814100003625
B,臺中市,民眾服務,52,停車場地,中興嘟嘟房停車場-豐原博愛站,24.24721700349133,120.7181610000296
B,臺中市,民眾服務,52,停車場地,中興嘟嘟房停車場-豐原信義站,24.252644998514786,120.71889300003542
B,臺中市,民眾服務,52,停車場地,豐原市公共造產停車場,24.252759000240825,120.7204540000383
B,臺中市,民眾服務,52,停車場地,中興嘟嘟房停車場-豐原和平站,24.252681004261778,120.71997500002573
B,臺中市,民眾服務,52,停車場地,豐原市公有廣三停車場,24.254610000357456,120.72410000003156
B,臺中市,民眾服務,52,停車場地,豐原醫院停車場,24.24323400438077,120.72517800002582
B,臺中市,民眾服務,52,停車場地,豐原客運停車場,24.262380004717155,120.73890800001817
B,臺中市,民眾服務,52,停車場地,豐原國小停車場,24.255293008026687,120.72030300001305
B,臺中市,民眾服務,52,停車場地,中庚停車場,24.249573997369946,120.71933700003775
B,臺中市,民眾服務,52,停車場地,臺中市衛生局停車場,24.249137008776305,120.71428600001967
B,臺中市,民眾服務,52,停車場地,帝亞泳池停車場,24.262766004625018,120.73994700001927
B,臺中市,民眾服務,52,停車場地,中興嘟嘟房停車場-豐原豐中站,24.255413005039696,120.72193200002461
B,臺中市,民眾服務,52,停車場地,中興嘟嘟房停車場-豐原三民站,24.253871002882708,120.72090100003328
B,臺中市,民眾服務,52,停車場地,中興嘟嘟房停車場-豐原中正站,24.2519220064471,120.71799200002279
B,臺中市,民眾服務,52,停車場地,中興嘟嘟房停車場-豐原復興站,24.250440002871102,120.71768500003395
B,臺中市,民眾服務,52,停車場地,第一停車場,24.25662800910846,120.7130700000113
B,臺中市,民眾服務,52,停車場地,神岡區收費停車場,24.260046006752567,120.65713100002708
B,臺中市,民眾服務,52,停車場地,港區一號停車場,24.262558006881818,120.53200600003984
B,臺中市,民眾服務,52,停車場地,南突堤停車場,24.269332004933347,120.5276600000479
B,臺中市,民眾服務,52,停車場地,東勢林場停車場,24.28641099768697,120.8676390000181
B,臺中市,民眾服務,52,停車場地,河濱公園停車場,24.258275993162147,120.82442400003352
B,臺中市,民眾服務,52,停車場地,河濱公園停車場,24.258275993162147,120.82442400003352
B,臺中市,民眾服務,52,停車場地,沙鹿公園停車場,24.236282004258022,120.56517400004118
B,臺中市,民眾服務,52,停車場地,沙鹿火車站停車場,24.235437995162574,120.55784100007371
B,臺中市,民眾服務,52,停車場地,中興嘟嘟房停車場-金車加盟-臺中機場站,24.257946002526225,120.60137600004632
B,臺中市,民眾服務,52,停車場地,停四停車場,24.214247008074423,120.61771900002614
B,臺中市,民眾服務,52,停車場地,停三停車場,24.22211299715146,120.62327100005481
B,臺中市,民眾服務,52,停車場地,停二停車場,24.220504994301997,120.62923600006924
B,臺中市,民眾服務,52,停車場地,停一停車場,24.22049300053454,120.63057100005015
B,臺中市,民眾服務,52,停車場地,德芳南路第二停車場,24.103970005984902,120.68320200002536
B,臺中市,民眾服務,52,停車場地,德芳南路第一停車場,24.102728001424975,120.68739300003728
B,臺中市,民眾服務,52,停車場地,青年高中停車場,24.08707299696579,120.69259800004332
B,臺中市,民眾服務,52,停車場地,台中市大里區公有停車場,24.108268992597097,120.683874000061
B,臺中市,民眾服務,52,停車場地,烏日停車場,24.102643993017097,120.62704500006627
B,臺中市,民眾服務,52,停車場地,永固停車場-中港站,24.165582001749403,120.64362600004021
B,臺中市,民眾服務,52,停車場地,Times(普客二四停車場)-臺中逢甲停車場,24.175329992988207,120.64427500006406
B,臺中市,民眾服務,52,停車場地,台灣聯通停車場-朝富場,24.16469400494524,120.63923300003336
B,臺中市,民眾服務,52,停車場地,台灣聯通停車場-惠順場,24.164694004952413,120.63923400003283
B,臺中市,民眾服務,52,停車場地,中興嘟嘟房停車場-臺中薇風站,24.184486006769077,120.62044900002911
B,臺中市,民眾服務,52,停車場地,太平區中興立體停車場,24.130637008659917,120.72066700001093
B,臺中市,民眾服務,52,停車場地,宜欣停車場,24.14334900568811,120.71665100001778
B,臺中市,民眾服務,52,停車場地,非洲觀光鱷魚養殖場停車場,24.10367600361107,120.77491800001796
B,臺中市,民眾服務,52,停車場地,新平公有停車場,24.149103002933902,120.71593000002932
B,臺中市,民眾服務,52,停車場地,金陵山宗教藝術園區停車場,24.03223400279596,120.72127000002588
B,臺中市,民眾服務,52,停車場地,植物園停車場,24.15702399568978,120.66791500004908
B,臺中市,民眾服務,52,停車場地,武昌停車場,24.1694430010444,120.66817400004108
B,臺中市,民眾服務,52,停車場地,遊覽車停車場,24.157203007037467,120.6679050000279
B,臺中市,民眾服務,52,停車場地,中德停車場,24.166171994202777,120.66944600005422
B,臺中市,民眾服務,52,停車場地,鼎壹大飯店停車場,24.17457099603335,120.67358100004975
B,臺中市,民眾服務,52,停車場地,梅村大飯店停車場,24.162983998956847,120.67557700004261
B,臺中市,民眾服務,52,停車場地,嘉豪大飯店停車場,24.146951000760613,120.67570700003478
B,臺中市,民眾服務,52,停車場地,仁美大飯店停車場,24.158829006063563,120.67702500002412
B,臺中市,民眾服務,52,停車場地,中華停車場,24.14728500003602,120.6779210000357
B,臺中市,民眾服務,52,停車場地,大功圓保齡球館立體停車場,24.149954003711212,120.67868000003489
B,臺中市,民眾服務,52,停車場地,正豪大飯店停車場,24.15209199562892,120.67896000005436
B,臺中市,民眾服務,52,停車場地,金滿家大飯店停車場,24.1538120103837,120.68035800000989
B,臺中市,民眾服務,52,停車場地,元帥大飯店停車場,24.152300009099914,120.68037100001813
B,臺中市,民眾服務,52,停車場地,富比世大飯店停車場,24.159621002483572,120.6807540000328
B,臺中市,民眾服務,52,停車場地,中國醫藥學院地下停車場,24.15657000141709,120.68113200003822
B,臺中市,民眾服務,52,停車場地,福音街停車場,24.146735003408814,120.68121200002761
B,臺中市,民眾服務,52,停車場地,中正公園地下停車場,24.15738599653066,120.68131500004688
B,臺中市,民眾服務,52,停車場地,永興停車場,24.164991996236694,120.68199600004567
B,臺中市,民眾服務,52,停車場地,大益停車場,24.146594995772972,120.65662300005395
B,臺中市,民眾服務,52,停車場地,土庫停車場,24.141424997760748,120.65755900005094
B,臺中市,民眾服務,52,停車場地,太原停車場,24.16119199631325,120.65946800005672
B,臺中市,民眾服務,52,停車場地,美村停車場,24.141370999447034,120.66148200004548
B,臺中市,民眾服務,52,停車場地,忠明公園地下停車場,24.154145997447866,120.66021100004798
B,臺中市,民眾服務,52,停車場地,吉龍停車場,24.13243299623134,120.66187700005304
B,臺中市,民眾服務,52,停車場地,萬壽棒球場地下停車場,24.14590000964671,120.65006100001487
B,臺中市,民眾服務,52,停車場地,臺中中山堂停車場,24.15439400242858,120.68312700003254
B,臺中市,民眾服務,52,停車場地,中山公園停車場,24.145463000213375,120.68282100003485
B,臺中市,民眾服務,52,停車場地,五義街邊停車場,24.154969000396733,120.68338300003575
B,臺中市,民眾服務,52,停車場地,中山堂南側停車場,24.15377899306235,120.68338600006048
B,臺中市,民眾服務,52,停車場地,台灣體育學院排球館停車場,24.148202997530408,120.68700000004655
B,臺中市,民眾服務,52,停車場地,金華停車場,24.155681993058447,120.69159600005771
B,臺中市,民眾服務,52,停車場地,建成停車場,24.155041000338482,120.69917300004026
B,臺中市,民眾服務,52,停車場地,自來水公司停車場,24.149887997976787,120.68893300004102
B,臺中市,民眾服務,52,停車場地,中山公園地下停車場,24.144522004655872,120.68215500002361
B,臺中市,民眾服務,52,停車場地,玉雪立體停車場,24.152952995836287,120.6844550000521
B,臺中市,民眾服務,52,停車場地,高苑立體停車場,24.145450008964573,120.67576000001374
B,臺中市,民眾服務,52,停車場地,精武停車場,24.146801009071638,120.68814500002094
B,臺中市,民眾服務,52,停車場地,中興嘟嘟房停車場-寶盛加盟-臺中北平站,24.171542005153963,120.67609300002835
B,臺中市,民眾服務,52,停車場地,國立台灣美術館停車場,24.14134400287738,120.66179900003449
B,臺中市,民眾服務,52,停車場地,廣三SOGO立體停車場,24.155266009389948,120.66134900001327
B,臺中市,民眾服務,52,停車場地,臺中金典酒店停車場,24.15628200277808,120.6632310000386
B,臺中市,民眾服務,52,停車場地,易泊網臺中中興站,24.1538210046763,120.66307100003293
B,臺中市,民眾服務,52,停車場地,晶品大飯店停車場,24.146560000885106,120.66355800003862
B,臺中市,民眾服務,52,停車場地,大廣三立體停車場,24.151367007166396,120.66404300002534
B,臺中市,民眾服務,52,停車場地,易泊網臺中科博館站,24.15716001045489,120.66498300001406
B,臺中市,民眾服務,52,停車場地,富仙大飯店停車場,24.14086399407515,120.66675600006027
B,臺中市,民眾服務,52,停車場地,香榭大飯店停車場,24.153952003847625,120.66997800002959
B,臺中市,民眾服務,52,停車場地,民龍公園旁停車場,24.152742004888445,120.67009500003287
B,臺中市,民眾服務,52,停車場地,貴和停車場,24.136383006903895,120.67072000001946
B,臺中市,民眾服務,52,停車場地,平和停車場,24.141021999200298,120.67267400004184
B,臺中市,民眾服務,52,停車場地,貴和街邊臨時停車場,24.134144003830354,120.67300100003513
B,臺中市,民眾服務,52,停車場地,中港大飯店停車場,24.147322008829402,120.67354500001643
B,臺中市,民眾服務,52,停車場地,廣民停車場,24.13908700838532,120.67349400001508
B,臺中市,民眾服務,52,停車場地,林森停車場,24.134528002403805,120.67360900003638
B,臺中市,民眾服務,52,停車場地,府後街地下停車場,24.136384005777412,120.67518100002458
B,臺中市,民眾服務,52,停車場地,臺中地方法院停車場,24.133959997269315,120.67542700004311
B,臺中市,民眾服務,52,停車場地,市府廣場停車場,24.139088010290592,120.67842200001934
B,臺中市,民眾服務,52,停車場地,水舞饡平面停車場,24.15161999646709,120.66843900005011
B,臺中市,民眾服務,52,停車場地,中興嘟嘟房停車場-寶盛加盟-臺中萬壽站,24.146565006837204,120.65073600002718
B,臺中市,民眾服務,52,停車場地,台灣省立臺中醫院附設停車場,24.14024100092038,120.67570800004326
B,臺中市,民眾服務,52,停車場地,應安停車場-臺中場,24.157606998012007,120.65823600004427
B,臺中市,民眾服務,52,停車場地,台灣聯通停車場-勤美誠品,24.151212003887384,120.66390600003496
B,臺中市,民眾服務,52,停車場地,中興嘟嘟房停車場-臺中忠明站,24.156432006113647,120.6591040000237
B,臺中市,民眾服務,52,停車場地,中興嘟嘟房停車場-臺中中興站,24.153192005448123,120.66438500002708
B,臺中市,民眾服務,52,停車場地,豐富公園停車場,24.130370002465774,120.65443200004106
B,臺中市,民眾服務,52,停車場地,富帝大飯店停車場,24.134317001001012,120.65626400004419
B,臺中市,民眾服務,52,停車場地,崇倫公園停車場,24.133517001231535,120.65831600003571
B,臺中市,民眾服務,52,停車場地,南平停車場,24.123834009734566,120.66574400001976
B,臺中市,民眾服務,52,停車場地,雷中停車場,24.18272800817053,120.66890000001946
