縣市代號,縣市,大類別,小類別代號,小類別名稱,地標名稱,緯度,經度
G,宜蘭縣,交通運輸,11,火車站,宜蘭縣臺鐵大溪車站,24.938383477885615,121.889831835222
G,宜蘭縣,交通運輸,11,火車站,宜蘭縣臺鐵中里車站,24.694609454015822,121.7752589600684
G,宜蘭縣,交通運輸,11,火車站,宜蘭縣臺鐵武塔車站,24.449186066165765,121.775806053789
G,宜蘭縣,交通運輸,11,火車站,宜蘭縣臺鐵外澳車站,24.88385916747916,121.8459945529725
G,宜蘭縣,交通運輸,11,火車站,宜蘭縣臺鐵羅東車站,24.677916451684617,121.77469717931467
G,宜蘭縣,交通運輸,11,火車站,宜蘭縣臺鐵漢本車站,24.335446458941977,121.76835054297972
G,宜蘭縣,交通運輸,11,火車站,宜蘭縣臺鐵南澳車站,24.46335073034111,121.80102728311883
G,宜蘭縣,交通運輸,11,火車站,宜蘭縣臺鐵龜山車站,24.904864231355813,121.86883956172788
G,宜蘭縣,交通運輸,11,火車站,宜蘭縣臺鐵永樂車站,24.568234170012655,121.84444081207663
G,宜蘭縣,交通運輸,11,火車站,宜蘭縣臺鐵冬山車站,24.636710792129342,121.79212618918125
G,宜蘭縣,交通運輸,11,火車站,宜蘭縣臺鐵二結車站,24.705277746629886,121.77416499529865
G,宜蘭縣,交通運輸,11,火車站,宜蘭縣臺鐵頂埔車站,24.84390776859501,121.8090997114179
G,宜蘭縣,交通運輸,11,火車站,頭城火車站,24.858952008784616,121.82244999991221
G,宜蘭縣,交通運輸,11,火車站,頭城火車站,24.858952008784616,121.82244999991221
G,宜蘭縣,交通運輸,11,火車站,頂埔火車站,24.843976007283718,121.80911899990383
G,宜蘭縣,交通運輸,11,火車站,石城火車站,24.97833699583501,121.94510399979312
G,宜蘭縣,交通運輸,11,火車站,石城火車站,24.97833699583501,121.94510399979312
G,宜蘭縣,交通運輸,11,火車站,大里火車站,24.966750001487334,121.9224649998408
G,宜蘭縣,交通運輸,11,火車站,大里火車站,24.966750001487334,121.9224649998408
G,宜蘭縣,交通運輸,11,火車站,大溪火車站,24.9384310054657,121.88998699987772
G,宜蘭縣,交通運輸,11,火車站,龜山火車站,24.904820999840144,121.8688919998503
G,宜蘭縣,交通運輸,11,火車站,外澳火車站,24.883861002286324,121.84572399986516
G,宜蘭縣,交通運輸,11,火車站,宜蘭縣臺鐵蘇澳車站,24.59509792588075,121.85137875531586
G,宜蘭縣,交通運輸,11,火車站,宜蘭縣臺鐵東澳車站,24.51825204821275,121.83065592982895
G,宜蘭縣,交通運輸,11,火車站,宜蘭縣臺鐵新馬車站,24.61541552251134,121.82290420333347
G,宜蘭縣,交通運輸,11,火車站,宜蘭縣臺鐵蘇澳新站,24.608670729192,121.82733639901026
G,宜蘭縣,交通運輸,11,火車站,礁溪火車站,24.82699699949928,121.77533299986476
G,宜蘭縣,交通運輸,11,火車站,礁溪火車站,24.82699699949928,121.77533299986476
G,宜蘭縣,交通運輸,11,火車站,四城火車站,24.786757005918037,121.76266399990838
G,宜蘭縣,交通運輸,11,火車站,四城火車站,24.786757005918037,121.76266399990838
G,宜蘭縣,交通運輸,11,火車站,中里火車站,24.694534000402477,121.77523299986991
G,宜蘭縣,交通運輸,11,火車站,二結火車站,24.70533699858152,121.77416599986078
G,宜蘭縣,交通運輸,11,火車站,宜蘭火車站,24.75462500545468,121.75801199990961
G,宜蘭縣,交通運輸,11,火車站,宜蘭火車站,24.75462500545468,121.75801199990961
G,宜蘭縣,交通運輸,11,火車站,羅東火車站,24.677891000301972,121.77435199986898
G,宜蘭縣,交通運輸,11,火車站,武塔火車站,24.448893995358304,121.7758909998455
G,宜蘭縣,交通運輸,11,火車站,東澳火車站,24.51825400899127,121.83070899991701
G,宜蘭縣,交通運輸,11,火車站,漢本火車站,24.335368007990546,121.76835699992506
G,宜蘭縣,交通運輸,11,火車站,冬山火車站,24.636342996924064,121.79209299985106
G,宜蘭縣,交通運輸,11,火車站,蘇澳火車站,24.595081993847106,121.85124099981428
G,宜蘭縣,交通運輸,11,火車站,永春火車站(閒),24.57694301045666,121.84585099992344
G,宜蘭縣,交通運輸,11,火車站,蘇澳新火車站,24.608693003626453,121.82725599988272
G,宜蘭縣,交通運輸,11,火車站,新馬火車站,24.61536600711306,121.82286899991318
G,宜蘭縣,交通運輸,11,火車站,南澳火車站,24.46338200617289,121.80091499990844
G,宜蘭縣,交通運輸,11,火車站,永樂火車站,24.568369000990344,121.84452699986382
G,宜蘭縣,交通運輸,12,客運站,宜蘭縣宜蘭轉運站,24.751101164392452,121.75937487068616
G,宜蘭縣,交通運輸,12,客運站,宜蘭縣國光客運羅東車站,24.676316222824845,121.77473513411171
G,宜蘭縣,交通運輸,12,客運站,宜蘭縣國光客運宜蘭站,24.751720350651517,121.75610347168308
G,宜蘭縣,交通運輸,12,客運站,宜興客運總站,24.751683001080288,121.75625299988477
G,宜蘭縣,交通運輸,12,客運站,國光客運-宜蘭車站,24.751683001080288,121.75625299988477
G,宜蘭縣,交通運輸,12,客運站,國光客運-羅東車站,24.67704100532447,121.76798999990626
G,宜蘭縣,交通運輸,12,客運站,首都客運-羅東站,24.6772470097951,121.77800099993391
G,宜蘭縣,交通運輸,17,碼頭,宜蘭縣粉鳥林漁港,24.497340534466197,121.84269414811772
G,宜蘭縣,交通運輸,17,碼頭,宜蘭縣南方澳漁港,24.58215090851328,121.86622598834745
G,宜蘭縣,交通運輸,17,碼頭,宜蘭縣石城漁港,24.979777513921196,121.95125890365908
G,宜蘭縣,交通運輸,17,碼頭,宜蘭縣南澳朝陽漁港,24.461516355483134,121.820212217832
G,宜蘭縣,交通運輸,17,碼頭,宜蘭縣新溪漁港,24.940993964428973,121.90205834719832
G,宜蘭縣,交通運輸,17,碼頭,宜蘭縣大溪漁港,24.941387117507038,121.89825523451321
G,宜蘭縣,交通運輸,17,碼頭,石城漁港,24.97978800928978,121.95199499989374
G,宜蘭縣,交通運輸,17,碼頭,大里漁港,24.96272599675815,121.92167199981122
G,宜蘭縣,交通運輸,17,碼頭,梗枋漁港,24.903426001250498,121.86669699986031
G,宜蘭縣,交通運輸,17,碼頭,烏石漁港,24.869207009225484,121.84072199991368
G,宜蘭縣,交通運輸,17,碼頭,大溪漁港,24.941005996560612,121.90273599981727
G,宜蘭縣,交通運輸,17,碼頭,蘇澳商港,24.596136004929104,121.85716999988941
G,宜蘭縣,交通運輸,17,碼頭,內埤漁港,24.57863800478853,121.86865799988607
G,宜蘭縣,交通運輸,17,碼頭,蘇澳港,24.596989000172105,121.85788599985241
G,宜蘭縣,交通運輸,17,碼頭,南方澳漁港,24.58220599954246,121.8652859998548
G,宜蘭縣,交通運輸,17,碼頭,粉鳥林漁港,24.4972570036726,121.84203499988469
G,宜蘭縣,交通運輸,17,碼頭,南方澳,24.58380199684887,121.86642699983005
G,宜蘭縣,交通運輸,18,主要道路建設,宜蘭縣頭城交流道,24.82684024006502,121.78934129041168
G,宜蘭縣,交通運輸,18,主要道路建設,宜蘭縣蘇澳交流道,24.622219840535468,121.81654337673474
G,宜蘭縣,交通運輸,18,主要道路建設,宜蘭縣宜蘭交流道,24.777166121206264,121.7781627888782
G,宜蘭縣,交通運輸,18,主要道路建設,宜蘭縣宜蘭交流道,24.736727828300676,121.78193539260512
G,宜蘭縣,交通運輸,18,主要道路建設,宜蘭縣羅東交流道,24.69445414549161,121.79105334174625
G,宜蘭縣,交通運輸,18,主要道路建設,宜蘭縣宜蘭交流道,24.77719013779559,121.77861806766013
G,宜蘭縣,交通運輸,18,主要道路建設,宜蘭縣蘇澳交流道,24.623195242374706,121.81025800809775
G,宜蘭縣,交通運輸,18,主要道路建設,宜蘭縣宜蘭交流道,24.73697275686723,121.78145892889779
G,宜蘭縣,交通運輸,18,主要道路建設,宜蘭縣羅東交流道,24.678304517044232,121.79390347021004
G,宜蘭縣,交通運輸,18,主要道路建設,頭城收費站,24.834311001116006,121.79066699987608
G,宜蘭縣,交通運輸,18,主要道路建設,頭城收費站,24.834311001116006,121.79066699987608
G,宜蘭縣,交通運輸,18,主要道路建設,國5-頭城交流道-南下,24.828935001545545,121.78997999987548
G,宜蘭縣,交通運輸,18,主要道路建設,國5-頭城交流道-北上,24.831384001343718,121.7909789998778
G,宜蘭縣,交通運輸,18,主要道路建設,國3-宜蘭交流道-北上,24.776705002532243,121.77863799988559
G,宜蘭縣,公共建設,21,國小,宜蘭縣壯圍鄉公館國民小學,24.73588799567695,121.81611599583896
G,宜蘭縣,公共建設,21,國小,宜蘭縣宜蘭市宜蘭國民小學,24.75312936439836,121.7541903988019
G,宜蘭縣,公共建設,21,國小,宜蘭縣五結鄉利澤國民小學,24.66550948500524,121.82768845410811
G,宜蘭縣,公共建設,21,國小,宜蘭縣員山鄉同樂國民小學,24.763013030547313,121.72888637358032
G,宜蘭縣,公共建設,21,國小,宜蘭縣員山鄉員山國民小學附設幼稚園,24.744328152479177,121.72242161565292
G,宜蘭縣,公共建設,21,國小,宜蘭縣國民小學科學教育研究中心,24.688504468833557,121.76657622233546
G,宜蘭縣,公共建設,21,國小,宜蘭縣頭城鎮大溪國民小學,24.935520922945535,121.88646099571203
G,宜蘭縣,公共建設,21,國小,宜蘭縣羅東鎮成功國民小學附設幼稚園,24.670922935209873,121.76869382589273
G,宜蘭縣,公共建設,21,國小,宜蘭縣礁溪鄉四結國民小學,24.78652643559317,121.75936357078358
G,宜蘭縣,公共建設,21,國小,宜蘭縣蘇澳鎮蓬萊國民小學,24.464570758062983,121.80301119717961
G,宜蘭縣,公共建設,21,國小,宜蘭縣礁溪鄉三民國民小學,24.813622798729586,121.7601198696358
G,宜蘭縣,公共建設,21,國小,宜蘭縣羅東鎮公正國民小學附設幼稚園,24.679141213329448,121.76668329042724
G,宜蘭縣,公共建設,21,國小,宜蘭縣礁溪鄉玉田國民小學,24.795669996733416,121.79038209049646
G,宜蘭縣,公共建設,21,國小,宜蘭縣蘇澳鎮南安國民小學附設幼稚園,24.57903269127148,121.86849080583974
G,宜蘭縣,公共建設,21,國小,宜蘭縣蘇澳鎮育英國民小學,24.64011773014934,121.83267652821797
G,宜蘭縣,公共建設,21,國小,宜蘭縣壯圍鄉古亭國民小學附設幼稚園,24.7714908102133,121.79783629954407
G,宜蘭縣,公共建設,21,國小,宜蘭縣壯圍鄉新南國民小學,24.722600418498576,121.79997202293006
G,宜蘭縣,公共建設,21,國小,宜蘭縣壯圍鄉過嶺國民小學,24.75881445567685,121.8146956008031
G,宜蘭縣,公共建設,21,國小,宜蘭縣五結鄉孝威國民小學,24.69649269045596,121.81224452900955
G,宜蘭縣,公共建設,21,國小,宜蘭縣礁溪鄉三民國民小學附設幼稚園,24.813555045518804,121.76030239836533
G,宜蘭縣,公共建設,21,國小,宜蘭縣南澳鄉金洋國民小學,24.426356185744382,121.74950255906894
G,宜蘭縣,公共建設,21,國小,宜蘭縣羅東鎮公正國民小學,24.6791636243297,121.76659186218579
G,宜蘭縣,公共建設,21,國小,宜蘭縣員山鄉七賢國民小學,24.719830617005588,121.74323054979865
G,宜蘭縣,公共建設,21,國小,宜蘭縣宜蘭市力行國民小學附設幼稚園,24.764160139160115,121.75543676934048
G,宜蘭縣,公共建設,21,國小,宜蘭縣礁溪鄉礁溪國民小學附設幼稚園,24.822515882711976,121.76757956674811
G,宜蘭縣,公共建設,21,國小,宜蘭縣南澳鄉碧候國民小學附設幼稚園,24.474052576704967,121.78473056525704
G,宜蘭縣,公共建設,21,國小,宜蘭縣頭城鎮頭城國民小學外澳分校,24.88108461351952,121.84313211400632
G,宜蘭縣,公共建設,21,國小,宜蘭縣蘇澳鎮蓬萊國民小學附設幼稚園,24.464531759564352,121.80297496631171
G,宜蘭縣,公共建設,21,國小,宜蘭縣冬山鄉東興國民小學,24.629103381606026,121.80677478747009
G,宜蘭縣,公共建設,21,國小,宜蘭縣頭城鎮大里國民小學,24.970323518169703,121.92604648496514
G,宜蘭縣,公共建設,21,國小,宜蘭縣員山鄉內城國民小學附設幼稚園,24.720391107863666,121.68848933650581
G,宜蘭縣,公共建設,21,國小,宜蘭縣三星鄉萬富國民小學,24.679867391709394,121.68852329539389
G,宜蘭縣,公共建設,21,國小,宜蘭縣大同鄉大同國民小學樂水分校,24.600327361225737,121.52951352874852
G,宜蘭縣,公共建設,21,國小,宜蘭縣南澳鄉金洋國民小學,24.42611700111461,121.74913122994826
G,宜蘭縣,公共建設,21,國小,宜蘭縣南澳鄉碧候國民小學,24.47407156228159,121.78469727127883
G,宜蘭縣,公共建設,21,國小,宜蘭縣宜蘭市育才國民小學,24.73340911200247,121.73756928846772
G,宜蘭縣,公共建設,21,國小,宜蘭縣冬山鄉大進國民小學,24.634086731260574,121.71642690914817
G,宜蘭縣,公共建設,21,國小,宜蘭縣冬山鄉廣興國民小學,24.66460246576916,121.74327235415578
G,宜蘭縣,公共建設,21,國小,宜蘭縣五結鄉中興國民小學附設幼稚園,24.692574693037077,121.77248994008022
G,宜蘭縣,公共建設,21,國小,宜蘭縣頭城鎮頭城國民小學附設幼稚園,24.86378432017696,121.82809427818925
G,宜蘭縣,公共建設,21,國小,宜蘭縣冬山鄉柯林國民小學,24.676250056532346,121.73165966065869
G,宜蘭縣,公共建設,21,國小,宜蘭縣羅東鎮竹林國民小學,24.688551493094,121.76657886178141
G,宜蘭縣,公共建設,21,國小,宜蘭縣蘇澳鎮永樂國民小學,24.575681789921624,121.8439126718874
G,宜蘭縣,公共建設,21,國小,宜蘭縣宜蘭市中山國民小學,24.75405317233507,121.75470150298796
G,宜蘭縣,公共建設,21,國小,宜蘭縣宜蘭市南屏國民小學,24.753871844011247,121.74211213308267
G,宜蘭縣,公共建設,21,國小,宜蘭縣宜蘭市光復國民小學,24.755253457508296,121.74726164125823
G,宜蘭縣,公共建設,21,國小,宜蘭縣羅東鎮北成國民小學附設幼稚園,24.67484805638461,121.75864271567394
G,宜蘭縣,公共建設,21,國小,宜蘭縣頭城鎮頭城國民小學,24.862833687995778,121.82756965278227
G,宜蘭縣,公共建設,21,國小,宜蘭縣南澳鄉東澳國民小學,24.52158718893361,121.83292620331079
G,宜蘭縣,公共建設,21,國小,宜蘭縣私立中道國際中小學,24.759011699011303,121.79338899970408
G,宜蘭縣,公共建設,21,國小,宜蘭縣蘇澳鎮馬賽國民小學,24.621611038440804,121.83531436224487
G,宜蘭縣,公共建設,21,國小,宜蘭縣五結鄉五結國民小學附設幼稚園,24.686836392025324,121.79881972322312
G,宜蘭縣,公共建設,21,國小,宜蘭縣五結鄉五結國民小學,24.686886138189674,121.79883772790659
G,宜蘭縣,公共建設,21,國小,宜蘭縣員山鄉深溝國民小學,24.723566023392113,121.72407227681987
G,宜蘭縣,公共建設,21,國小,宜蘭縣羅東鎮北成國民小學,24.67489821057325,121.75865523135101
G,宜蘭縣,公共建設,21,國小,宜蘭縣員山鄉內城國民小學化育分校,24.71157893878865,121.65241450747082
G,宜蘭縣,公共建設,21,國小,宜蘭縣南澳鄉南澳國民小學附設幼稚園,24.467300607775478,121.80054530412767
G,宜蘭縣,公共建設,21,國小,宜蘭縣大同鄉大同國民小學樂水分校,24.598151797821274,121.52617215872291
G,宜蘭縣,公共建設,21,國小,宜蘭縣礁溪鄉龍潭國民小學,24.77968360586102,121.7441253691004
G,宜蘭縣,公共建設,21,國小,宜蘭縣蘇澳鎮蘇澳國民小學,24.596827726655555,121.84119113224094
G,宜蘭縣,公共建設,21,國小,宜蘭縣宜蘭市南屏國民小學附設幼稚園,24.754578871744847,121.74164379368149
G,宜蘭縣,公共建設,21,國小,宜蘭縣冬山鄉順安國民小學中山分校,24.627033190723363,121.74332724571265
G,宜蘭縣,公共建設,21,國小,宜蘭縣蘇澳鎮南安國民小學,24.57907428045871,121.86852997152685
G,宜蘭縣,公共建設,21,國小,宜蘭縣員山鄉員山國民小學,24.74382371183825,121.72239987749117
G,宜蘭縣,公共建設,21,國小,宜蘭縣礁溪鄉四結國民小學附設幼稚園,24.78671257550043,121.75936691897087
G,宜蘭縣,公共建設,21,國小,宜蘭縣南澳鄉金岳國民小學,24.470981285890257,121.77737178228976
G,宜蘭縣,公共建設,21,國小,宜蘭縣羅東鎮羅東國民小學,24.67265500104018,121.77198521583789
G,宜蘭縣,公共建設,21,國小,宜蘭縣冬山鄉武淵國民小學,24.661575088361552,121.79878586384986
G,宜蘭縣,公共建設,21,國小,宜蘭縣南澳鄉武塔國民小學,24.445609544797897,121.77854128428339
G,宜蘭縣,公共建設,21,國小,宜蘭縣蘇澳鎮蘇澳國民小學附設幼稚園,24.596797644900995,121.84136403566089
G,宜蘭縣,公共建設,21,國小,宜蘭縣大同鄉寒溪國民小學,24.60916919065388,121.68714950098074
G,宜蘭縣,公共建設,21,國小,宜蘭縣礁溪鄉礁溪國民小學,24.8216868635784,121.76845139944511
G,宜蘭縣,公共建設,21,國小,宜蘭縣立人文國民中小學,24.86053030708731,121.81995199890481
G,宜蘭縣,公共建設,21,國小,宜蘭縣南澳鄉南澳國民小學,24.467303706367115,121.80062456229703
G,宜蘭縣,公共建設,21,國小,宜蘭縣大同鄉寒溪國民小學附設幼稚園,24.60916282075397,121.68721889022497
G,宜蘭縣,公共建設,21,國小,宜蘭縣蘇澳鎮岳明國民小學,24.61405710076077,121.85331359980198
G,宜蘭縣,公共建設,21,國小,宜蘭縣南澳鄉澳花國民小學,24.329384768495494,121.73957389870203
G,宜蘭縣,公共建設,21,國小,宜蘭縣大同鄉四季國民小學附設幼稚園,24.48833188348425,121.4266256004453
G,宜蘭縣,公共建設,21,國小,宜蘭縣南澳鄉金岳國民小學,24.470807140385734,121.7779515903824
G,宜蘭縣,公共建設,21,國小,宜蘭縣蘇澳鎮士敏國民小學,24.592279840081638,121.85380194392896
G,宜蘭縣,公共建設,21,國小,宜蘭縣五結鄉中興國民小學,24.69257764390383,121.77242651686294
G,宜蘭縣,公共建設,21,國小,宜蘭縣壯圍鄉大福國民小學,24.801749787231035,121.81418179743383
G,宜蘭縣,公共建設,21,國小,宜蘭縣宜蘭市力行國民小學,24.764181223671795,121.75543891393573
G,宜蘭縣,公共建設,21,國小,宜蘭縣羅東鎮成功國民小學,24.670880563068934,121.76878320866425
G,宜蘭縣,公共建設,21,國小,宜蘭縣頭城鎮竹安國民小學附設幼稚園,24.825226949692567,121.82030993146722
G,宜蘭縣,公共建設,21,國小,宜蘭縣頭城鎮梗枋國民小學,24.90075896993454,121.86217353767289
G,宜蘭縣,公共建設,21,國小,宜蘭縣頭城鎮大溪國民小學附設幼稚園,24.93547874084994,121.88655600039611
G,宜蘭縣,公共建設,21,國小,宜蘭縣員山鄉湖山國民小學,24.778992228449322,121.6995474542215
G,宜蘭縣,公共建設,21,國小,宜蘭縣三星鄉憲明國民小學,24.660762716022646,121.61855001000306
G,宜蘭縣,公共建設,21,國小,宜蘭縣員山鄉內城國民小學,24.720430967435966,121.6885078316156
G,宜蘭縣,公共建設,21,國小,宜蘭縣大同鄉南山國民小學附設幼稚園,24.43726824303227,121.38068945943238
G,宜蘭縣,公共建設,21,國小,縣立頭城國中,24.86501499785146,121.82148499984548
G,宜蘭縣,公共建設,21,國小,縣立竹安國小,24.825163006274618,121.82062999989665
G,宜蘭縣,公共建設,21,國小,縣立頭城國小,24.862723007732274,121.82741199990706
G,宜蘭縣,公共建設,21,國小,縣立二城國小,24.843564007539204,121.80580199990588
G,宜蘭縣,公共建設,21,國小,縣立人文國小,24.860519003290086,121.81988199987954
G,宜蘭縣,公共建設,21,國小,縣立大里國小,24.970415005358365,121.92644099986786
G,宜蘭縣,公共建設,21,國小,縣立梗枋國小,24.90083499761809,121.86234499983452
G,宜蘭縣,公共建設,21,國小,縣立大溪國小,24.935447003948873,121.88703099987073
G,宜蘭縣,公共建設,21,國小,縣立頭城國小外澳分校,24.880993008802925,121.84309699991118
G,宜蘭縣,公共建設,21,國小,宜蘭縣宜蘭市宜蘭國民小學附設幼稚園,24.75263741839316,121.75487080199132
G,宜蘭縣,公共建設,21,國小,宜蘭縣冬山鄉冬山國民小學,24.632292785565927,121.78994205254999
G,宜蘭縣,公共建設,21,國小,宜蘭縣大同鄉四季國民小學,24.488408882136344,121.42667268529033
G,宜蘭縣,公共建設,21,國小,宜蘭縣大同鄉南山國民小學,24.43730820882403,121.38061355103157
G,宜蘭縣,公共建設,21,國小,宜蘭縣頭城鎮竹安國民小學,24.825148214678418,121.82029286309144
G,宜蘭縣,公共建設,21,國小,宜蘭縣宜蘭市凱旋國民小學,24.72444658197347,121.76324410468037
G,宜蘭縣,公共建設,21,國小,宜蘭縣冬山鄉冬山國民小學附設幼稚園,24.63088438727105,121.79086414060964
G,宜蘭縣,公共建設,21,國小,宜蘭縣南澳鄉東澳國民小學附設幼稚園,24.521641045662935,121.83286231574432
G,宜蘭縣,公共建設,21,國小,宜蘭縣大同鄉四季國民小學茂安分校,24.532735099502144,121.4506964422074
G,宜蘭縣,公共建設,21,國小,宜蘭縣五結鄉學進國民小學附設幼稚園,24.70660979378018,121.76958508194986
G,宜蘭縣,公共建設,21,國小,宜蘭縣宜蘭市黎明國民小學附設幼稚園,24.75125241866782,121.76406315353381
G,宜蘭縣,公共建設,21,國小,宜蘭縣壯圍鄉古亭國民小學,24.77150928537893,121.79819684655729
G,宜蘭縣,公共建設,21,國小,宜蘭縣三星鄉大洲國民小學,24.693075157948098,121.72778559474635
G,宜蘭縣,公共建設,21,國小,宜蘭縣宜蘭市黎明國民小學,24.751635017980888,121.7642700252337
G,宜蘭縣,公共建設,21,國小,宜蘭縣冬山鄉順安國民小學,24.65434964839188,121.76344400051427
G,宜蘭縣,公共建設,21,國小,宜蘭縣蘇澳鎮士敏國民小學附設幼稚園,24.59220036618916,121.8538036955991
G,宜蘭縣,公共建設,21,國小,宜蘭縣三星鄉大隱國民小學,24.667707551925545,121.71300597462708
G,宜蘭縣,公共建設,21,國小,宜蘭縣三星鄉大洲國民小學附設幼稚園,24.693249415999656,121.72807891526554
G,宜蘭縣,公共建設,21,國小,宜蘭縣壯圍鄉壯圍國民小學,24.74358149601475,121.79014900075389
G,宜蘭縣,公共建設,21,國小,宜蘭縣三星鄉三星國民小學附設幼稚園,24.66642745179524,121.64974410568364
G,宜蘭縣,公共建設,21,國小,宜蘭縣礁溪鄉龍潭國民小學匏崙分校,24.792351948322963,121.72936940021239
G,宜蘭縣,公共建設,21,國小,宜蘭縣員山鄉深溝國民小學附設幼稚園,24.724006319985012,121.7232889464261
G,宜蘭縣,公共建設,21,國小,宜蘭縣南澳鄉澳花國民小學附設幼稚園,24.329189605557712,121.73909390540605
G,宜蘭縣,公共建設,21,國小,宜蘭縣宜蘭市凱旋國民小學附設幼稚園,24.724365587390658,121.76339431747012
G,宜蘭縣,公共建設,21,國小,宜蘭縣大同鄉四季國民小學英士分校,24.61292466464871,121.52572508345665
G,宜蘭縣,公共建設,21,國小,宜蘭縣三星鄉三星國民小學,24.66627963842962,121.65078905254104
G,宜蘭縣,公共建設,21,國小,宜蘭縣五結鄉學進國民小學,24.706978315918654,121.77051719693678
G,宜蘭縣,公共建設,21,國小,宜蘭縣宜蘭市中山國民小學附設幼稚園,24.753980597850436,121.7546882019967
G,宜蘭縣,公共建設,21,國小,宜蘭縣大同鄉大同國民小學附設幼稚園,24.67830684940617,121.6095339803249
G,宜蘭縣,公共建設,21,國小,宜蘭縣員山鄉大湖國民小學,24.748032647828346,121.6910710464979
G,宜蘭縣,公共建設,21,國小,宜蘭縣大同鄉大同國民小學,24.678359290375173,121.60950443434277
G,宜蘭縣,公共建設,21,國小,宜蘭縣大同鄉大同國民小學松羅分校,24.656118496446457,121.5786817808237
G,宜蘭縣,公共建設,21,國小,宜蘭縣頭城鎮二城國民小學,24.84363440764076,121.80526847854921
G,宜蘭縣,公共建設,21,國小,宜蘭縣羅東鎮羅東國民小學附設幼稚園,24.672606191510578,121.772013054386
G,宜蘭縣,公共建設,21,國小,宜蘭縣宜蘭市新生國民小學,24.770721478519732,121.75464063949617
G,宜蘭縣,公共建設,21,國小,縣立吳沙國中,24.785295011165825,121.7591819999382
G,宜蘭縣,公共建設,21,國小,縣立三民國小,24.81345799612882,121.76007599984575
G,宜蘭縣,公共建設,21,國小,縣立四結國小,24.786736004447274,121.75970499990171
G,宜蘭縣,公共建設,21,國小,縣立礁溪國中,24.81779700991731,121.76821799992764
G,宜蘭縣,公共建設,21,國小,縣立龍潭國小,24.777578007936633,121.74291799992466
G,宜蘭縣,公共建設,21,國小,縣立玉田國小,24.795750999173887,121.79026199985634
G,宜蘭縣,公共建設,21,國小,縣立龍潭國小匏崙分校,24.792395003151768,121.72924999989364
G,宜蘭縣,公共建設,21,國小,縣立礁溪國小,24.8217200079261,121.76856399991833
G,宜蘭縣,公共建設,21,國小,縣立壯圍國中,24.74984200273078,121.78809699988487
G,宜蘭縣,公共建設,21,國小,私立中道中小學,24.758948006822976,121.79336899991058
G,宜蘭縣,公共建設,21,國小,縣立大福國小,24.801526002810974,121.81453999988068
G,宜蘭縣,公共建設,21,國小,縣立壯圍國小,24.743591004660708,121.79007999989695
G,宜蘭縣,公共建設,21,國小,縣立過嶺國小,24.75953600884316,121.8161339999149
G,宜蘭縣,公共建設,21,國小,縣立新南國小,24.7224270005333,121.79992799986637
G,宜蘭縣,公共建設,21,國小,縣立公館國小,24.736152001085728,121.81637599986772
G,宜蘭縣,公共建設,21,國小,縣立古亭國小,24.77163900770447,121.79826599991458
G,宜蘭縣,公共建設,21,國小,縣立力行國小,24.76400700664401,121.75542399991409
G,宜蘭縣,公共建設,21,國小,縣立育才國小,24.733219997933592,121.7375339998623
G,宜蘭縣,公共建設,21,國小,縣立中華國中,24.750510010680028,121.76687099993993
G,宜蘭縣,公共建設,21,國小,縣立復興國中,24.748892003677874,121.74763599989336
G,宜蘭縣,公共建設,21,國小,縣立宜蘭國中,24.76202400678958,121.75819799991316
G,宜蘭縣,公共建設,21,國小,縣立宜蘭國中,24.76202400678958,121.75819799991316
G,宜蘭縣,公共建設,21,國小,縣立南屏國小,24.753961996776585,121.74263599985629
G,宜蘭縣,公共建設,21,國小,縣立新生國小,24.770685007531398,121.75451699992307
G,宜蘭縣,公共建設,21,國小,縣立黎明國小,24.751678999184808,121.764338999863
G,宜蘭縣,公共建設,21,國小,縣立光復國小,24.755318007946965,121.74688299991875
G,宜蘭縣,公共建設,21,國小,縣立宜蘭國小,24.753226998616906,121.75467599986204
G,宜蘭縣,公共建設,21,國小,縣立中山國小,24.753978998631936,121.75462299986194
G,宜蘭縣,公共建設,21,國小,縣立凱旋國小,24.72562499734851,121.7636449998518
G,宜蘭縣,公共建設,21,國小,縣立凱旋國中,24.725904011458553,121.75623199993817
G,宜蘭縣,公共建設,21,國小,縣立員山國小,24.74367699443682,121.72219299984853
G,宜蘭縣,公共建設,21,國小,縣立化育國小,24.71149500029961,121.65245799989775
G,宜蘭縣,公共建設,21,國小,縣立自強國小,24.691269002492298,121.63198599990899
G,宜蘭縣,公共建設,21,國小,縣立榮源國中,24.71871500531757,121.68754499991782
G,宜蘭縣,公共建設,21,國小,縣立員山國中,24.750374003200843,121.7146699999038
G,宜蘭縣,公共建設,21,國小,縣立內城國小,24.72025900317419,121.68831699990002
G,宜蘭縣,公共建設,21,國小,縣立湖山國小,24.779044997334392,121.69939799987328
G,宜蘭縣,公共建設,21,國小,縣立同樂國小,24.76281600760304,121.72897199991984
G,宜蘭縣,公共建設,21,國小,縣立七賢國小,24.719645000611287,121.75555099987278
G,宜蘭縣,公共建設,21,國小,縣立大湖國小,24.747503995370078,121.69095699986083
G,宜蘭縣,公共建設,21,國小,私立慧燈高中附設國中部,24.77655099951724,121.715543999877
G,宜蘭縣,公共建設,21,國小,縣立深溝國小,24.72371800754495,121.72360999992114
G,宜蘭縣,公共建設,21,國小,縣立東光國中,24.67173900603492,121.76749199990462
G,宜蘭縣,公共建設,21,國小,縣立國華國中,24.677638007884607,121.76119699991993
G,宜蘭縣,公共建設,21,國小,縣立羅東國中,24.682396005033965,121.76809299990381
G,宜蘭縣,公共建設,21,國小,縣立公正國小,24.678528004481286,121.76680599990438
G,宜蘭縣,公共建設,21,國小,縣立成功國小,24.671126995980384,121.76966799984247
G,宜蘭縣,公共建設,21,國小,縣立羅東國小,24.673125008593328,121.77246199992753
G,宜蘭縣,公共建設,21,國小,縣立竹林國小,24.68875800181795,121.76627299988691
G,宜蘭縣,公共建設,21,國小,縣立北成國小,24.688649002509734,121.75274699988901
G,宜蘭縣,公共建設,21,國小,縣立憲明國小,24.660898009419807,121.61861399994658
G,宜蘭縣,公共建設,21,國小,縣立萬富國小,24.679554999906042,121.68823799988938
G,宜蘭縣,公共建設,21,國小,縣立大洲國小,24.692730001463485,121.72789799989036
G,宜蘭縣,公共建設,21,國小,縣立大隱國小,24.667250997986795,121.71311699987237
G,宜蘭縣,公共建設,21,國小,縣立三星國中,24.668066006886757,121.6531009999291
G,宜蘭縣,公共建設,21,國小,縣立三星國小,24.66699300375739,121.65053599990937
G,宜蘭縣,公共建設,21,國小,縣立清水國小,24.64329000991888,121.59699199995062
G,宜蘭縣,公共建設,21,國小,縣立利澤國中,24.66503099823702,121.82898399985253
G,宜蘭縣,公共建設,21,國小,縣立利澤國小,24.66513000006806,121.82739399986538
G,宜蘭縣,公共建設,21,國小,縣立興中國中,24.699466008902313,121.77118199992326
G,宜蘭縣,公共建設,21,國小,縣立五結國中,24.69669301001809,121.80065299992765
G,宜蘭縣,公共建設,21,國小,縣立中興國小,24.692728001858818,121.77194299987782
G,宜蘭縣,公共建設,21,國小,縣立五結國小,24.687188994444714,121.79921399983479
G,宜蘭縣,公共建設,21,國小,縣立學進國小,24.70692999628238,121.77048199984942
G,宜蘭縣,公共建設,21,國小,縣立孝威國小,24.696722997982974,121.81182999984735
G,宜蘭縣,公共建設,21,國小,國立宜蘭特殊教育學校,24.693802005021247,121.79413999989383
G,宜蘭縣,公共建設,21,國小,縣立文化國中,24.61860300616762,121.83326899989665
G,宜蘭縣,公共建設,21,國小,縣立蘇澳國中,24.595745997345,121.83596199984216
G,宜蘭縣,公共建設,21,國小,縣立南安國中,24.578503003151962,121.86783499987027
G,宜蘭縣,公共建設,21,國小,縣立永樂國小,24.57592700067911,121.84444899986752
G,宜蘭縣,公共建設,21,國小,縣立馬賽國小,24.621752003116516,121.83513699987752
G,宜蘭縣,公共建設,21,國小,縣立士敏國小,24.592214994785326,121.85387899982298
G,宜蘭縣,公共建設,21,國小,縣立蓬萊國小,24.464832994640805,121.8030869998339
G,宜蘭縣,公共建設,21,國小,縣立南安國小,24.579489010893887,121.86903599993293
G,宜蘭縣,公共建設,21,國小,縣立岳明國小,24.61443100222889,121.85273599986785
G,宜蘭縣,公共建設,21,國小,縣立蘇澳國小,24.596529005856834,121.84121999989951
G,宜蘭縣,公共建設,21,國小,縣立育英國小,24.63991200419343,121.83277899988316
G,宜蘭縣,公共建設,21,國小,縣立澳花國小,24.32909800799211,121.7391769999251
G,宜蘭縣,公共建設,21,國小,縣立南澳國小,24.466923008576455,121.80052599992565
G,宜蘭縣,公共建設,21,國小,縣立武塔國小,24.44591500548611,121.77789699990898
G,宜蘭縣,公共建設,21,國小,縣立金岳國小,24.471199006843268,121.77701599991533
G,宜蘭縣,公共建設,21,國小,縣立東澳國小,24.52137000580118,121.83300199990317
G,宜蘭縣,公共建設,21,國小,縣立金洋國小,24.426016004449863,121.74927599990413
G,宜蘭縣,公共建設,21,國小,縣立太平國小,24.491836009538115,121.53683099995082
G,宜蘭縣,公共建設,21,國小,縣立公正國小,24.679328736620278,121.76666158805226
G,宜蘭縣,公共建設,21,國小,縣立順安國中,24.654262007238586,121.76578699991333
G,宜蘭縣,公共建設,21,國小,縣立冬山國中,24.631640999910886,121.79283099986546
G,宜蘭縣,公共建設,21,國小,慈心華德福教育實驗國中小學,24.62630399850141,121.7949299998587
G,宜蘭縣,公共建設,21,國小,縣立武淵國小,24.661585006291904,121.7984729999037
G,宜蘭縣,公共建設,21,國小,縣立柯林國小,24.676551003501146,121.73160799990016
G,宜蘭縣,公共建設,21,國小,縣立廣興國小,24.66512100483782,121.74283399990274
G,宜蘭縣,公共建設,21,國小,縣立順安國小,24.65481800262292,121.76291599989294
G,宜蘭縣,公共建設,21,國小,縣立冬山國小,24.63380200167864,121.79389099987955
G,宜蘭縣,公共建設,21,國小,縣立東興國小,24.62904000762721,121.8066709999191
G,宜蘭縣,公共建設,21,國小,縣立大進國小,24.63401299728849,121.7160009998714
G,宜蘭縣,公共建設,21,國小,縣立順安國小中山分校,24.626568000784008,121.743158999881
G,宜蘭縣,公共建設,21,國小,縣立大同國中,24.574375994736883,121.4778359999014
G,宜蘭縣,公共建設,21,國小,縣立大同國小樂水分校,24.600475999890183,121.52958099991608
G,宜蘭縣,公共建設,21,國小,縣立寒溪國小,24.60958899728774,121.68739099987171
G,宜蘭縣,公共建設,21,國小,縣立四季國小,24.48821500042205,121.42640299993354
G,宜蘭縣,公共建設,21,國小,縣立四季國小英士分班,24.61367000436822,121.52632799993708
G,宜蘭縣,公共建設,21,國小,縣立南山國小,24.438407001433603,121.38089799994356
G,宜蘭縣,公共建設,21,國小,縣立崙埤國小,24.68279600063223,121.60655799990282
G,宜蘭縣,公共建設,21,國小,縣立玉蘭國小,24.6650720057691,121.59122699993083
G,宜蘭縣,公共建設,21,國小,縣立松羅國小,24.656001009786216,121.57872699994937
G,宜蘭縣,公共建設,22,國中,宜蘭縣立榮源國民中學,24.718019059503128,121.68858840069643
G,宜蘭縣,公共建設,22,國中,宜蘭縣立復興國民中學,24.748869250962144,121.74695310206239
G,宜蘭縣,公共建設,22,國中,宜蘭縣立大同國民中學,24.574082770132566,121.47823009750122
G,宜蘭縣,公共建設,22,國中,宜蘭縣立五結國民中學,24.696543782827398,121.80076105041013
G,宜蘭縣,公共建設,22,國中,宜蘭縣立頭城國民中學,24.86485241984471,121.82117614910965
G,宜蘭縣,公共建設,22,國中,宜蘭縣立南澳高級中學,24.465445622460418,121.80137901805544
G,宜蘭縣,公共建設,22,國中,宜蘭縣私立慧燈高級中學,24.77723903295693,121.71557805006
G,宜蘭縣,公共建設,22,國中,宜蘭縣立中華國民中學,24.750336556239485,121.76750187126964
G,宜蘭縣,公共建設,22,國中,宜蘭縣國立宜蘭高級中學,24.751148789210323,121.74267739640635
G,宜蘭縣,公共建設,22,國中,宜蘭縣立東光國民中學,24.671840753562385,121.76680429809218
G,宜蘭縣,公共建設,22,國中,宜蘭縣立凱旋國民中學,24.725986731459358,121.75714164981073
G,宜蘭縣,公共建設,22,國中,宜蘭縣國立蘭陽女子高級中學,24.745165672912957,121.75349091112685
G,宜蘭縣,公共建設,22,國中,宜蘭縣立冬山國民中學,24.63198040284419,121.79204352247949
G,宜蘭縣,公共建設,22,國中,宜蘭縣立員山國民中學,24.750344626476203,121.71446815383452
G,宜蘭縣,公共建設,22,國中,宜蘭縣立羅東國民中學,24.682821170712923,121.7681163098869
G,宜蘭縣,公共建設,22,國中,宜蘭縣立文化國民中學,24.618352143712954,121.8331597818355
G,宜蘭縣,公共建設,22,國中,宜蘭縣國立羅東高級中學,24.680967145173167,121.76221296802129
G,宜蘭縣,公共建設,22,國中,宜蘭縣立利澤國民中學,24.665761840595447,121.82917393189076
G,宜蘭縣,公共建設,22,國中,宜蘭縣立順安國民中學,24.6541579033281,121.76561207583586
G,宜蘭縣,公共建設,22,國中,宜蘭縣立壯圍國民中學,24.749087408904188,121.78826915303107
G,宜蘭縣,公共建設,22,國中,宜蘭縣立國華國民中學,24.677646352623665,121.76162062907957
G,宜蘭縣,公共建設,22,國中,宜蘭縣立大同國民中學,24.575437917919263,121.47867810447846
G,宜蘭縣,公共建設,22,國中,宜蘭縣立興中國民中學,24.6992786192676,121.77088830517846
G,宜蘭縣,公共建設,22,國中,宜蘭縣立蘇澳國民中學,24.59625534863409,121.8350931748248
G,宜蘭縣,公共建設,22,國中,宜蘭縣立吳沙國民中學,24.78570833396643,121.75889493504876
G,宜蘭縣,公共建設,22,國中,宜蘭縣立三星國民中學,24.66781115254311,121.65432150999594
G,宜蘭縣,公共建設,22,國中,宜蘭縣立南澳國民中學,24.46574426179775,121.8012509103743
G,宜蘭縣,公共建設,22,國中,宜蘭縣立礁溪國民中學,24.817113749299644,121.76772305430745
G,宜蘭縣,公共建設,23,高中,宜蘭縣國立宜蘭大學附設高級農工職業進修學校,24.746308660258094,121.74757713435474
G,宜蘭縣,公共建設,23,高中,宜蘭縣國立羅東高級工業職業學校,24.6702566970209,121.75101676527689
G,宜蘭縣,公共建設,23,高中,宜蘭縣國立頭城高級家事商業職業學校,24.85125331331142,121.81712118157535
G,宜蘭縣,公共建設,23,高中,宜蘭縣國立蘇澳高級海事水產職業學校進修部,24.59402910227762,121.84502336605708
G,宜蘭縣,公共建設,23,高中,國立頭城家商,24.85128099740421,121.81704099984127
G,宜蘭縣,公共建設,23,高中,宜蘭縣國立蘇澳高級海事水產職業學校,24.594115013933987,121.84504443133586
G,宜蘭縣,公共建設,23,高中,宜蘭縣國立宜蘭高級商業職業學校進修部,24.75483505913404,121.76552817411816
G,宜蘭縣,公共建設,23,高中,宜蘭縣國立羅東高級商業職業學校,24.67357560242729,121.7570255956326
G,宜蘭縣,公共建設,23,高中,宜蘭縣國立羅東高級工業職業學校進修部,24.67020835422923,121.75103659171751
G,宜蘭縣,公共建設,23,高中,私立中道高中,24.758948006822976,121.79336899991058
G,宜蘭縣,公共建設,23,高中,私立中道高中附設國中部,24.758948006822976,121.79336899991058
G,宜蘭縣,公共建設,23,高中,國立宜蘭高中,24.75170099559151,121.74297199984976
G,宜蘭縣,公共建設,23,高中,國立蘭陽女中,24.745054005860464,121.75353699990514
G,宜蘭縣,公共建設,23,高中,國立宜蘭高商,24.754892006252966,121.76549099990892
G,宜蘭縣,公共建設,23,高中,國立宜蘭高商,24.754892006252966,121.76549099990892
G,宜蘭縣,公共建設,23,高中,私立慧燈高中,24.77655099951724,121.715543999877
G,宜蘭縣,公共建設,23,高中,國立羅東高中,24.680696004873305,121.76206399989863
G,宜蘭縣,公共建設,23,高中,國立羅東高商,24.674259001901166,121.75706599988823
G,宜蘭縣,公共建設,23,高中,國立羅東高工,24.672188007224133,121.75588799992254
G,宜蘭縣,公共建設,23,高中,國立蘇澳海事,24.59344300452643,121.84428999988684
G,宜蘭縣,公共建設,23,高中,縣立南澳高中,24.46574300096882,121.80181999987151
G,宜蘭縣,公共建設,23,高中,國立羅東高工,24.669323997464886,121.75081199986047
G,宜蘭縣,公共建設,24,專科,宜蘭縣天主教聖母醫護管理專科學校,24.664929475774038,121.70296925926209
G,宜蘭縣,公共建設,24,專科,宜蘭縣耕莘健康管理專科學校,24.697726214153096,121.68523353619416
G,宜蘭縣,公共建設,25,大學及研究所,宜蘭縣淡江大學蘭陽校區(1),24.82356791429423,121.73186768208332
G,宜蘭縣,公共建設,25,大學及研究所,宜蘭縣淡江大學蘭陽校區(3),24.82427802527541,121.72807268638329
G,宜蘭縣,公共建設,25,大學及研究所,宜蘭縣淡江大學蘭陽校區(5),24.82335698987925,121.72935809334442
G,宜蘭縣,公共建設,25,大學及研究所,宜蘭縣佛光大學,24.81577876967165,121.72368815969233
G,宜蘭縣,公共建設,25,大學及研究所,宜蘭縣宜蘭社區大學,24.74881638108986,121.74694605348273
G,宜蘭縣,公共建設,25,大學及研究所,宜蘭縣淡江大學蘭陽校園,24.8212016855743,121.72905528816946
G,宜蘭縣,公共建設,25,大學及研究所,宜蘭縣空大宜蘭學習指導中心附設空中專科進修學校,24.74613317110373,121.74759001425952
G,宜蘭縣,公共建設,25,大學及研究所,宜蘭縣淡江大學蘭陽校區(2),24.82460970152765,121.73190322392968
G,宜蘭縣,公共建設,25,大學及研究所,宜蘭縣國立宜蘭大學,24.746214769620885,121.74758810987795
G,宜蘭縣,公共建設,25,大學及研究所,蘭陽技術學院,24.864492004121107,121.81802699988356
G,宜蘭縣,公共建設,25,大學及研究所,蘭陽技術學院,24.864492004121107,121.81802699988356
G,宜蘭縣,公共建設,25,大學及研究所,宜蘭縣淡江大學蘭陽校區(4),24.823952316585725,121.72879357346429
G,宜蘭縣,公共建設,25,大學及研究所,佛光大學,24.817839011006203,121.73246499994386
G,宜蘭縣,公共建設,25,大學及研究所,淡江大學蘭陽校區,24.82092199864005,121.7296139998649
G,宜蘭縣,公共建設,25,大學及研究所,私立佛光人文社會學院城區部,24.75188000610694,121.75301399990919
G,宜蘭縣,公共建設,25,大學及研究所,國立宜蘭大學,24.745296003861128,121.74808099989416
G,宜蘭縣,公共建設,25,大學及研究所,國立空中大學(宜蘭學習指導中心),24.745296003861128,121.74808099989416
G,宜蘭縣,公共建設,25,大學及研究所,聖母醫護管理專科學校,24.664950999183812,121.70304699988395
G,宜蘭縣,公共建設,26,幼稚園、托兒所,宜蘭縣三星鄉立托兒所尚武分所,24.697115568082125,121.71607019187846
G,宜蘭縣,公共建設,26,幼稚園、托兒所,宜蘭縣頭城鎮立托兒所福成分所,24.861787084917896,121.80508584282377
G,宜蘭縣,公共建設,26,幼稚園、托兒所,宜蘭縣頭城鎮立托兒所二城分所,24.83822799163944,121.79336560118968
G,宜蘭縣,公共建設,26,幼稚園、托兒所,宜蘭縣羅東鎮立托兒所東安分所,24.67427397196141,121.77608234519798
G,宜蘭縣,公共建設,26,幼稚園、托兒所,宜蘭縣員山鄉立托兒所,24.718132723494648,121.71957887637896
G,宜蘭縣,公共建設,26,幼稚園、托兒所,宜蘭縣宜蘭市立托兒所新生班,24.76461171742379,121.76419068664981
G,宜蘭縣,公共建設,26,幼稚園、托兒所,宜蘭縣南澳鄉立托兒所碧候班,24.47434298067119,121.78709868146599
G,宜蘭縣,公共建設,26,幼稚園、托兒所,宜蘭縣員山鄉立托兒所湖東分所,24.74570261481561,121.70731769459397
G,宜蘭縣,公共建設,26,幼稚園、托兒所,宜蘭縣大同鄉立托兒所英士班,24.612749768682765,121.52513150368982
G,宜蘭縣,公共建設,26,幼稚園、托兒所,宜蘭縣宜蘭市立托兒所,24.752208092342116,121.75353908638387
G,宜蘭縣,公共建設,26,幼稚園、托兒所,宜蘭縣礁溪鄉立托兒所三城班,24.813799239865332,121.75898821635886
G,宜蘭縣,公共建設,26,幼稚園、托兒所,宜蘭縣羅東鎮立托兒所北成分所,24.679096878111253,121.75268177354721
G,宜蘭縣,公共建設,26,幼稚園、托兒所,宜蘭縣員山鄉立托兒所大湖分所,24.744985652706198,121.69767161387384
G,宜蘭縣,公共建設,26,幼稚園、托兒所,宜蘭縣頭城鎮立托兒所下埔分所,24.837576532090818,121.80671134199238
G,宜蘭縣,公共建設,26,幼稚園、托兒所,宜蘭縣三星鄉立托兒所拱照分所,24.66665601691319,121.67474206267327
G,宜蘭縣,公共建設,26,幼稚園、托兒所,宜蘭縣宜蘭市立托兒所建業班,24.72887004638504,121.75672271002978
G,宜蘭縣,公共建設,26,幼稚園、托兒所,宜蘭縣大同鄉松羅村松羅托兒所,24.655839230112207,121.57886532326454
G,宜蘭縣,公共建設,26,幼稚園、托兒所,宜蘭縣宜蘭市立托兒所東園班,24.7607436018987,121.75685590593739
G,宜蘭縣,公共建設,26,幼稚園、托兒所,宜蘭縣宜蘭市立托兒所振興班,24.744470874431336,121.77419704086086
G,宜蘭縣,公共建設,26,幼稚園、托兒所,宜蘭縣南澳鄉立托兒所武塔班,24.443686201443057,121.7776556379781
G,宜蘭縣,公共建設,26,幼稚園、托兒所,宜蘭縣南澳鄉立托兒所金岳班,24.47052234948196,121.77648313905193
G,宜蘭縣,公共建設,26,幼稚園、托兒所,宜蘭縣頭城鎮中崙社區托兒所,24.834777515765005,121.80274243185048
G,宜蘭縣,公共建設,26,幼稚園、托兒所,宜蘭縣南澳鄉立托兒所東岳班,24.519145345340117,121.83132920589753
G,宜蘭縣,公共建設,26,幼稚園、托兒所,宜蘭縣大同鄉立托兒所樂水班,24.598972093731476,121.53007508319422
G,宜蘭縣,公共建設,26,幼稚園、托兒所,宜蘭縣冬山鄉立托兒所,24.624421393777478,121.75247202505639
G,宜蘭縣,公共建設,26,幼稚園、托兒所,宜蘭縣南澳鄉立托兒所金洋班,24.42644105177113,121.74905335805396
G,宜蘭縣,公共建設,26,幼稚園、托兒所,宜蘭縣頭城鎮立托兒所大坑分所,24.856481294711152,121.83126186519031
G,宜蘭縣,公共建設,26,幼稚園、托兒所,宜蘭縣冬山鄉立托兒所南興分所,24.633551571492294,121.79388173851186
G,宜蘭縣,公共建設,26,幼稚園、托兒所,宜蘭縣礁溪鄉立托兒所玉田班,24.79789507207176,121.78533877790858
G,宜蘭縣,公共建設,26,幼稚園、托兒所,宜蘭縣宜蘭市立托兒所金六結班,24.75282617324328,121.73513400494866
G,宜蘭縣,公共建設,26,幼稚園、托兒所,宜蘭縣宜蘭頭城鎮立托兒所東北分所,24.859180588735537,121.82499191405624
G,宜蘭縣,公共建設,26,幼稚園、托兒所,宜蘭縣員山鄉立托兒所內員山分所,24.750756693514344,121.7135808216653
G,宜蘭縣,公共建設,26,幼稚園、托兒所,宜蘭縣南澳鄉立托兒所南澳班,24.465211157534302,121.79967221161091
G,宜蘭縣,公共建設,26,幼稚園、托兒所,宜蘭縣羅東鎮立托兒所,24.701931633988853,121.75583219961669
G,宜蘭縣,公共建設,26,幼稚園、托兒所,宜蘭縣礁溪鄉立托兒所龍潭班,24.778861060445966,121.74216467643149
G,宜蘭縣,公共建設,26,幼稚園、托兒所,宜蘭縣三星鄉立托兒所人和分所,24.66905204858507,121.64725543130413
G,宜蘭縣,公共建設,26,幼稚園、托兒所,宜蘭縣員山鄉立托兒所頭分分所,24.760688390637597,121.72030579458891
G,宜蘭縣,公共建設,26,幼稚園、托兒所,宜蘭縣宜蘭市立托兒所慶和班,24.762492826681868,121.7521371880011
G,宜蘭縣,公共建設,26,幼稚園、托兒所,宜蘭縣員山鄉立托兒所枕山分所,24.768299296211744,121.71853870453147
G,宜蘭縣,公共建設,26,幼稚園、托兒所,宜蘭縣礁溪鄉立示範托兒所,24.78293253812413,121.76736436548896
G,宜蘭縣,公共建設,26,幼稚園、托兒所,宜蘭縣冬山鄉立托兒所群英分所,24.660138943084466,121.77878662670766
G,宜蘭縣,公共建設,26,幼稚園、托兒所,宜蘭縣員山鄉立托兒所同樂分所,24.76209974090987,121.7296652824385
G,宜蘭縣,公共建設,26,幼稚園、托兒所,宜蘭縣壯圍鄉立托兒所,24.770587166765,121.80039757895896
G,宜蘭縣,公共建設,26,幼稚園、托兒所,宜蘭縣員山鄉立托兒所湖西分所,24.748246038107574,121.6854700916007
G,宜蘭縣,公共建設,26,幼稚園、托兒所,宜蘭縣冬山鄉立托兒所永美分所,24.65540503659603,121.77130272711578
G,宜蘭縣,公共建設,26,幼稚園、托兒所,宜蘭縣大同鄉立托兒所寒溪班,24.60940972367479,121.68640234727131
G,宜蘭縣,公共建設,26,幼稚園、托兒所,宜蘭縣蘇澳鎮立托兒所,24.622131553202944,121.83665929433225
G,宜蘭縣,公共建設,26,幼稚園、托兒所,宜蘭縣頭城鎮立托兒所頂埔分所,24.844469970976874,121.81071704807177
G,宜蘭縣,公共建設,26,幼稚園、托兒所,宜蘭縣三星鄉立托兒所萬富分所,24.677975346718636,121.6789222989753
G,宜蘭縣,公共建設,26,幼稚園、托兒所,宜蘭縣礁溪鄉立托兒所玉石班,24.829784651927135,121.77675194350273
G,宜蘭縣,公共建設,26,幼稚園、托兒所,宜蘭縣南澳鄉立托兒所澳花班,24.32992408734778,121.73978267275712
G,宜蘭縣,公共建設,26,幼稚園、托兒所,宜蘭縣大同鄉托兒所四季班,24.48767696471459,121.42637017616866
G,宜蘭縣,公共建設,26,幼稚園、托兒所,宜蘭縣五結鄉立托兒所,24.690800106339474,121.79478313243101
G,宜蘭縣,公共建設,31,傳統市場,宜蘭縣果菜批售集中場,24.75186822601001,121.76217913385176
G,宜蘭縣,公共建設,31,傳統市場,宜蘭縣羅東第三公有零售市場,24.672633677320174,121.77108955680072
G,宜蘭縣,公共建設,31,傳統市場,宜蘭縣蘇澳鎮共造產公有零售市場,24.597667896666938,121.84997788319265
G,宜蘭縣,公共建設,31,傳統市場,宜蘭縣壯圍鄉壯圍市場,24.747036573408902,121.78481898202139
G,宜蘭縣,公共建設,31,傳統市場,宜蘭縣宜蘭市北門攤販黃昏市場,24.760013725815543,121.75406267163854
G,宜蘭縣,公共建設,31,傳統市場,宜蘭縣綠九市場,24.749609235304412,121.7560270795242
G,宜蘭縣,公共建設,31,傳統市場,宜蘭縣頭城鎮公共造產商場,24.857844258094673,121.82271703719904
G,宜蘭縣,公共建設,31,傳統市場,宜蘭縣羅東觀光夜市,24.675916362829593,121.76910884568824
G,宜蘭縣,公共建設,31,傳統市場,宜蘭縣新馬市場,24.62197423810925,121.83405861928316
G,宜蘭縣,公共建設,31,傳統市場,宜蘭縣三星鄉公有零售市場,24.66517475081828,121.65181105267749
G,宜蘭縣,公共建設,31,傳統市場,宜蘭縣宜蘭市南館公有零售市場,24.755488609580087,121.75293468540089
G,宜蘭縣,公共建設,31,傳統市場,宜蘭縣民生商場,24.676863714279275,121.77095159908185
G,宜蘭縣,公共建設,31,傳統市場,宜蘭縣五結鄉公有利澤零售市場,24.66628709389634,121.82296926802167
G,宜蘭縣,公共建設,31,傳統市場,宜蘭縣宜蘭市北館公有市場,24.75615394013673,121.7532605134776
G,宜蘭縣,公共建設,31,傳統市場,宜蘭縣頭城鎮公有零售市場,24.858975639736506,121.82398053777281
G,宜蘭縣,公共建設,31,傳統市場,宜蘭縣五結市場,24.68433813861223,121.79769105526965
G,宜蘭縣,公共建設,31,傳統市場,宜蘭縣礁溪鄉公有零售市場,24.818347112089175,121.76948824000819
G,宜蘭縣,公共建設,32,超級市場,宜蘭縣喜互惠東山店,24.633522911610086,121.79191575628799
G,宜蘭縣,公共建設,32,超級市場,宜蘭縣喜互惠龍德店,24.647258274219638,121.82885716275314
G,宜蘭縣,公共建設,32,超級市場,宜蘭縣喜互惠生鮮超市五結店,24.68441345174196,121.79772442893038
G,宜蘭縣,公共建設,32,超級市場,宜蘭縣喜互惠羅東店,24.6878306484157,121.77002788846607
G,宜蘭縣,公共建設,32,超級市場,宜蘭縣喜互惠中山店,24.67455168771974,121.77904052972097
G,宜蘭縣,公共建設,32,超級市場,宜蘭縣喜互惠批發量販頭城店,24.863889443980447,121.82751487465625
G,宜蘭縣,公共建設,32,超級市場,宜蘭縣喜互惠生鮮超市吳沙店,24.77168845567824,121.75706522706976
G,宜蘭縣,公共建設,32,超級市場,宜蘭縣喜互惠生鮮超市宜興店,24.757209491864785,121.75812965670802
G,宜蘭縣,公共建設,32,超級市場,宜蘭縣喜互惠生鮮超市礁溪店,24.825097006978705,121.77123583434995
G,宜蘭縣,公共建設,32,超級市場,宜蘭縣喜互惠批發量販文化店,24.749763077034643,121.74270754996407
G,宜蘭縣,公共建設,32,超級市場,宜蘭縣喜互惠批發量販蘇澳店,24.595241369480558,121.83934913577744
G,宜蘭縣,公共建設,32,超級市場,宜蘭縣喜互惠總部,24.759425947311065,121.71739262667164
G,宜蘭縣,公共建設,33,大型購物中心,宜蘭縣頂好惠康羅東店,24.677182771225922,121.77352177264073
G,宜蘭縣,公共建設,34,生活百貨量販,宜蘭縣全聯福利中心中山店,24.745745224036543,121.75527748549219
G,宜蘭縣,公共建設,34,生活百貨量販,宜蘭縣學校員生消費合作社聯合社,24.752541014950854,121.7536748895235
G,宜蘭縣,公共建設,34,生活百貨量販,宜蘭縣全聯福利中心宜蘭復興店,24.748875776737943,121.74884534397646
G,宜蘭縣,公共建設,34,生活百貨量販,宜蘭縣全聯福利中心羅東店,24.669069481038573,121.76668124468021
G,宜蘭縣,公共建設,34,生活百貨量販,宜蘭縣機關學校員工(生)消費合作社聯合社,24.755969818006506,121.74623751170401
G,宜蘭縣,公共建設,34,生活百貨量販,宜蘭縣全聯福利中心羅東南門店,24.673128396901955,121.7673432873003
G,宜蘭縣,公共建設,34,生活百貨量販,宜蘭縣全聯福利中心礁溪店,24.820881683555296,121.77029664170409
G,宜蘭縣,公共建設,34,生活百貨量販,宜蘭縣全聯福利中心冬山店,24.631272413909784,121.79590251866385
G,宜蘭縣,公共建設,34,生活百貨量販,宜蘭縣全聯福利中心羅東二店,24.680198910609327,121.77145056848008
G,宜蘭縣,公共建設,34,生活百貨量販,宜蘭縣全聯福利中心北門店,24.75802317070452,121.75262900800044
G,宜蘭縣,公共建設,34,生活百貨量販,宜蘭縣國防部宜蘭福利分站,24.752242038235206,121.74471079469987
G,宜蘭縣,公共建設,34,生活百貨量販,宜蘭縣全聯福利中心頭城店,24.85893669097396,121.82395841185077
G,宜蘭縣,公共建設,34,生活百貨量販,宜蘭縣全聯福利中心宜蘭五結店,24.68466914034829,121.79592722726046
G,宜蘭縣,公共建設,34,生活百貨量販,宜蘭縣全聯福利中心三星店,24.6671908779984,121.65224528141883
G,宜蘭縣,公共建設,34,生活百貨量販,宜蘭縣全聯福利中心宜蘭店,24.75795448218602,121.74633091524237
G,宜蘭縣,公共建設,34,生活百貨量販,宜蘭縣家樂福宜蘭店,24.75407020452392,121.75081566693301
G,宜蘭縣,公共建設,34,生活百貨量販,宜蘭縣全聯福利中心羅東三店,24.669840039007855,121.77181364224826
G,宜蘭縣,公共建設,42,一般公園,北關海潮公園,24.912643999057913,121.87816499983995
G,宜蘭縣,公共建設,42,一般公園,城西公園,24.856602998650015,121.82168099984564
G,宜蘭縣,公共建設,42,一般公園,社區公園,24.845595998536677,121.81444999985209
G,宜蘭縣,公共建設,42,一般公園,礁溪公園,24.830683998143776,121.7764839998615
G,宜蘭縣,公共建設,42,一般公園,中山公園,24.754055004297438,121.75366199990295
G,宜蘭縣,公共建設,42,一般公園,縣立宜蘭運動公園,24.738834998005707,121.75461499986615
G,宜蘭縣,公共建設,42,一般公園,宜蘭河濱公園,24.764184995620962,121.75242399985156
G,宜蘭縣,公共建設,42,一般公園,松林公園,24.684471002209943,121.76493099988843
G,宜蘭縣,公共建設,42,一般公園,中山公園,24.67669800134251,121.76868899987956
G,宜蘭縣,公共建設,42,一般公園,羅東運動公園,24.682814998201124,121.75485799986335
G,宜蘭縣,公共建設,42,一般公園,來來公園,24.667888002240645,121.82023899988003
G,宜蘭縣,公共建設,42,一般公園,蘇澳運動公園,24.602798003745917,121.83598699988778
G,宜蘭縣,公共建設,42,一般公園,永光公園,24.592180006689773,121.85062699990488
G,宜蘭縣,公共建設,42,一般公園,太平山公園,24.49627301014633,121.53406699996226
G,宜蘭縣,公共建設,42,一般公園,金洋公園,24.427569009285428,121.7504519999355
G,宜蘭縣,公共建設,42,一般公園,樹林公園,24.616242998882946,121.75004199987256
G,宜蘭縣,民眾服務,51,觀光遊憩設施,宜蘭縣公園(36),24.983241253511327,121.95494898336953
G,宜蘭縣,民眾服務,51,觀光遊憩設施,宜蘭縣交通部觀光局東北角暨宜蘭管理處宜蘭管理站,24.759611933211797,121.81527613067755
G,宜蘭縣,民眾服務,51,觀光遊憩設施,宜蘭縣外澳服務區,24.878023851450887,121.84150149780115
G,宜蘭縣,民眾服務,51,觀光遊憩設施,宜蘭縣宜蘭市兒童遊樂公園,24.751426754675997,121.75071224777633
G,宜蘭縣,民眾服務,51,觀光遊憩設施,宜蘭縣員山鄉觀光遊憩據點鼻仔頭,24.730026552836076,121.69855428441906
G,宜蘭縣,民眾服務,51,觀光遊憩設施,宜蘭縣頭城運動公園,24.863699506453774,121.82370647582971
G,宜蘭縣,民眾服務,51,觀光遊憩設施,宜蘭縣羅東中山公園,24.676605620514607,121.76826689008804
G,宜蘭縣,民眾服務,51,觀光遊憩設施,宜蘭縣跑馬古道,24.827402972743844,121.76286567870649
G,宜蘭縣,民眾服務,51,觀光遊憩設施,宜蘭縣蘇澳觀光冷泉,24.598485669747678,121.8500048141395
G,宜蘭縣,民眾服務,51,觀光遊憩設施,宜蘭縣北關海潮公園,24.91343268153672,121.87832459519085
G,宜蘭縣,民眾服務,51,觀光遊憩設施,宜蘭縣宜蘭市河濱公園,24.764913941144734,121.75559991611581
G,宜蘭縣,民眾服務,51,觀光遊憩設施,宜蘭縣臺灣省宜蘭農田水利會萬長春圳水門公園,24.68695446271835,121.74628318982934
G,宜蘭縣,民眾服務,51,觀光遊憩設施,宜蘭縣太平山莊服務站,24.492355786239514,121.5365126195922
G,宜蘭縣,民眾服務,51,觀光遊憩設施,宜蘭縣中央公園,24.729602755438115,121.76058182289813
G,宜蘭縣,民眾服務,51,觀光遊憩設施,宜蘭縣宜蘭旅遊服務中心,24.75417533353455,121.75754068192734
G,宜蘭縣,民眾服務,51,觀光遊憩設施,宜蘭縣福山植物園(7),24.75994958204873,121.59160121193233
G,宜蘭縣,民眾服務,51,觀光遊憩設施,宜蘭縣員山公園,24.74496530920763,121.721456919679
G,宜蘭縣,民眾服務,51,觀光遊憩設施,宜蘭縣榕樹公園,24.71704133442635,121.82785555390214
G,宜蘭縣,民眾服務,51,觀光遊憩設施,宜蘭縣冷泉公園,24.597541639052825,121.85089362619718
G,宜蘭縣,民眾服務,51,觀光遊憩設施,宜蘭縣莎韻公園,24.448646113839715,121.7784312999697
G,宜蘭縣,民眾服務,51,觀光遊憩設施,宜蘭縣湯圍溝公園,24.828179104417575,121.76993623221348
G,宜蘭縣,民眾服務,51,觀光遊憩設施,宜蘭縣休閒農業旅遊服務站,24.75472128770438,121.75701595936245
G,宜蘭縣,民眾服務,51,觀光遊憩設施,宜蘭縣太平山遊客中心,24.54217464552065,121.51308458782307
G,宜蘭縣,民眾服務,51,觀光遊憩設施,宜蘭縣武荖坑風景區,24.610034714154924,121.81582988353799
G,宜蘭縣,民眾服務,51,觀光遊憩設施,宜蘭縣綠九公園,24.669165237204368,121.77023660453352
G,宜蘭縣,民眾服務,51,觀光遊憩設施,宜蘭縣福山植物園(4),24.754577991190096,121.59432220034903
G,宜蘭縣,民眾服務,51,觀光遊憩設施,宜蘭縣福山植物園(8),24.759097790450195,121.59130052801008
G,宜蘭縣,民眾服務,51,觀光遊憩設施,宜蘭縣冬山河親水公園,24.672010556587225,121.81218152895268
G,宜蘭縣,民眾服務,51,觀光遊憩設施,宜蘭縣福山植物園(18),24.756729216932296,121.59472629813578
G,宜蘭縣,民眾服務,51,觀光遊憩設施,宜蘭縣中山公園,24.754214640429865,121.75409684645358
G,宜蘭縣,民眾服務,51,觀光遊憩設施,宜蘭縣福山植物園(1),24.75643123392035,121.59464518940072
G,宜蘭縣,民眾服務,51,觀光遊憩設施,宜蘭縣明池森林遊樂區,24.650501765258667,121.47303558357979
G,宜蘭縣,民眾服務,51,觀光遊憩設施,宜蘭縣棲蘭森林遊樂區,24.58009833764204,121.49240714406032
G,宜蘭縣,民眾服務,51,觀光遊憩設施,宜蘭縣長埤湖風景區,24.64404805985572,121.61103646905394
G,宜蘭縣,民眾服務,51,觀光遊憩設施,宜蘭縣中央公園,24.72933199644636,121.76308185062338
G,宜蘭縣,民眾服務,51,觀光遊憩設施,宜蘭縣張家圍公園,24.66857991000362,121.6986580930501
G,宜蘭縣,民眾服務,51,觀光遊憩設施,宜蘭縣冬山河森林公園,24.643199486394344,121.7884167811809
G,宜蘭縣,民眾服務,51,觀光遊憩設施,宜蘭縣東岳湧泉公園,24.524404811668244,121.83122025092561
G,宜蘭縣,民眾服務,51,觀光遊憩設施,宜蘭縣五結鄉溪濱公園,24.711653202713975,121.7692318084658
G,宜蘭縣,民眾服務,51,觀光遊憩設施,宜蘭縣古亭社區親子公園,24.771369525158377,121.79987050029695
G,宜蘭縣,民眾服務,51,觀光遊憩設施,宜蘭縣觀光局大里遊客服務中心,24.969544150252116,121.92419639283303
G,宜蘭縣,民眾服務,51,觀光遊憩設施,宜蘭縣冬山旅遊服務中心,24.63522704673914,121.79070660299092
G,宜蘭縣,民眾服務,51,觀光遊憩設施,宜蘭縣福山植物園(3),24.757532337433545,121.59343860426048
G,宜蘭縣,民眾服務,51,觀光遊憩設施,宜蘭縣砲臺山公園,24.5933328655009,121.85690540275834
G,宜蘭縣,民眾服務,51,觀光遊憩設施,宜蘭縣烏石港遊客中心,24.869334544409607,121.83483747121856
G,宜蘭縣,民眾服務,51,觀光遊憩設施,宜蘭縣石城縣界公園,24.983540239065977,121.95923308778386
G,宜蘭縣,民眾服務,51,觀光遊憩設施,宜蘭縣中山公園,24.628806830623148,121.74385784209824
G,宜蘭縣,民眾服務,51,觀光遊憩設施,宜蘭縣太平山森林遊樂區,24.492388073166598,121.53655661288693
G,宜蘭縣,民眾服務,51,觀光遊憩設施,宜蘭縣金盈谷瀑布,24.850247151605807,121.78833495040736
G,宜蘭縣,民眾服務,51,觀光遊憩設施,宜蘭縣福山植物園(6),24.758461384341583,121.59191606443156
G,宜蘭縣,民眾服務,51,觀光遊憩設施,宜蘭縣政府羅東運動公園,24.681368728525833,121.75308145337611
G,宜蘭縣,民眾服務,51,觀光遊憩設施,宜蘭縣梅花湖風景區遊客中心,24.64494705179227,121.73072623751813
G,宜蘭縣,民眾服務,51,觀光遊憩設施,宜蘭縣仁山植物園,24.625097497848724,121.76026114499274
G,宜蘭縣,民眾服務,51,觀光遊憩設施,宜蘭縣二五連水門公園,24.829935944542605,121.8122223053004
G,宜蘭縣,民眾服務,51,觀光遊憩設施,宜蘭縣大湖風景遊憩區,24.741298060086173,121.69164398636948
G,宜蘭縣,民眾服務,51,觀光遊憩設施,宜蘭縣烏石港遺址,24.869911571444945,121.83470718007248
G,宜蘭縣,民眾服務,51,觀光遊憩設施,宜蘭縣大同鄉松羅運動公園,24.654918122702956,121.58097470503002
G,宜蘭縣,民眾服務,51,觀光遊憩設施,宜蘭縣東澳社區濱海公園,24.51161981993325,121.83731900996948
G,宜蘭縣,民眾服務,51,觀光遊憩設施,螃蟹博物館,24.9124880007738,121.86869299985369
G,宜蘭縣,民眾服務,51,觀光遊憩設施,螃蟹博物館,24.9124880007738,121.86869299985369
G,宜蘭縣,民眾服務,51,觀光遊憩設施,河東堂獅子博物館,24.915080009976766,121.88056399991055
G,宜蘭縣,民眾服務,51,觀光遊憩設施,理歐海洋溫泉渡假中心,24.915183001860157,121.88063099985536
G,宜蘭縣,民眾服務,51,觀光遊憩設施,和風時尚館,24.842120006215854,121.79201399990293
G,宜蘭縣,民眾服務,51,觀光遊憩設施,外澳服務區,24.878201002924836,121.84152599987478
G,宜蘭縣,民眾服務,51,觀光遊憩設施,頭城海水浴場,24.85050600780305,121.83009699990544
G,宜蘭縣,民眾服務,51,觀光遊憩設施,石城服務區,24.98352600037227,121.95900699982823
G,宜蘭縣,民眾服務,51,觀光遊憩設施,宜蘭縣隘丁社區公園,24.617653817357354,121.837502321775
G,宜蘭縣,民眾服務,51,觀光遊憩設施,宜蘭縣三星公園,24.66793961463864,121.65098645246908
G,宜蘭縣,民眾服務,51,觀光遊憩設施,宜蘭縣石城景觀區,24.983542259663583,121.95927419788534
G,宜蘭縣,民眾服務,51,觀光遊憩設施,宜蘭縣烏石漁港,24.870120867575327,121.83584596110774
G,宜蘭縣,民眾服務,51,觀光遊憩設施,宜蘭縣福山植物園(5),24.758607473547244,121.59286981323494
G,宜蘭縣,民眾服務,51,觀光遊憩設施,宜蘭縣崙埤河濱公園,24.676774067072763,121.61167247414042
G,宜蘭縣,民眾服務,51,觀光遊憩設施,宜蘭縣大溪河濱公園,24.942089328315845,121.89520059957412
G,宜蘭縣,民眾服務,51,觀光遊憩設施,宜蘭縣宜蘭磚窯,24.767321422284457,121.7521518142059
G,宜蘭縣,民眾服務,51,觀光遊憩設施,宜蘭縣原始森林公園,24.493934125041434,121.53528003620823
G,宜蘭縣,民眾服務,51,觀光遊憩設施,宜蘭縣五峰旗風景區遊客中心,24.830005194789848,121.75181063249
G,宜蘭縣,民眾服務,51,觀光遊憩設施,宜蘭縣林業文化園區,24.684252020448426,121.77139327056967
G,宜蘭縣,民眾服務,51,觀光遊憩設施,宜蘭縣石城服務區,24.98353952731081,121.9593197777267
G,宜蘭縣,民眾服務,51,觀光遊憩設施,宜蘭縣南澳鄉保護區公園,24.467806777266762,121.7982478045219
G,宜蘭縣,民眾服務,51,觀光遊憩設施,宜蘭縣中山旅遊服務中心,24.63387449770666,121.75275983797174
G,宜蘭縣,民眾服務,51,觀光遊憩設施,宜蘭縣礁溪溫泉會館遊客中心,24.830853120677787,121.7763565666405
G,宜蘭縣,民眾服務,51,觀光遊憩設施,宜蘭縣五峰旗風景區,24.83271306326202,121.74483435454444
G,宜蘭縣,民眾服務,51,觀光遊憩設施,宜蘭縣北濱公園,24.577059966726196,121.86995691892474
G,宜蘭縣,民眾服務,51,觀光遊憩設施,宜蘭縣礁溪公園,24.830336528269765,121.77691007920399
G,宜蘭縣,民眾服務,51,觀光遊憩設施,宜蘭縣福山植物園(2),24.755130784648852,121.5944482495608
G,宜蘭縣,民眾服務,51,觀光遊憩設施,宜蘭縣龍潭湖風景區,24.79406717960939,121.74058199426494
G,宜蘭縣,民眾服務,51,觀光遊憩設施,宜蘭縣冷泉公園,24.598348992884148,121.84871756566261
G,宜蘭縣,民眾服務,51,觀光遊憩設施,大隱茶園,24.97073599759663,121.91804699981861
G,宜蘭縣,民眾服務,51,觀光遊憩設施,中山茶園,24.9619850063549,121.91467499987819
G,宜蘭縣,民眾服務,51,觀光遊憩設施,頭城休閒農場,24.909325004989334,121.85080299988175
G,宜蘭縣,民眾服務,51,觀光遊憩設施,滬連山休閒農場,24.874167997174514,121.81105299984145
G,宜蘭縣,民眾服務,51,觀光遊憩設施,大里遊客服務中心,24.962795007903562,121.91961799988984
G,宜蘭縣,民眾服務,51,觀光遊憩設施,東北角暨宜蘭海岸國家風景區,24.894009008060394,121.8581749999078
G,宜蘭縣,民眾服務,51,觀光遊憩設施,東北角暨宜蘭海岸國家風景區,24.894009008060394,121.8581749999078
G,宜蘭縣,民眾服務,51,觀光遊憩設施,草嶺古道,24.971136997230534,121.9260559998152
G,宜蘭縣,民眾服務,51,觀光遊憩設施,大溪蜜月灣,24.932948006084565,121.88573499988556
G,宜蘭縣,民眾服務,51,觀光遊憩設施,大里,24.96456800128917,121.92082699984549
G,宜蘭縣,民眾服務,51,觀光遊憩設施,大里慶雲宮天公廟,24.96968500088499,121.92504499984173
G,宜蘭縣,民眾服務,51,觀光遊憩設施,宜蘭縣立蘭陽博物館,24.869753009871346,121.8331099999221
G,宜蘭縣,民眾服務,51,觀光遊憩設施,龜山島,24.84274999923674,121.95023599982234
G,宜蘭縣,民眾服務,51,觀光遊憩設施,二結柑橘觀光果園,24.8317750026473,121.77471299988565
G,宜蘭縣,民眾服務,51,觀光遊憩設施,武暖石板橋,24.7808290047745,121.76322099990071
G,宜蘭縣,民眾服務,51,觀光遊憩設施,礁溪博物館,24.829614999021718,121.7763479998598
G,宜蘭縣,民眾服務,51,觀光遊憩設施,五峰旗風景區,24.831436004545672,121.7478249998991
G,宜蘭縣,民眾服務,51,觀光遊憩設施,山口溫泉飯店,24.82614800161833,121.76347999987927
G,宜蘭縣,民眾服務,51,觀光遊憩設施,野景溫泉大飯店,24.82589699787229,121.76364199986031
G,宜蘭縣,民眾服務,51,觀光遊憩設施,有愛日式露天觀景養生館,24.825529011353826,121.7677739999417
G,宜蘭縣,民眾服務,51,觀光遊憩設施,春和日式大浴池,24.828306996805626,121.77048399984928
G,宜蘭縣,民眾服務,51,觀光遊憩設施,湯圍溝公園,24.82880100444752,121.76994199989943
G,宜蘭縣,民眾服務,51,觀光遊憩設施,福岡溫泉渡假飯店,24.82987600228727,121.76987099988008
G,宜蘭縣,民眾服務,51,觀光遊憩設施,湯圍溝公園大眾浴池,24.82873899803172,121.76993999986097
G,宜蘭縣,民眾服務,51,觀光遊憩設施,美琪溫泉旅館,24.82871399496229,121.77142599983665
G,宜蘭縣,民眾服務,51,觀光遊憩設施,和風馥蜂溫泉旅館,24.82922700598778,121.77143199990513
G,宜蘭縣,民眾服務,51,觀光遊憩設施,礁溪溫泉區,24.827934998212985,121.77252799986228
G,宜蘭縣,民眾服務,51,觀光遊憩設施,川湯春天溫泉飯店,24.828238005453294,121.77182899990505
G,宜蘭縣,民眾服務,51,觀光遊憩設施,雪山溫泉會館,24.8272710061355,121.77409299990856
G,宜蘭縣,民眾服務,51,觀光遊憩設施,礁溪山多利中信大飯店,24.817637003420106,121.78097399988648
G,宜蘭縣,民眾服務,51,觀光遊憩設施,和風溫泉會館礁溪館,24.828961008511236,121.77411599992614
G,宜蘭縣,民眾服務,51,觀光遊憩設施,雀兒喜溫泉飯店,24.828731000080413,121.77490499986709
G,宜蘭縣,民眾服務,51,觀光遊憩設施,陽光假期大飯店,24.82818000536199,121.7750959999006
G,宜蘭縣,民眾服務,51,觀光遊憩設施,和斯頓旅店,24.829000008079962,121.77455299991396
G,宜蘭縣,民眾服務,51,觀光遊憩設施,正華陶藝溫泉民宿,24.821429997699973,121.77402299985384
G,宜蘭縣,民眾服務,51,觀光遊憩設施,川湯溫泉養生館,24.827950003904895,121.7754729998917
G,宜蘭縣,民眾服務,51,觀光遊憩設施,湯之城浴池,24.83135100858274,121.7759209999264
G,宜蘭縣,民眾服務,51,觀光遊憩設施,紅燈籠溫泉汽車旅館,24.828596002453867,121.77612199988134
G,宜蘭縣,民眾服務,51,觀光遊憩設施,帥王溫泉大飯店,24.829451009567542,121.77650399992723
G,宜蘭縣,民眾服務,51,觀光遊憩設施,山泉大飯店,24.830720997057483,121.77822199985187
G,宜蘭縣,民眾服務,51,觀光遊憩設施,五峰旗瀑布,24.83451700497348,121.74682299990546
G,宜蘭縣,民眾服務,51,觀光遊憩設施,猴硐瀑布,24.842866006297793,121.78233199990942
G,宜蘭縣,民眾服務,51,觀光遊憩設施,亞諾時尚溫泉戀館,24.828515002064407,121.77148699988383
G,宜蘭縣,民眾服務,51,觀光遊憩設施,龍潭湖風景區,24.792179001688993,121.73988099988553
G,宜蘭縣,民眾服務,51,觀光遊憩設施,礁溪高爾夫球場,24.823052994177964,121.73786899984077
G,宜蘭縣,民眾服務,51,觀光遊憩設施,冬山河親水公園,24.672291002667368,121.81211199987668
G,宜蘭縣,民眾服務,51,觀光遊憩設施,羅東高爾夫練習場,24.70170999929021,121.7756339998661
G,宜蘭縣,民眾服務,51,觀光遊憩設施,二龍河競渡,24.80775999786441,121.78539599985166
G,宜蘭縣,民眾服務,51,觀光遊憩設施,吳沙故居,24.78856000208625,121.75912999988289
G,宜蘭縣,民眾服務,51,觀光遊憩設施,旺山哈密瓜果園,24.72495300237098,121.81410899987377
G,宜蘭縣,民眾服務,51,觀光遊憩設施,昭應宮,24.757347004093383,121.75140299989584
G,宜蘭縣,民眾服務,51,觀光遊憩設施,碧霞宮,24.759321994295814,121.75162599984286
G,宜蘭縣,民眾服務,51,觀光遊憩設施,甲子蘭酒文物館,24.757050011287223,121.74930699994208
G,宜蘭縣,民眾服務,51,觀光遊憩設施,宜蘭縣博物館家族協會,24.759892008256966,121.75070199992375
G,宜蘭縣,民眾服務,51,觀光遊憩設施,宜蘭設治紀念館,24.755254007825503,121.74966999992621
G,宜蘭縣,民眾服務,51,觀光遊憩設施,台灣戲劇博物館,24.749339995248622,121.74508899984635
G,宜蘭縣,民眾服務,51,觀光遊憩設施,宜蘭縣文化中心,24.749617002191055,121.74483699988586
G,宜蘭縣,民眾服務,51,觀光遊憩設施,東門觀光夜市,24.758196005732913,121.75825299990598
G,宜蘭縣,民眾服務,51,觀光遊憩設施,宜蘭台灣戲劇館,24.74947400175438,121.74522299989084
G,宜蘭縣,民眾服務,51,觀光遊憩設施,觀光果園,24.764956009202553,121.73026099993636
G,宜蘭縣,民眾服務,51,觀光遊憩設施,崩山湖楊桃觀光果園,24.766242998047588,121.72217599986696
G,宜蘭縣,民眾服務,51,觀光遊憩設施,庄腳所在,24.77985700095975,121.69814399988927
G,宜蘭縣,民眾服務,51,觀光遊憩設施,蜂采館,24.70850099622516,121.68470799986761
G,宜蘭縣,民眾服務,51,觀光遊憩設施,雙連埤,24.75401699850252,121.63758899989206
G,宜蘭縣,民眾服務,51,觀光遊憩設施,雷公埤,24.757518999414042,121.71753699987629
G,宜蘭縣,民眾服務,51,觀光遊憩設施,員山溫泉井,24.7498260025267,121.71308599989337
G,宜蘭縣,民眾服務,51,觀光遊憩設施,大湖風景遊樂區,24.742466998716452,121.6916919998761
G,宜蘭縣,民眾服務,51,觀光遊憩設施,福山植物園行政中心,24.75581999749229,121.59590499988714
G,宜蘭縣,民眾服務,51,觀光遊憩設施,宜蘭縣自然史教育館,24.681117007051512,121.76757199991351
G,宜蘭縣,民眾服務,51,觀光遊憩設施,宜蘭縣自然史教育館,24.681117007051512,121.76757199991351
G,宜蘭縣,民眾服務,51,觀光遊憩設施,羅東觀光夜市,24.67591700636923,121.76835499990781
G,宜蘭縣,民眾服務,51,觀光遊憩設施,二結農會穀倉,24.700690003328734,121.77570999989393
G,宜蘭縣,民眾服務,51,觀光遊憩設施,冬山河親水公園旅遊服務中心,24.67283000561852,121.81220199990058
G,宜蘭縣,民眾服務,51,觀光遊憩設施,清水綜合觀光果園,24.69708000526407,121.74885399991092
G,宜蘭縣,民眾服務,51,觀光遊憩設施,長埤湖風景區,24.643833002603348,121.61029199991026
G,宜蘭縣,民眾服務,51,觀光遊憩設施,信仁牧場,24.69336000083509,121.70738399988778
G,宜蘭縣,民眾服務,51,觀光遊憩設施,大埔永安石板橋,24.680549010885724,121.81312899992886
G,宜蘭縣,民眾服務,51,觀光遊憩設施,宜蘭縣風景區管理所,24.67292799618992,121.81224599983813
G,宜蘭縣,民眾服務,51,觀光遊憩設施,孝威國小校園博物館,24.697089007885353,121.81167599991154
G,宜蘭縣,民眾服務,51,觀光遊憩設施,珊瑚法界博物館,24.58252099911114,121.8640319998463
G,宜蘭縣,民眾服務,51,觀光遊憩設施,白米社區木屐博物館,24.581449008908216,121.84591799991883
G,宜蘭縣,民眾服務,51,觀光遊憩設施,蘇澳冷泉,24.596808009374822,121.85099599991626
G,宜蘭縣,民眾服務,51,觀光遊憩設施,南方澳南天宮,24.581974008894207,121.86500899991604
G,宜蘭縣,民眾服務,51,觀光遊憩設施,武荖坑風景區,24.612607999383982,121.81312199985945
G,宜蘭縣,民眾服務,51,觀光遊憩設施,南澳溫泉(烏帽溫泉),24.525567009030812,121.72360699993753
G,宜蘭縣,民眾服務,51,觀光遊憩設施,大進觀光果園,24.629182995551194,121.70400999986353
G,宜蘭縣,民眾服務,51,觀光遊憩設施,綠野茶園,24.675076007114647,121.74136099992369
G,宜蘭縣,民眾服務,51,觀光遊憩設施,松霖茶園,24.680190995913673,121.74465499985247
G,宜蘭縣,民眾服務,51,觀光遊憩設施,馨山茶園,24.674671011313624,121.74126599994896
G,宜蘭縣,民眾服務,51,觀光遊憩設施,圓茗緣觀光茶園,24.671716995771998,121.73899799985307
G,宜蘭縣,民眾服務,51,觀光遊憩設施,香格里拉休閒農場,24.632403004280228,121.72887399990594
G,宜蘭縣,民眾服務,51,觀光遊憩設施,分洪堰風景區,24.686054995255883,121.72728499985098
G,宜蘭縣,民眾服務,51,觀光遊憩設施,梅花湖風景特定區,24.64192200491501,121.73700399990913
G,宜蘭縣,民眾服務,51,觀光遊憩設施,仁山植物園,24.622030010289432,121.7537639999365
G,宜蘭縣,民眾服務,51,觀光遊憩設施,茶之鄉茶園,24.656297011350254,121.47327599996606
G,宜蘭縣,民眾服務,51,觀光遊憩設施,玉蘭茶園,24.63941300639545,121.46919999994437
G,宜蘭縣,民眾服務,51,觀光遊憩設施,加羅湖,24.47422099708842,121.47862499991136
G,宜蘭縣,民眾服務,51,觀光遊憩設施,明池神木,24.653639993656622,121.47142699989664
G,宜蘭縣,民眾服務,51,觀光遊憩設施,國父百年紀念林,24.65121799823692,121.47357899992033
G,宜蘭縣,民眾服務,51,觀光遊憩設施,排骨溪溫泉,24.60348700146595,121.50713899992398
G,宜蘭縣,民眾服務,51,觀光遊憩設施,鳩之澤溫泉(仁澤溫泉),24.54553100859444,121.5083559999558
G,宜蘭縣,民眾服務,51,觀光遊憩設施,梵梵溫泉,24.61662100586659,121.52312399994197
G,宜蘭縣,民眾服務,51,觀光遊憩設施,逢春園渡假別墅,24.668687998810302,121.59809099989457
G,宜蘭縣,民眾服務,51,觀光遊憩設施,清水地熱,24.61283600696433,121.6343099999337
G,宜蘭縣,民眾服務,51,觀光遊憩設施,中國歷代神木園區,24.591396006969543,121.439996999951
G,宜蘭縣,民眾服務,51,觀光遊憩設施,明池森林遊樂區大門,24.650734997497644,121.47286899991336
G,宜蘭縣,民眾服務,51,觀光遊憩設施,土場收費站,24.57239699804099,121.49648399990778
G,宜蘭縣,民眾服務,51,觀光遊憩設施,仁澤森林遊樂區,24.548045007271174,121.5065499999514
G,宜蘭縣,民眾服務,51,觀光遊憩設施,松羅湖步道,24.668096997103785,121.56439399989783
G,宜蘭縣,民眾服務,51,觀光遊憩設施,明池森林遊樂區,24.650209004043276,121.46779099994079
G,宜蘭縣,民眾服務,51,觀光遊憩設施,南湖北山,24.383670003479203,121.4371879999424
G,宜蘭縣,民眾服務,51,觀光遊憩設施,審馬陣山,24.380212997302724,121.41746999992232
G,宜蘭縣,民眾服務,51,觀光遊憩設施,喀拉業山,24.449964005489484,121.32130399995924
G,宜蘭縣,民眾服務,51,觀光遊憩設施,棲蘭森林遊樂區,24.580877006060078,121.49482499994056
G,宜蘭縣,民眾服務,51,觀光遊憩設施,太平山森林遊樂區,24.497463997256823,121.534995999908
G,宜蘭縣,民眾服務,51,觀光遊憩設施,砲台山公園,24.593735999295014,121.85601299984717
G,宜蘭縣,民眾服務,51,觀光遊憩設施,南方澳大橋,24.585830001795994,121.86838699986485
G,宜蘭縣,民眾服務,51,觀光遊憩設施,豆腐岬風景區,24.583829009662328,121.87126899992077
G,宜蘭縣,民眾服務,51,觀光遊憩設施,豆腐岬海水浴場,24.58378800948003,121.87210799991522
G,宜蘭縣,民眾服務,52,停車場地,宜蘭縣大里遊客服務中心停車場(4),24.96942336557144,121.92345854444977
G,宜蘭縣,民眾服務,52,停車場地,宜蘭縣大里遊客服務中心停車場(2),24.969295909259902,121.92352088684696
G,宜蘭縣,民眾服務,52,停車場地,宜蘭縣羅東鎮公共造產公所前收費停車場,24.676893765908087,121.76751233441078
G,宜蘭縣,民眾服務,52,停車場地,宜蘭縣武荖坑風景區停車場,24.604237932754092,121.81304940929925
G,宜蘭縣,民眾服務,52,停車場地,宜蘭縣大溪河濱公園停車場,24.9422585855127,121.89629175658555
G,宜蘭縣,民眾服務,52,停車場地,宜蘭縣澳花停車場,24.331581218099554,121.74229409580714
G,宜蘭縣,民眾服務,52,停車場地,宜蘭縣武荖坑風景區停車場,24.605592893763824,121.81255741830503
G,宜蘭縣,民眾服務,52,停車場地,宜蘭縣宜蘭市公共造產中央臨時收費停車場,24.757058412324398,121.75534060761997
G,宜蘭縣,民眾服務,52,停車場地,宜蘭縣204停車場,24.755429737990205,121.75064946277061
G,宜蘭縣,民眾服務,52,停車場地,宜蘭縣武荖坑風景區停車場,24.612574485030763,121.81341613244705
G,宜蘭縣,民眾服務,52,停車場地,宜蘭縣大里遊客服務中心停車場(3),24.969553856752288,121.92334067527153
G,宜蘭縣,民眾服務,52,停車場地,宜蘭縣停車場,24.82661194588705,121.77481142509824
G,宜蘭縣,民眾服務,52,停車場地,宜蘭縣仁山植物園停車場,24.62295192793432,121.75164733988869
G,宜蘭縣,民眾服務,52,停車場地,宜蘭縣停車場(403),24.892434546259388,121.85429977940498
G,宜蘭縣,民眾服務,52,停車場地,宜蘭縣停車場(52),24.983631736991295,121.9598538593851
G,宜蘭縣,民眾服務,52,停車場地,宜蘭縣停車場(70),24.913001609047114,121.87793306982991
G,宜蘭縣,民眾服務,52,停車場地,宜蘭縣北關海潮公園停車場,24.914004479364653,121.87905468437876
G,宜蘭縣,民眾服務,52,停車場地,宜蘭縣太平山森林遊樂區停車場,24.492111608474282,121.53694168059526
G,宜蘭縣,民眾服務,52,停車場地,宜蘭縣大溪漁港停車場,24.941651439200655,121.90125328889545
G,宜蘭縣,民眾服務,52,停車場地,宜蘭縣停車場(71),24.97133130577482,121.92711185752286
G,宜蘭縣,民眾服務,52,停車場地,宜蘭縣停車場,24.753518810146915,121.75887675145603
G,宜蘭縣,民眾服務,52,停車場地,宜蘭縣羅東鎮立體停車場,24.6764031686914,121.7677910463288
G,宜蘭縣,民眾服務,52,停車場地,北關海潮公園停車場,24.914235000004034,121.8789469998474
G,宜蘭縣,民眾服務,52,停車場地,金盈谷渡假村停車場,24.850091006482547,121.78856599990286
G,宜蘭縣,民眾服務,52,停車場地,頭城火車站停車場,24.858363005807,121.82238899990088
G,宜蘭縣,民眾服務,52,停車場地,頭城運動公園停車場,24.863407006338743,121.82296499989819
G,宜蘭縣,民眾服務,52,停車場地,頭城公有停車場,24.85967200421016,121.82407299988319
G,宜蘭縣,民眾服務,52,停車場地,北關休閒農場售票亭,24.91213700053896,121.86913199984619
G,宜蘭縣,民眾服務,52,停車場地,大溪河濱公園停車場,24.942195003354406,121.89632599986925
G,宜蘭縣,民眾服務,52,停車場地,頭城濱海停車場,24.968615007596178,121.92381399988663
G,宜蘭縣,民眾服務,52,停車場地,天公廟停車場,24.970080000627394,121.92584699983483
G,宜蘭縣,民眾服務,52,停車場地,草領古道停車場,24.970880000809,121.92728799983597
G,宜蘭縣,民眾服務,52,停車場地,石城縣界公園停車場,24.98368600274529,121.95975799984271
G,宜蘭縣,民眾服務,52,停車場地,港澳停車場,24.875482007013648,121.83869599990035
G,宜蘭縣,民眾服務,52,停車場地,頭城海水浴場南側停車場,24.852204996314256,121.8279059998355
G,宜蘭縣,民眾服務,52,停車場地,頭城海水浴場停車場,24.854084011824312,121.83137299993763
G,宜蘭縣,民眾服務,52,停車場地,宜蘭縣民生第一二市場停車場,24.67685147523388,121.7711895969267
G,宜蘭縣,民眾服務,52,停車場地,宜蘭縣大里遊客服務中心停車場(1),24.96903094087522,121.92358151919058
G,宜蘭縣,民眾服務,52,停車場地,宜蘭縣停車場,24.729704713484697,121.76504698548442
G,宜蘭縣,民眾服務,52,停車場地,宜蘭縣武荖坑風景區停車場,24.61227196370122,121.81297310833995
G,宜蘭縣,民眾服務,52,停車場地,宜蘭縣停車場(387),24.877215887782047,121.8399687282996
G,宜蘭縣,民眾服務,52,停車場地,宜蘭縣停車場,24.731253750196693,121.76285383610045
G,宜蘭縣,民眾服務,52,停車場地,宜蘭縣冬山鄉第一停車場,24.63190325100466,121.7940075179938
G,宜蘭縣,民眾服務,52,停車場地,宜蘭縣立體育場停車場,24.682452667289116,121.74841630204993
G,宜蘭縣,民眾服務,52,停車場地,宜蘭縣羅東鎮公共造產公所前廣庭收費停車場,24.676900857261625,121.76726861326055
G,宜蘭縣,民眾服務,52,停車場地,林美石磐步道停車場,24.821006996814447,121.73569099986119
G,宜蘭縣,民眾服務,52,停車場地,龍潭湖風景區停車場,24.79227200900352,121.73999999992694
G,宜蘭縣,民眾服務,52,停車場地,五峰旗露營區停車場,24.831581008773753,121.74781699992286
G,宜蘭縣,民眾服務,52,停車場地,礁溪鄉公有停車場,24.824917005504766,121.77073099989998
G,宜蘭縣,民眾服務,52,停車場地,跑馬古道南口停車場,24.838077994127193,121.7726829998293
G,宜蘭縣,民眾服務,52,停車場地,山泉大飯店停車場,24.8307799968109,121.77831599984842
G,宜蘭縣,民眾服務,52,停車場地,礁溪公園停車場,24.83147501130475,121.77564499993409
G,宜蘭縣,民眾服務,52,停車場地,五峰旗停車場,24.829585011297425,121.7519739999371
G,宜蘭縣,民眾服務,52,停車場地,礁溪鄉公共造產第一停車場,24.820090001821907,121.7705169998772
G,宜蘭縣,民眾服務,52,停車場地,礁溪鄉公共造產第三停車場,24.82004800143426,121.76893699988159
G,宜蘭縣,民眾服務,52,停車場地,親水公園停車場,24.671576006687108,121.81226899991015
G,宜蘭縣,民眾服務,52,停車場地,親水公園東側小客車停車場,24.675978005469556,121.8187519998932
G,宜蘭縣,民眾服務,52,停車場地,親水公園機車停車場,24.674551996064746,121.81760199983651
G,宜蘭縣,民眾服務,52,停車場地,國立傳統藝術中心北大門停車場,24.686093001355726,121.82421899987318
G,宜蘭縣,民眾服務,52,停車場地,國立傳統藝術中心機車停車場,24.68835700486677,121.82463099989616
G,宜蘭縣,民眾服務,52,停車場地,國立傳統藝術中心南大門停車場,24.684641997807113,121.82471699984228
G,宜蘭縣,民眾服務,52,停車場地,國立傳統藝術中心小型車停車場,24.684649993878516,121.82513299981545
G,宜蘭縣,民眾服務,52,停車場地,國立傳統藝術中心停車場,24.684036002270428,121.82561499987634
G,宜蘭縣,民眾服務,52,停車場地,冬山河親水公園西側停車場,24.670326999422915,121.81273199986002
G,宜蘭縣,民眾服務,52,停車場地,冬山河親水公園前方停車場,24.674040999729346,121.81699699986537
G,宜蘭縣,民眾服務,52,停車場地,冬山河親水公園後方停車場,24.67516900654144,121.81629799990029
G,宜蘭縣,民眾服務,52,停車場地,宜蘭運動公園停車場,24.738450010576855,121.7561619999405
G,宜蘭縣,民眾服務,52,停車場地,宜蘭運動公園停車場,24.74145100307395,121.75656299989113
G,宜蘭縣,民眾服務,52,停車場地,宜蘭設治紀念館停車場,24.75479500074791,121.75077599987934
G,宜蘭縣,民眾服務,52,停車場地,宜蘭市中央停車場,24.757034007948388,121.75541899992035
G,宜蘭縣,民眾服務,52,停車場地,宜蘭火車站停車場,24.754494004382515,121.75785399990316
G,宜蘭縣,民眾服務,52,停車場地,宜蘭運動公園機車停車場,24.739621002901615,121.75826999989346
G,宜蘭縣,民眾服務,52,停車場地,宜蘭火車站後站停車場,24.754634001159033,121.75919399988366
G,宜蘭縣,民眾服務,52,停車場地,宜蘭縣政府停車場,24.731633000649527,121.76430299987418
G,宜蘭縣,民眾服務,52,停車場地,中山公園地下停車場,24.7543269976333,121.75343299986436
G,宜蘭縣,民眾服務,52,停車場地,宜蘭市停車場,24.76036300006444,121.75088099987856
G,宜蘭縣,民眾服務,52,停車場地,Times(普客二四停車場)-宜蘭演藝廳停車,24.75367300282072,121.75270499988872
G,宜蘭縣,民眾服務,52,停車場地,大湖生態遊樂區停車場,24.741997006019613,121.69141399991454
G,宜蘭縣,民眾服務,52,停車場地,大湖風景特定區停車場,24.76451300598329,121.7297059999109
G,宜蘭縣,民眾服務,52,停車場地,羅東運動公園停車場,24.688026999620497,121.75191199986989
G,宜蘭縣,民眾服務,52,停車場地,羅東運動公園停車場,24.681258998907584,121.7525719998651
G,宜蘭縣,民眾服務,52,停車場地,羅東運動公園停車場,24.684616010834542,121.75460999994297
G,宜蘭縣,民眾服務,52,停車場地,羅東運動公園停車場,24.682300003584626,121.75756699989927
G,宜蘭縣,民眾服務,52,停車場地,天津路平面停車場,24.678702002316022,121.7693259998835
G,宜蘭縣,民眾服務,52,停車場地,羅東國小地下停車場,24.672620006760447,121.77275299991197
G,宜蘭縣,民眾服務,52,停車場地,羅東鎮立體停車場,24.676194002199477,121.76772399988442
G,宜蘭縣,民眾服務,52,停車場地,Times(普客二四停車場)-羅東第一第二停車場,24.678818004739508,121.77047699990477
G,宜蘭縣,民眾服務,52,停車場地,長埤湖風景區停車場,24.643852000753164,121.61021999990044
G,宜蘭縣,民眾服務,52,停車場地,翠峰湖停車場,24.51064400817277,121.60780399994405
G,宜蘭縣,民眾服務,52,停車場地,碧候停車場,24.476502009957073,121.78454999993032
G,宜蘭縣,民眾服務,52,停車場地,澳花停車場,24.331429997667,121.74292099986955
G,宜蘭縣,民眾服務,52,停車場地,公正地下停車場,24.678863082442895,121.76712827114811
G,宜蘭縣,民眾服務,52,停車場地,分洪堰風景區停車場,24.68675999592997,121.72802599985557
G,宜蘭縣,民眾服務,52,停車場地,廣興農場停車場,24.683630010587667,121.73356599994358
G,宜蘭縣,民眾服務,52,停車場地,新寮停車場,24.623459000074362,121.75228499987702
G,宜蘭縣,民眾服務,52,停車場地,太平山停車場,24.57320199806469,121.49649799991323
G,宜蘭縣,民眾服務,52,停車場地,玉蘭茶園停車場,24.66524499747943,121.59289499989376
G,宜蘭縣,民眾服務,52,停車場地,明池森林遊樂區停車場,24.65253799874901,121.46637699992415
G,宜蘭縣,民眾服務,52,停車場地,松羅停車場,24.640419006070044,121.48378399994654
G,宜蘭縣,民眾服務,52,停車場地,棲蘭森林遊樂區停車場,24.58113300735414,121.48974399994802
G,宜蘭縣,民眾服務,52,停車場地,太平山森林遊樂區停車場,24.500687007143636,121.53066899994379
G,宜蘭縣,民眾服務,52,停車場地,武荖坑風景區第一停車場,24.612261004780837,121.81332099989665
G,宜蘭縣,民眾服務,52,停車場地,武荖風景區第三停車場,24.604577003481545,121.81297799988268
G,宜蘭縣,民眾服務,52,停車場地,武荖坑風景區大門停車場,24.61248800639316,121.81397599990983
G,宜蘭縣,民眾服務,52,停車場地,武荖坑風景區第二停車場,24.607019006061748,121.81349399990614
G,宜蘭縣,民眾服務,52,停車場地,蘇澳冷泉停車場,24.59952700130233,121.84937999986909
G,宜蘭縣,民眾服務,52,停車場地,烏巖角停車場,24.531062994943824,121.86556199981548
G,宜蘭縣,民眾服務,52,停車場地,台汽南方澳站停車場,24.58043200863739,121.8703789999147
G,宜蘭縣,民眾服務,52,停車場地,中興嘟嘟房停車場-南方澳站,24.582381005044123,121.86524899989139
G,宜蘭縣,民眾服務,53,服務性設施,中華電信-頭城服務中心,24.858516997892586,121.82311499984141
G,宜蘭縣,民眾服務,53,服務性設施,台灣省自來水頭城營運所,24.859516007037442,121.81565499990232
G,宜蘭縣,民眾服務,53,服務性設施,宜蘭縣頭城鎮公所,24.859256002125925,121.82328799986965
G,宜蘭縣,民眾服務,53,服務性設施,宜蘭縣立圖書館頭城分館,24.85387999819521,121.82103899985088
G,宜蘭縣,民眾服務,53,服務性設施,宜蘭縣頭城鎮清潔隊,24.859236002320763,121.823584999869
G,宜蘭縣,民眾服務,53,服務性設施,宜蘭縣頭城鎮清潔隊,24.859236002320763,121.823584999869
G,宜蘭縣,民眾服務,53,服務性設施,宜蘭縣頭城鎮立托兒所,24.859236002320763,121.823584999869
G,宜蘭縣,民眾服務,53,服務性設施,宜蘭縣頭城鎮立托兒所,24.859236002320763,121.823584999869
G,宜蘭縣,民眾服務,53,服務性設施,中華電信-礁溪服務中心,24.821108998417436,121.7697869998627
G,宜蘭縣,民眾服務,53,服務性設施,礁溪協天廟,24.81841799442524,121.76918999984025
G,宜蘭縣,民眾服務,53,服務性設施,宜蘭縣礁溪鄉公所,24.823693010002085,121.77124699993315
G,宜蘭縣,民眾服務,53,服務性設施,宜蘭縣礁溪鄉公所,24.823693010002085,121.77124699993315
G,宜蘭縣,民眾服務,53,服務性設施,宜蘭縣礁溪鄉立托兒所,24.782849996280017,121.76722599985031
G,宜蘭縣,民眾服務,53,服務性設施,宜蘭縣礁溪鄉立圖書館,24.817129003518687,121.76792299989259
G,宜蘭縣,民眾服務,53,服務性設施,宜蘭縣礁溪鄉清潔隊,24.823455010042352,121.77132399993468
G,宜蘭縣,民眾服務,53,服務性設施,宜蘭縣礁溪鄉觀光產業發展所,24.823455010042352,121.77132399993468
G,宜蘭縣,民眾服務,53,服務性設施,宜蘭縣壯圍鄉公所,24.74694200776223,121.78577299991449
G,宜蘭縣,民眾服務,53,服務性設施,宜蘭縣壯圍鄉公所,24.74694200776223,121.78577299991449
G,宜蘭縣,民眾服務,53,服務性設施,宜蘭縣壯圍鄉清潔隊,24.7469410110859,121.7857699999354
G,宜蘭縣,民眾服務,53,服務性設施,宜蘭縣壯圍鄉清潔隊,24.7469410110859,121.7857699999354
G,宜蘭縣,民眾服務,53,服務性設施,宜蘭縣壯圍鄉立圖書館,24.7469410110859,121.7857699999354
G,宜蘭縣,民眾服務,53,服務性設施,宜蘭縣壯圍鄉立圖書館,24.7469410110859,121.7857699999354
G,宜蘭縣,民眾服務,53,服務性設施,宜蘭縣壯圍鄉立托兒所,24.7469410110859,121.7857699999354
G,宜蘭縣,民眾服務,53,服務性設施,宜蘭縣壯圍鄉立托兒所,24.7469410110859,121.7857699999354
G,宜蘭縣,民眾服務,53,服務性設施,"My Phone台灣大哥大-宜蘭中山二直營服務中心",24.756214000842885,121.75219299987695
G,宜蘭縣,民眾服務,53,服務性設施,亞太行動寬頻電信-宜蘭神農加盟服務中心,24.750587994764707,121.75062699984768
G,宜蘭縣,民眾服務,53,服務性設施,台灣自來水宜蘭北區服務所,24.75007600831597,121.75559899992615
G,宜蘭縣,民眾服務,53,服務性設施,台灣省自來水宜蘭營運所,24.748857001735303,121.75292599988471
G,宜蘭縣,民眾服務,53,服務性設施,中華電信-宜蘭中山特約服務中心,24.758243003697494,121.75266999989353
G,宜蘭縣,民眾服務,53,服務性設施,中華電信-宜蘭營運處,24.754960007489583,121.76280399991825
G,宜蘭縣,民眾服務,53,服務性設施,威寶電信-宜蘭舊城東特約服務中心,24.758161000550963,121.75647599987725
G,宜蘭縣,民眾服務,53,服務性設施,威寶電信-宜蘭健康特約服務中心,24.74970299767911,121.75070099985795
G,宜蘭縣,民眾服務,53,服務性設施,宜蘭縣宜蘭巿公所,24.751985995835614,121.75339599985189
G,宜蘭縣,民眾服務,53,服務性設施,宜蘭縣宜蘭巿公所,24.751985995835614,121.75339599985189
G,宜蘭縣,民眾服務,53,服務性設施,宜蘭縣宜蘭巿公所,24.751985995835614,121.75339599985189
G,宜蘭縣,民眾服務,53,服務性設施,宜蘭縣宜蘭巿公所,24.751985995835614,121.75339599985189
G,宜蘭縣,民眾服務,53,服務性設施,宜蘭縣宜蘭巿公所,24.751985995835614,121.75339599985189
G,宜蘭縣,民眾服務,53,服務性設施,台灣電力公司宜蘭區營業處,24.760177005560905,121.75037699990337
G,宜蘭縣,民眾服務,53,服務性設施,宜蘭縣立圖書館宜蘭分館,24.752428007804824,121.75446099991801
G,宜蘭縣,民眾服務,53,服務性設施,宜蘭縣宜蘭市市場管理所,24.75198300568008,121.75339399990389
G,宜蘭縣,民眾服務,53,服務性設施,宜蘭縣宜蘭市市場管理所,24.75198300568008,121.75339399990389
G,宜蘭縣,民眾服務,53,服務性設施,宜蘭縣宜蘭市市場管理所,24.75198300568008,121.75339399990389
G,宜蘭縣,民眾服務,53,服務性設施,宜蘭縣宜蘭市市場管理所,24.75198300568008,121.75339399990389
G,宜蘭縣,民眾服務,53,服務性設施,宜蘭縣宜蘭市市場管理所,24.75198300568008,121.75339399990389
G,宜蘭縣,民眾服務,53,服務性設施,宜蘭縣宜蘭市清潔隊,24.751985995835614,121.75339599985189
G,宜蘭縣,民眾服務,53,服務性設施,宜蘭縣宜蘭市清潔隊,24.751985995835614,121.75339599985189
G,宜蘭縣,民眾服務,53,服務性設施,宜蘭縣宜蘭市清潔隊,24.751985995835614,121.75339599985189
G,宜蘭縣,民眾服務,53,服務性設施,宜蘭縣宜蘭市清潔隊,24.751985995835614,121.75339599985189
G,宜蘭縣,民眾服務,53,服務性設施,宜蘭縣宜蘭市清潔隊,24.751985995835614,121.75339599985189
G,宜蘭縣,民眾服務,53,服務性設施,宜蘭縣宜蘭市立托兒所,24.75294300427962,121.7528249999024
G,宜蘭縣,民眾服務,53,服務性設施,台灣自來水第八區管理處,24.746298011129337,121.72161699993941
G,宜蘭縣,民眾服務,53,服務性設施,宜蘭縣員山鄉公所,24.743401999020485,121.72321099986976
G,宜蘭縣,民眾服務,53,服務性設施,宜蘭縣員山鄉公所,24.743401999020485,121.72321099986976
G,宜蘭縣,民眾服務,53,服務性設施,宜蘭縣立圖書館員山分館,24.74515899643133,121.72262599985567
G,宜蘭縣,民眾服務,53,服務性設施,宜蘭縣員山鄉清潔隊,24.74340100230097,121.72320999989546
G,宜蘭縣,民眾服務,53,服務性設施,宜蘭縣員山鄉清潔隊,24.74340100230097,121.72320999989546
G,宜蘭縣,民眾服務,53,服務性設施,宜蘭縣員山鄉立托兒所,24.74340100230097,121.72320999989546
G,宜蘭縣,民眾服務,53,服務性設施,宜蘭縣員山鄉立托兒所,24.74340100230097,121.72320999989546
G,宜蘭縣,民眾服務,53,服務性設施,"My Phone台灣大哥大-羅東興直營服務中心",24.680474001428664,121.76928299987664
G,宜蘭縣,民眾服務,53,服務性設施,亞太行動寬頻電信-羅東興東南加盟服務中心,24.67491099776813,121.76754399985923
G,宜蘭縣,民眾服務,53,服務性設施,亞太行動寬頻電信-宜蘭縣,24.679042000815443,121.76865799988133
G,宜蘭縣,民眾服務,53,服務性設施,台灣省自來水羅東營運所,24.675110995681685,121.76317799985179
G,宜蘭縣,民眾服務,53,服務性設施,中華電信-羅東興東特約服務中心,24.681545998188184,121.76948599986434
G,宜蘭縣,民眾服務,53,服務性設施,中華電信-羅東中正特約服務中心,24.670820997619252,121.77080099985321
G,宜蘭縣,民眾服務,53,服務性設施,中華電信-羅東服務中心,24.67850200940076,121.77070499992605
G,宜蘭縣,民眾服務,53,服務性設施,遠傳電信-宜蘭羅東門市,24.680474001428664,121.76928299987664
G,宜蘭縣,民眾服務,53,服務性設施,威寶電信-羅東興東南特約服務中心,24.675067006810853,121.76758199991495
G,宜蘭縣,民眾服務,53,服務性設施,威寶電信-羅東民權特約服務中心,24.675668000355753,121.76944599987159
G,宜蘭縣,民眾服務,53,服務性設施,宜蘭縣羅東鎮公所,24.6769430010774,121.76697899988059
G,宜蘭縣,民眾服務,53,服務性設施,宜蘭縣羅東鎮公所,24.6769430010774,121.76697899988059
G,宜蘭縣,民眾服務,53,服務性設施,宜蘭縣立圖書館羅東分館,24.670045999451336,121.76596999986963
G,宜蘭縣,民眾服務,53,服務性設施,宜蘭縣羅東鎮公有市場管理所,24.67694399772796,121.76698299985989
G,宜蘭縣,民眾服務,53,服務性設施,宜蘭縣羅東鎮公有市場管理所,24.67694399772796,121.76698299985989
G,宜蘭縣,民眾服務,53,服務性設施,宜蘭縣羅東鎮公用事業管理所,24.67694399772796,121.76698299985989
G,宜蘭縣,民眾服務,53,服務性設施,宜蘭縣羅東鎮公用事業管理所,24.67694399772796,121.76698299985989
G,宜蘭縣,民眾服務,53,服務性設施,宜蘭縣羅東鎮立殯葬管理所,24.67694399772796,121.76698299985989
G,宜蘭縣,民眾服務,53,服務性設施,宜蘭縣羅東鎮立殯葬管理所,24.67694399772796,121.76698299985989
G,宜蘭縣,民眾服務,53,服務性設施,宜蘭縣羅東鎮清潔隊,24.67694399772796,121.76698299985989
G,宜蘭縣,民眾服務,53,服務性設施,宜蘭縣羅東鎮清潔隊,24.67694399772796,121.76698299985989
G,宜蘭縣,民眾服務,53,服務性設施,宜蘭縣羅東鎮立托兒所,24.67694399772796,121.76698299985989
G,宜蘭縣,民眾服務,53,服務性設施,宜蘭縣羅東鎮立托兒所,24.67694399772796,121.76698299985989
G,宜蘭縣,民眾服務,53,服務性設施,宜蘭縣五結鄉公所,24.68471700873306,121.79845699992144
G,宜蘭縣,民眾服務,53,服務性設施,宜蘭縣五結鄉立托兒所,24.669272998076433,121.82375299984605
G,宜蘭縣,民眾服務,53,服務性設施,宜蘭縣五結鄉立托兒所,24.669272998076433,121.82375299984605
G,宜蘭縣,民眾服務,53,服務性設施,宜蘭縣五結鄉立圖書館,24.684327008843482,121.7983149999246
G,宜蘭縣,民眾服務,53,服務性設施,宜蘭縣五結鄉立圖書館,24.684327008843482,121.7983149999246
G,宜蘭縣,民眾服務,53,服務性設施,宜蘭縣五結鄉清潔隊,24.68470299656567,121.79836999984899
G,宜蘭縣,民眾服務,53,服務性設施,宜蘭縣五結鄉清潔隊,24.68470299656567,121.79836999984899
G,宜蘭縣,民眾服務,53,服務性設施,台灣省自來水三星營運所,24.666653005634423,121.65447099991864
G,宜蘭縣,民眾服務,53,服務性設施,中華電信-三星服務中心,24.666790998804792,121.65244799988298
G,宜蘭縣,民眾服務,53,服務性設施,宜蘭縣大同鄉公所,24.683001006044584,121.62266499992677
G,宜蘭縣,民眾服務,53,服務性設施,宜蘭縣大同鄉清潔隊,24.677383007090647,121.60906099993761
G,宜蘭縣,民眾服務,53,服務性設施,宜蘭縣大同鄉清潔隊,24.677383007090647,121.60906099993761
G,宜蘭縣,民眾服務,53,服務性設施,宜蘭縣大同鄉立圖書館,24.67815199389059,121.6085859998701
G,宜蘭縣,民眾服務,53,服務性設施,宜蘭縣大同鄉立托兒所,24.677383007090647,121.60906099993761
G,宜蘭縣,民眾服務,53,服務性設施,宜蘭縣大同鄉立托兒所,24.677383007090647,121.60906099993761
G,宜蘭縣,民眾服務,53,服務性設施,亞太行動寬頻電信-蘇澳中山加盟服務中心,24.596114010432544,121.8519779999292
G,宜蘭縣,民眾服務,53,服務性設施,台灣省自來水蘇澳營運所,24.59228901008592,121.85277999992537
G,宜蘭縣,民眾服務,53,服務性設施,宜蘭縣蘇澳鎮公所,24.594626000499904,121.8426189998593
G,宜蘭縣,民眾服務,53,服務性設施,宜蘭縣蘇澳鎮公有零售市場,24.594411998245587,121.84215399984542
G,宜蘭縣,民眾服務,53,服務性設施,宜蘭縣蘇澳鎮公有零售市場,24.594411998245587,121.84215399984542
G,宜蘭縣,民眾服務,53,服務性設施,宜蘭縣蘇澳鎮清潔隊,24.594411998245587,121.84215399984542
G,宜蘭縣,民眾服務,53,服務性設施,宜蘭縣蘇澳鎮清潔隊,24.594411998245587,121.84215399984542
G,宜蘭縣,民眾服務,53,服務性設施,宜蘭縣蘇澳鎮立圖書館,24.594411998245587,121.84215399984542
G,宜蘭縣,民眾服務,53,服務性設施,宜蘭縣蘇澳鎮立圖書館,24.594411998245587,121.84215399984542
G,宜蘭縣,民眾服務,53,服務性設施,宜蘭縣蘇澳鎮立托兒所,24.594411998245587,121.84215399984542
G,宜蘭縣,民眾服務,53,服務性設施,宜蘭縣蘇澳鎮立托兒所,24.594411998245587,121.84215399984542
G,宜蘭縣,民眾服務,53,服務性設施,宜蘭縣南澳鄉公所,24.46662800911886,121.80515999992934
G,宜蘭縣,民眾服務,53,服務性設施,宜蘭縣立圖書館南澳分館,24.46600600636132,121.80371899991238
G,宜蘭縣,民眾服務,53,服務性設施,宜蘭縣南澳鄉清潔隊,24.466075997786305,121.80374599985515
G,宜蘭縣,民眾服務,53,服務性設施,宜蘭縣南澳鄉清潔隊,24.466075997786305,121.80374599985515
G,宜蘭縣,民眾服務,53,服務性設施,宜蘭縣南澳鄉立托兒所,24.46594800414422,121.80374199989885
G,宜蘭縣,民眾服務,53,服務性設施,宜蘭縣三星鄉公所,24.663270994444442,121.6552489998606
G,宜蘭縣,民眾服務,53,服務性設施,宜蘭縣三星鄉三星公有零售市場,24.66541700460643,121.65376899991482
G,宜蘭縣,民眾服務,53,服務性設施,宜蘭縣三星鄉清潔隊,24.66541700460643,121.65376899991482
G,宜蘭縣,民眾服務,53,服務性設施,宜蘭縣三星鄉立圖書館,24.66541700460643,121.65376899991482
G,宜蘭縣,民眾服務,53,服務性設施,宜蘭縣三星鄉立托兒所,24.66541700460643,121.65376899991482
G,宜蘭縣,民眾服務,53,服務性設施,台灣省自來水冬山營運所,24.640717008135677,121.75841399992652
G,宜蘭縣,民眾服務,53,服務性設施,中華電信-冬山服務中心,24.63207000255108,121.79471699987965
G,宜蘭縣,民眾服務,53,服務性設施,宜蘭縣冬山鄉公所,24.634532996852645,121.79225599985077
G,宜蘭縣,民眾服務,53,服務性設施,宜蘭縣立圖書館冬山分館,24.635839003925067,121.7909569998939
G,宜蘭縣,民眾服務,53,服務性設施,宜蘭縣冬山鄉立托兒所,24.624300000790896,121.75263599987792
G,宜蘭縣,民眾服務,53,服務性設施,宜蘭縣冬山鄉清潔隊,24.634543010385062,121.79215799993023
G,宜蘭縣,民眾服務,53,服務性設施,宜蘭縣冬山鄉清潔隊,24.634543010385062,121.79215799993023
G,宜蘭縣,民眾服務,53,服務性設施,宜蘭縣冬山鄉清潔隊,24.634543010385062,121.79215799993023
G,宜蘭縣,民眾服務,53,服務性設施,宜蘭縣冬山鄉清潔隊,24.634543010385062,121.79215799993023
G,宜蘭縣,民眾服務,53,服務性設施,中華電信-蘇澳服務中心,24.596006001305643,121.84593199986942
G,宜蘭縣,民眾服務,57,行政機關,宜蘭縣政府地方稅務局,24.74852793362084,121.75407204017296
G,宜蘭縣,民眾服務,57,行政機關,宜蘭縣交通部公路總局第四區養護工程處頭城工務段,24.83832105839782,121.79236152467715
G,宜蘭縣,民眾服務,57,行政機關,宜蘭縣宜蘭市老人會,24.752535911974068,121.7538789677077
G,宜蘭縣,民眾服務,57,行政機關,宜蘭縣宜蘭市農會,24.75934625935983,121.7572300022685
G,宜蘭縣,民眾服務,57,行政機關,宜蘭縣臺灣宜蘭地方法院宜蘭簡易庭,24.75233269640742,121.75258421977938
G,宜蘭縣,民眾服務,57,行政機關,宜蘭縣海岸安檢所,24.437633544350298,121.80036073126779
G,宜蘭縣,民眾服務,57,行政機關,宜蘭縣國道高速公路局頭城工務段,24.831533533574966,121.7917543810692
G,宜蘭縣,民眾服務,57,行政機關,宜蘭縣行政院國軍退除役官兵輔導委員會宜蘭農場,24.667094710201663,121.65291233344786
G,宜蘭縣,民眾服務,57,行政機關,宜蘭縣康復之友協會,24.751959929524276,121.75016694434755
G,宜蘭縣,民眾服務,57,行政機關,宜蘭縣南澳鄉民代表會,24.466217638083403,121.80335196866625
G,宜蘭縣,民眾服務,57,行政機關,宜蘭縣政府文化局,24.7491465065848,121.74509467239905
G,宜蘭縣,民眾服務,57,行政機關,宜蘭縣台灣自來水公司雪隧東口氣曝塔,24.84765240111743,121.79066815782907
G,宜蘭縣,民眾服務,57,行政機關,宜蘭縣台灣自來水公司大隱淨水場,24.65748370310539,121.71370168885299
G,宜蘭縣,民眾服務,57,行政機關,宜蘭縣臺灣菸酒股份有限公司宜蘭酒廠,24.757039629672345,121.74877104138135
G,宜蘭縣,民眾服務,57,行政機關,宜蘭縣鐵路工會宜蘭分會,24.753857937895297,121.75698863164988
G,宜蘭縣,民眾服務,57,行政機關,宜蘭縣三星鄉民代表會,24.665417797075015,121.65355563773882
G,宜蘭縣,民眾服務,57,行政機關,宜蘭縣交通部中央氣象局宜蘭氣象站,24.763806831250996,121.75620813088791
G,宜蘭縣,民眾服務,57,行政機關,交通部臺灣鐵路管理局宜蘭運務段,24.754276001417793,121.75879599988171
G,宜蘭縣,民眾服務,57,行政機關,宜蘭縣臺灣省宜蘭農田水利會蘇澳工作站,24.6235810258079,121.83526721772287
G,宜蘭縣,民眾服務,57,行政機關,宜蘭縣中華民國軍人之友社宜蘭縣軍人服務社,24.750844713461323,121.75519006175476
G,宜蘭縣,民眾服務,57,行政機關,宜蘭縣台灣自來水公司第八區管理處宜蘭南區服務所,24.67500709061624,121.76311901768136
G,宜蘭縣,民眾服務,57,行政機關,宜蘭縣交通部臺灣鐵路管理局宜蘭電務分駐所,24.753839071713745,121.75756301389161
G,宜蘭縣,民眾服務,57,行政機關,宜蘭縣國民教育輔導團,24.752605691569375,121.75547752945079
G,宜蘭縣,民眾服務,57,行政機關,宜蘭縣三星鄉公所三星鄉清潔隊,24.665360666451534,121.6535560317138
G,宜蘭縣,民眾服務,57,行政機關,宜蘭縣南澳鄉戶政事務所,24.466534045748507,121.80466327332142
G,宜蘭縣,民眾服務,57,行政機關,宜蘭縣交通部公路總局第四區養護工程處獨立山工務段,24.57472943886226,121.48060241220836
G,宜蘭縣,民眾服務,57,行政機關,宜蘭縣教師研習中心,24.752625410732062,121.755479803956
G,宜蘭縣,民眾服務,57,行政機關,宜蘭縣台灣自來水公司第八區管理處深溝物料廠,24.71989848518201,121.70589277307162
G,宜蘭縣,民眾服務,57,行政機關,宜蘭縣粉鳥林漁港安檢所,24.49708505786564,121.84244194763282
G,宜蘭縣,民眾服務,57,行政機關,宜蘭縣台灣自來水公司東澳淨水廠,24.521824775035288,121.83370822726339
G,宜蘭縣,民眾服務,57,行政機關,宜蘭縣臺灣省宜蘭農田水利會冬山工作站,24.635623060785537,121.78406015069748
G,宜蘭縣,民眾服務,57,行政機關,宜蘭縣交通部鐵路改建工程局東部工程處,24.751344862476987,121.75768031200238
G,宜蘭縣,民眾服務,57,行政機關,宜蘭縣臺灣菸酒股份有限公司宜蘭營運所,24.76996445864683,121.7571351622803
G,宜蘭縣,民眾服務,57,行政機關,宜蘭縣行政院勞工委員會勞工保險局宜蘭辦事處,24.748732205901945,121.74299456282219
G,宜蘭縣,民眾服務,57,行政機關,宜蘭縣竹安安檢所,24.82605960476804,121.82271229830202
G,宜蘭縣,民眾服務,57,行政機關,宜蘭縣台灣電力公司宜蘭區營業處配電中心,24.7559617040185,121.76238175212526
G,宜蘭縣,民眾服務,57,行政機關,宜蘭縣梗枋漁港安檢所,24.905406400205077,121.87068869889671
G,宜蘭縣,民眾服務,57,行政機關,宜蘭縣羅東鎮清潔隊,24.67676836547532,121.76692955003159
G,宜蘭縣,民眾服務,57,行政機關,宜蘭縣行政院海岸巡防署第一巡防區岸巡一二大隊,24.85031116249139,121.82762843267376
G,宜蘭縣,民眾服務,57,行政機關,宜蘭縣礁溪鄉戶政事務所,24.820729660415495,121.7699740932846
G,宜蘭縣,民眾服務,57,行政機關,宜蘭縣林務局大元山工作分站,24.57769670780747,121.67619758304808
G,宜蘭縣,民眾服務,57,行政機關,宜蘭縣蘇澳鎮民代表會,24.594436749741423,121.84149493160264
G,宜蘭縣,民眾服務,57,行政機關,宜蘭縣大福安檢所,24.786216203653478,121.81720736230683
G,宜蘭縣,民眾服務,57,行政機關,宜蘭縣台灣自來水公司柑仔坑淨水廠,24.650675115274762,121.64895893409857
G,宜蘭縣,民眾服務,57,行政機關,宜蘭縣特殊教育資源中心,24.752572625859433,121.7551870390137
G,宜蘭縣,民眾服務,57,行政機關,宜蘭縣漁業管理所,24.738628047468453,121.75537644330075
G,宜蘭縣,民眾服務,57,行政機關,宜蘭縣台灣電力公司過嶺服務所,24.764075934969394,121.81550261313174
G,宜蘭縣,民眾服務,57,行政機關,宜蘭縣內政部入出國及移民署宜蘭第二收容所,24.663108403775787,121.7438061774989
G,宜蘭縣,民眾服務,57,行政機關,宜蘭縣三星鄉戶政事務所,24.666761565546743,121.65219056686995
G,宜蘭縣,民眾服務,57,行政機關,宜蘭縣蕃薯寮漁港安檢所,24.952763263537964,121.91448765436242
G,宜蘭縣,民眾服務,57,行政機關,宜蘭縣台灣自來水公司第八區管理處宜蘭南區服務所,24.64087082024747,121.75820990480557
G,宜蘭縣,民眾服務,57,行政機關,宜蘭縣政府家庭暴力暨性侵害防治中心,24.7615078767145,121.75046202015159
G,宜蘭縣,民眾服務,57,行政機關,宜蘭縣台灣自來水公司第八區管理處廣興給水廠,24.67162479177724,121.75025027882214
G,宜蘭縣,民眾服務,57,行政機關,宜蘭縣臺灣省宜蘭農田水利會宜蘭工作站,24.74811280884792,121.75558629436337
G,宜蘭縣,民眾服務,57,行政機關,宜蘭縣審計部臺灣省宜蘭縣審計室,24.729492945543715,121.75867034931761
G,宜蘭縣,民眾服務,57,行政機關,宜蘭縣台灣電力公司冬山服務所,24.635884325280347,121.79097642079273
G,宜蘭縣,民眾服務,57,行政機關,宜蘭縣三星鄉公所,24.665480357955822,121.65355361223422
G,宜蘭縣,民眾服務,57,行政機關,宜蘭縣警察局大溪派出所,24.93983501121467,121.89212399992252
G,宜蘭縣,民眾服務,57,行政機關,宜蘭縣羅東鎮民代表會,24.676861779184517,121.7669616701703
G,宜蘭縣,民眾服務,57,行政機關,宜蘭縣台灣電力公司宜蘭區營業處,24.76021214524577,121.75031808812739
G,宜蘭縣,民眾服務,57,行政機關,宜蘭縣石城漁港安檢所,24.980384155418594,121.9510274194952
G,宜蘭縣,民眾服務,57,行政機關,宜蘭縣台灣電力公司蘭陽發電場員山分廠,24.64408948088587,121.59530457017455
G,宜蘭縣,民眾服務,57,行政機關,宜蘭縣臺灣省宜蘭農田水利會羅東工作站,24.679029612758466,121.75642392954259
G,宜蘭縣,民眾服務,57,行政機關,宜蘭縣台電員山服務所,24.74934969007346,121.71371823645353
G,宜蘭縣,民眾服務,57,行政機關,宜蘭縣白來分安檢所,24.330487835753683,121.76940430366342
G,宜蘭縣,民眾服務,57,行政機關,宜蘭縣五結鄉清潔隊,24.684863203764852,121.79869475872957
G,宜蘭縣,民眾服務,57,行政機關,宜蘭縣法務部調查局宜蘭調查局,24.76752382368548,121.75388036160074
G,宜蘭縣,民眾服務,57,行政機關,宜蘭縣台灣自來水公司宜蘭北區服務所頭城分所,24.85944774058755,121.81572403229525
G,宜蘭縣,民眾服務,57,行政機關,宜蘭縣台灣電力公司蘇澳服務所,24.596578007911987,121.83965295221414
G,宜蘭縣,民眾服務,57,行政機關,宜蘭縣教育部宜蘭聯絡處,24.75273893466437,121.74145459661587
G,宜蘭縣,民眾服務,57,行政機關,宜蘭縣羅東簡易庭,24.69573934018847,121.76705933981582
G,宜蘭縣,民眾服務,57,行政機關,宜蘭縣台灣自來水公司金洋淨水廠,24.42461817221628,121.74927531145785
G,宜蘭縣,民眾服務,57,行政機關,宜蘭縣宜蘭市社福大樓,24.752551257230607,121.75388018736334
G,宜蘭縣,民眾服務,57,行政機關,宜蘭縣壯圍鄉民代表會,24.74694684606422,121.78604743074148
G,宜蘭縣,民眾服務,57,行政機關,宜蘭縣臺灣宜蘭地方法院,24.727392890193045,121.7609769865214
G,宜蘭縣,民眾服務,57,行政機關,宜蘭縣台灣電力公司礁溪服務所,24.82613390501436,121.77271898554251
G,宜蘭縣,民眾服務,57,行政機關,宜蘭縣政府社會處,24.761507050410298,121.75044374341898
G,宜蘭縣,民眾服務,57,行政機關,宜蘭縣頭城鎮清潔隊,24.847503382890977,121.81560699181253
G,宜蘭縣,民眾服務,57,行政機關,宜蘭縣災害應變中心,24.748107224963203,121.75359700799163
G,宜蘭縣,民眾服務,57,行政機關,宜蘭縣臺灣省宜蘭農田水利會三星工作站,24.666699388799376,121.6533888220612
G,宜蘭縣,民眾服務,57,行政機關,宜蘭縣交通部臺灣區國道新建工程局第三區工程處,24.847529177118084,121.79303514784469
G,宜蘭縣,民眾服務,57,行政機關,宜蘭縣宜蘭市清潔隊,24.752360342985824,121.75423068178786
G,宜蘭縣,民眾服務,57,行政機關,宜蘭縣台灣自來水公司第八區管理處深溝給水廠,24.721028119783853,121.70628774187635
G,宜蘭縣,民眾服務,57,行政機關,宜蘭縣交通部臺灣鐵路管理局機務處七堵機務段宜蘭機務分段,24.752461360231585,121.75824825487526
G,宜蘭縣,民眾服務,57,行政機關,宜蘭縣林務局羅東林區管理處南澳工作站,24.467960469447778,121.79335075864893
G,宜蘭縣,民眾服務,57,行政機關,宜蘭縣南澳漁港安檢所,24.46093172910675,121.81966932631978
G,宜蘭縣,民眾服務,57,行政機關,宜蘭縣內政部入出國及移民署專勤事務第一大隊宜蘭專勤隊,24.682544700722744,121.76598061391391
G,宜蘭縣,民眾服務,57,行政機關,宜蘭縣宜蘭市金六結抽水站,24.75622143384487,121.74246081077864
G,宜蘭縣,民眾服務,57,行政機關,宜蘭縣行政院農業委員會畜產試驗所宜蘭分所,24.672612003536877,121.83202666769026
G,宜蘭縣,民眾服務,57,行政機關,宜蘭縣交通部公路總局第四區養護工程處,24.5966532530585,121.83470084738538
G,宜蘭縣,民眾服務,57,行政機關,宜蘭縣員山鄉民代表會,24.743354590238216,121.72308915147245
G,宜蘭縣,民眾服務,57,行政機關,宜蘭縣財政部臺灣省北區國稅局宜蘭縣分局(興建中),24.754125016735376,121.74622121358954
G,宜蘭縣,民眾服務,57,行政機關,宜蘭縣原住民事務所,24.73871970855844,121.75531574644612
G,宜蘭縣,民眾服務,57,行政機關,宜蘭縣冬山鄉戶政事務所,24.634960430597435,121.79041557020541
G,宜蘭縣,民眾服務,57,行政機關,宜蘭縣議會,24.729809829926424,121.76412409233237
G,宜蘭縣,民眾服務,57,行政機關,宜蘭縣台灣電力公司蘭陽發電廠天埤分廠,24.656194628379932,121.6176408780942
G,宜蘭縣,民眾服務,57,行政機關,宜蘭縣經濟部工業局龍德工業服務中心,24.633761401297456,121.828477305607
G,宜蘭縣,民眾服務,57,行政機關,宜蘭縣臺灣省宜蘭農田水利會,24.731196840275413,121.75752647265762
G,宜蘭縣,民眾服務,57,行政機關,宜蘭縣臺灣省北區國稅局宜蘭縣分局第二辦公室,24.749144750666204,121.7528895893132
G,宜蘭縣,民眾服務,57,行政機關,宜蘭縣行政院農業委員會花蓮區農業改良場蘭陽分場,24.685642416729472,121.71609967970277
G,宜蘭縣,民眾服務,57,行政機關,宜蘭縣礁溪鄉清潔隊,24.82355682080038,121.77121665172861
G,宜蘭縣,民眾服務,57,行政機關,宜蘭縣財政部臺灣省北區國稅局宜蘭縣分局,24.748465708736607,121.75407872353125
G,宜蘭縣,民眾服務,57,行政機關,宜蘭縣民用航空局飛航服務總台宜蘭定位臺,24.731990843952936,121.7413949012385
G,宜蘭縣,民眾服務,57,行政機關,宜蘭縣臺灣宜蘭地方法院檢察署,24.72819860464956,121.75948841294507
G,宜蘭縣,民眾服務,57,行政機關,宜蘭縣臺灣區漁業廣播電台宜蘭轉播站,24.75328503144079,121.73550524091503
G,宜蘭縣,民眾服務,57,行政機關,宜蘭縣臺灣省自來水公司第八區管理處,24.746275629153327,121.72157067004001
G,宜蘭縣,民眾服務,57,行政機關,宜蘭縣警察廣播電臺宜蘭臺,24.767426510352006,121.75636744117257
G,宜蘭縣,民眾服務,57,行政機關,宜蘭縣清水安檢所,24.69198490277891,121.83566823375504
G,宜蘭縣,民眾服務,57,行政機關,宜蘭縣行政院農業委員會林務局羅東林區管理處,24.683865524192132,121.77161897873206
G,宜蘭縣,民眾服務,57,行政機關,宜蘭縣交通部公路總局臺北區監理所宜蘭監理站,24.693984598771756,121.7688977478486
G,宜蘭縣,民眾服務,57,行政機關,宜蘭縣大同鄉清潔隊,24.67721524569251,121.60914402216375
G,宜蘭縣,民眾服務,57,行政機關,宜蘭縣新生抽水站,24.764254995276307,121.76149198940749
G,宜蘭縣,民眾服務,57,行政機關,宜蘭縣臺灣省林業試驗所福山分所,24.751240759635465,121.62604842350262
G,宜蘭縣,民眾服務,57,行政機關,宜蘭縣毒品危害防治中心,24.75853110805352,121.75449878852577
G,宜蘭縣,民眾服務,57,行政機關,宜蘭縣台灣自來水公司第八區管理處廣興第二取水站,24.670822743352183,121.75265843259817
G,宜蘭縣,民眾服務,57,行政機關,宜蘭縣員山鄉清潔隊,24.743479909499044,121.72324825890888
G,宜蘭縣,民眾服務,57,行政機關,宜蘭縣力行抽水站,24.762521321812752,121.76033360216289
G,宜蘭縣,民眾服務,57,行政機關,宜蘭縣臺灣鐵路管理局宜蘭電力段蘇澳電力分駐所,24.606545280281033,121.8292316187236
G,宜蘭縣,民眾服務,57,行政機關,宜蘭縣志願服務推廣中心,24.761493947519256,121.75046193645909
G,宜蘭縣,民眾服務,57,行政機關,宜蘭縣臺灣宜蘭地方法院,24.695654918056537,121.76708084021786
G,宜蘭縣,民眾服務,57,行政機關,宜蘭縣警察廣播電台宜蘭台機房,24.76946813486398,121.75740379401005
G,宜蘭縣,民眾服務,57,行政機關,宜蘭縣中華電信宜蘭服務中心,24.754957608417055,121.76272628942984
G,宜蘭縣,民眾服務,57,行政機關,宜蘭縣法務部行政執行署宜蘭行政執行處,24.752379439767072,121.75257538586908
G,宜蘭縣,民眾服務,57,行政機關,宜蘭縣正聲廣播公司宜蘭廣播電臺,24.752668845688376,121.73709544917172
G,宜蘭縣,民眾服務,57,行政機關,宜蘭縣中華電信臺北營運處宜蘭營運中心,24.752301485088413,121.76978913498412
G,宜蘭縣,民眾服務,57,行政機關,宜蘭縣宜蘭政府倉庫區,24.756918001720056,121.7597729171188
G,宜蘭縣,民眾服務,57,行政機關,宜蘭縣台灣自來水公司第八營管處龍潭淨水廠,24.780754800624717,121.73155265731138
G,宜蘭縣,民眾服務,57,行政機關,宜蘭縣中華電信冬山服務中心,24.631754010180348,121.79482958708289
G,宜蘭縣,民眾服務,57,行政機關,宜蘭縣中央研究院動物研究所臨海研究站,24.82131288790143,121.80142367612966
G,宜蘭縣,民眾服務,57,行政機關,宜蘭縣宜蘭張老師中心,24.752504305497933,121.7531025106019
G,宜蘭縣,民眾服務,57,行政機關,宜蘭縣台灣自來水公司第八區管理處松羅淨水場,24.667402797163813,121.56453349058907
G,宜蘭縣,民眾服務,57,行政機關,宜蘭縣大里漁港安檢所,24.962755994465347,121.92150791209097
G,宜蘭縣,民眾服務,57,行政機關,宜蘭縣警察局大里派出所,24.964252001672097,121.92137399984641
G,宜蘭縣,民眾服務,57,行政機關,宜蘭縣警察局大溪派出所,24.93983501121467,121.89212399992252
G,宜蘭縣,民眾服務,57,行政機關,頭城鎮第五公墓火化場,24.85923900743146,121.82358599990961
G,宜蘭縣,民眾服務,57,行政機關,頭城鎮第五公墓火化場,24.85923900743146,121.82358599990961
G,宜蘭縣,民眾服務,57,行政機關,宜蘭縣台灣自來水公司第八區管理處宜蘭北區服務所,24.74917207778704,121.75287907669637
G,宜蘭縣,民眾服務,57,行政機關,宜蘭縣中華電信礁溪服務中心,24.8211163842071,121.76986433801225
G,宜蘭縣,民眾服務,57,行政機關,宜蘭縣南澳鄉公所,24.466167275851937,121.80371271242329
G,宜蘭縣,民眾服務,57,行政機關,宜蘭縣林務局羅東林區管理處冬山工作站,24.606099525926847,121.74775277172047
G,宜蘭縣,民眾服務,57,行政機關,宜蘭縣選舉委員會,24.730228693189478,121.76211651230992
G,宜蘭縣,民眾服務,57,行政機關,宜蘭縣退輔會榮民森林保育事業管理處,24.75526251234328,121.7606557075451
G,宜蘭縣,民眾服務,57,行政機關,宜蘭縣宜蘭地政事務所,24.754526940539776,121.74570034666614
G,宜蘭縣,民眾服務,57,行政機關,宜蘭縣政府社會福利館,24.7614956903586,121.75044275564395
G,宜蘭縣,民眾服務,57,行政機關,宜蘭縣大同鄉戶政事務所,24.677836188151453,121.60816154738778
G,宜蘭縣,民眾服務,57,行政機關,宜蘭縣大溪第二漁港安檢所,24.941879298559176,121.90315851573857
G,宜蘭縣,民眾服務,57,行政機關,宜蘭縣蘭陽老人福利協進會,24.752520559680594,121.75387439645127
G,宜蘭縣,民眾服務,57,行政機關,宜蘭縣大同鄉民代表會,24.677112252942663,121.60921292486529
G,宜蘭縣,民眾服務,57,行政機關,宜蘭縣台灣電力公司大同服務所,24.57478042454704,121.4772276604989
G,宜蘭縣,民眾服務,57,行政機關,宜蘭縣財政部國有財產局臺灣北區辦事處宜蘭分處,24.754486019361504,121.74569957843427
G,宜蘭縣,民眾服務,57,行政機關,宜蘭縣臺灣省宜蘭農田水利會五結工作站,24.68600598174567,121.79733625012695
G,宜蘭縣,民眾服務,57,行政機關,宜蘭縣家庭教育中心,24.75254880119137,121.75518222854569
G,宜蘭縣,民眾服務,57,行政機關,宜蘭縣羅東鎮戶政事務所,24.6786292830481,121.76890396035996
G,宜蘭縣,民眾服務,57,行政機關,宜蘭縣台灣自來水公司天送埤淨水廠,24.659642431012653,121.60885247974228
G,宜蘭縣,民眾服務,57,行政機關,宜蘭縣臺灣省宜蘭農田水利會礁溪工作站,24.785334789178705,121.76178359059668
G,宜蘭縣,民眾服務,57,行政機關,宜蘭縣寒溪淨水場,24.606959270846087,121.68601271979858
G,宜蘭縣,民眾服務,57,行政機關,宜蘭縣五結鄉民代表會,24.684632993090926,121.79835560273602
G,宜蘭縣,民眾服務,57,行政機關,宜蘭縣臺灣省宜蘭農田水利會頭城工作站,24.844504952911738,121.80619253626634
G,宜蘭縣,民眾服務,57,行政機關,宜蘭縣國防部軍備局生產製造中心第204廠,24.824376684242047,121.77033131495152
G,宜蘭縣,民眾服務,57,行政機關,宜蘭縣烏石漁港安檢所,24.86922633073344,121.83696248807647
G,宜蘭縣,民眾服務,57,行政機關,宜蘭縣頭城鎮公所,24.859303716120056,121.82345306374617
G,宜蘭縣,民眾服務,57,行政機關,宜蘭縣大坑罟安檢所,24.624369594095157,121.85109118006241
G,宜蘭縣,民眾服務,57,行政機關,宜蘭縣文昌抽水站,24.758757245650287,121.74650094471038
G,宜蘭縣,民眾服務,57,行政機關,宜蘭縣宜東抽水站,24.75513468902808,121.77923972511049
G,宜蘭縣,民眾服務,57,行政機關,宜蘭縣政府衛生局,24.758570726759167,121.75447763217497
G,宜蘭縣,民眾服務,57,行政機關,宜蘭縣礁溪鄉民代表會,24.82343037602511,121.7711664176449
G,宜蘭縣,民眾服務,57,行政機關,宜蘭縣臺灣省宜蘭農田水利會員山工作站,24.74572505619389,121.72768279129168
G,宜蘭縣,民眾服務,57,行政機關,宜蘭縣漢聲廣播電臺宜蘭臺,24.753287110826584,121.73547760007926
G,宜蘭縣,民眾服務,57,行政機關,宜蘭縣蘇澳鎮清潔隊,24.594278534044633,121.8421388629237
G,宜蘭縣,民眾服務,57,行政機關,宜蘭縣林務局羅東林區管理處太平山工作站,24.575203021491962,121.47606615564473
G,宜蘭縣,民眾服務,57,行政機關,宜蘭縣臺灣省宜蘭農田水利會壯圍工作站,24.766893206033807,121.75762431390226
G,宜蘭縣,民眾服務,57,行政機關,宜蘭縣退輔會榮民森林保育事業管理處棲蘭山工作站,24.605486567508,121.50081129317165
G,宜蘭縣,民眾服務,57,行政機關,宜蘭縣五結鄉調解委員會,24.684591066896413,121.7983611853462
G,宜蘭縣,民眾服務,57,行政機關,宜蘭縣壯圍鄉戶政事務所,24.746645286101824,121.78595579815854
G,宜蘭縣,民眾服務,57,行政機關,宜蘭縣消防局頭城消防分隊,24.862577002372856,121.82680299987523
G,宜蘭縣,民眾服務,57,行政機關,宜蘭縣警察局福成派出所,24.863041005087524,121.80792599989125
G,宜蘭縣,民眾服務,57,行政機關,宜蘭縣警察局二城派出所,24.839111004470954,121.79220799989017
G,宜蘭縣,民眾服務,57,行政機關,宜蘭縣警察局梗枋派出所,24.900015003963656,121.86351699987124
G,宜蘭縣,民眾服務,57,行政機關,宜蘭縣警察局頭城分駐所,24.86270100189621,121.82674999987357
G,宜蘭縣,民眾服務,57,行政機關,國公路警察局第九警察隊部,24.83792200023057,121.79078899986676
G,宜蘭縣,民眾服務,57,行政機關,榮民工程股份有限公司北宜第二施工處機料組,24.845246011107626,121.79465099993385
G,宜蘭縣,民眾服務,57,行政機關,公路總局第四區養護工程處頭城工務段,24.838477006210304,121.792688999902
G,宜蘭縣,民眾服務,57,行政機關,行政院海岸巡防署海岸巡防總局北部地區巡防局岸巡第一二大隊,24.850097998592283,121.8274729998492
G,宜蘭縣,民眾服務,57,行政機關,宜蘭縣頭城鎮鎮民代表會,24.85923900743146,121.82358599990961
G,宜蘭縣,民眾服務,57,行政機關,宜蘭縣頭城鎮鎮民代表會,24.85923900743146,121.82358599990961
G,宜蘭縣,民眾服務,57,行政機關,宜蘭縣頭城鎮衛生所,24.856539000608795,121.82072999986272
G,宜蘭縣,民眾服務,57,行政機關,宜蘭縣頭城鎮戶政事務所,24.86260500305617,121.82666699987948
G,宜蘭縣,民眾服務,57,行政機關,宜蘭縣頭城鎮戶政事務所,24.86260500305617,121.82666699987948
G,宜蘭縣,民眾服務,57,行政機關,宜蘭縣頭城鎮戶政事務所,24.86260500305617,121.82666699987948
G,宜蘭縣,民眾服務,57,行政機關,宜蘭縣消防局礁溪消防分隊,24.82701999492715,121.77380999984068
G,宜蘭縣,民眾服務,57,行政機關,林務局羅東林區管理處礁溪工作站,24.832285003638372,121.77413999989562
G,宜蘭縣,民眾服務,57,行政機關,林務局羅東林區管理處礁溪工作站,24.832285003638372,121.77413999989562
G,宜蘭縣,民眾服務,57,行政機關,宜蘭縣警察局龍潭派出所,24.777336999617685,121.74328999987297
G,宜蘭縣,民眾服務,57,行政機關,宜蘭縣警察局四城派出所,24.787826007693155,121.76137899992244
G,宜蘭縣,民眾服務,57,行政機關,宜蘭縣警察局四城派出所,24.787826007693155,121.76137899992244
G,宜蘭縣,民眾服務,57,行政機關,宜蘭縣警察局三城派出所,24.810097998396053,121.7668689998597
G,宜蘭縣,民眾服務,57,行政機關,宜蘭縣警察局礁溪派出所,24.82720199522277,121.77394499984094
G,宜蘭縣,民眾服務,57,行政機關,宜蘭縣警察局礁溪派出所,24.82720199522277,121.77394499984094
G,宜蘭縣,民眾服務,57,行政機關,交通部臺灣鐵路管理局宜蘭電力段,24.828221999704528,121.77702299986247
G,宜蘭縣,民眾服務,57,行政機關,交通部臺灣區國道高速公路局北區工程處頭城工務段,24.830698000874197,121.79108899987139
G,宜蘭縣,民眾服務,57,行政機關,宜蘭縣礁溪鄉鄉民代表會,24.818555002365255,121.76961299988555
G,宜蘭縣,民眾服務,57,行政機關,宜蘭縣礁溪鄉戶政事務所,24.82087800936433,121.7696349999318
G,宜蘭縣,民眾服務,57,行政機關,宜蘭縣警察局礁溪分局,24.82720199522277,121.77394499984094
G,宜蘭縣,民眾服務,57,行政機關,宜蘭縣警察局礁溪分局,24.82720199522277,121.77394499984094
G,宜蘭縣,民眾服務,57,行政機關,宜蘭縣審計室,24.82107699643576,121.77079599984881
G,宜蘭縣,民眾服務,57,行政機關,宜蘭縣礁溪鄉衛生所,24.82087800936433,121.7696349999318
G,宜蘭縣,民眾服務,57,行政機關,宜蘭縣消防局壯圍消防分隊,24.746344998243416,121.78639099985642
G,宜蘭縣,民眾服務,57,行政機關,宜蘭縣警察局大福派出所,24.800142007648063,121.81693999991089
G,宜蘭縣,民眾服務,57,行政機關,宜蘭縣警察局忠孝派出所,24.76452001033304,121.80292099992991
G,宜蘭縣,民眾服務,57,行政機關,宜蘭縣警察局壯圍分駐所,24.74638100098089,121.78631499987297
G,宜蘭縣,民眾服務,57,行政機關,宜蘭縣警察局壯圍分駐所,24.74638100098089,121.78631499987297
G,宜蘭縣,民眾服務,57,行政機關,宜蘭縣警察局美城派出所,24.77827700115748,121.78942799986969
G,宜蘭縣,民眾服務,57,行政機關,宜蘭縣壯圍鄉鄉民代表會,24.746516996053288,121.78585599984564
G,宜蘭縣,民眾服務,57,行政機關,宜蘭縣壯圍鄉戶政事務所,24.74658099682957,121.78576599984304
G,宜蘭縣,民眾服務,57,行政機關,宜蘭縣壯圍鄉衛生所,24.74672000993576,121.78628899992918
G,宜蘭縣,民眾服務,57,行政機關,宜蘭縣警察局進士派出所,24.742886005147223,121.75452499990848
G,宜蘭縣,民眾服務,57,行政機關,台灣宜蘭地方法院宜蘭簡易庭,24.752554994792856,121.75264599984075
G,宜蘭縣,民眾服務,57,行政機關,宜蘭縣警察局中山派出所,24.761308993659668,121.75346999983974
G,宜蘭縣,民眾服務,57,行政機關,宜蘭縣警察局民族派出所,24.745378003103458,121.74354699989071
G,宜蘭縣,民眾服務,57,行政機關,鐵路警察局宜蘭分駐所,24.75496300898513,121.75853299992411
G,宜蘭縣,民眾服務,57,行政機關,宜蘭縣警察局延平派出所,24.75046700681903,121.77281099990753
G,宜蘭縣,民眾服務,57,行政機關,宜蘭縣工商(業)發展投資策進會,24.730557998980398,121.76276599987001
G,宜蘭縣,民眾服務,57,行政機關,宜蘭縣工商(業)發展投資策進會,24.730557998980398,121.76276599987001
G,宜蘭縣,民眾服務,57,行政機關,宜蘭縣消防局宜蘭消防分隊,24.755405004589292,121.75518299990158
G,宜蘭縣,民眾服務,57,行政機關,宜蘭縣消防局宜蘭消防分隊,24.755405004589292,121.75518299990158
G,宜蘭縣,民眾服務,57,行政機關,勞工保險局宜蘭辦事處,24.748682006433842,121.74297999991849
G,宜蘭縣,民眾服務,57,行政機關,宜蘭縣社會處,24.761678993904113,121.75056299983304
G,宜蘭縣,民眾服務,57,行政機關,宜蘭縣稅捐稽徵處,24.748498010692074,121.75402399994144
G,宜蘭縣,民眾服務,57,行政機關,礦務局宜蘭礦場保安中心,24.751945009904624,121.74432999993583
G,宜蘭縣,民眾服務,57,行政機關,宜蘭教養院籌備處,24.74959900057914,121.743055999882
G,宜蘭縣,民眾服務,57,行政機關,教育部宜蘭縣聯絡處,24.752701995265767,121.7414069998483
G,宜蘭縣,民眾服務,57,行政機關,宜蘭縣消防局第一消防大隊部,24.755405004589292,121.75518299990158
G,宜蘭縣,民眾服務,57,行政機關,宜蘭縣消防局第一消防大隊部,24.755405004589292,121.75518299990158
G,宜蘭縣,民眾服務,57,行政機關,宜蘭縣警察局新生派出所,24.769604997339048,121.75684399985815
G,宜蘭縣,民眾服務,57,行政機關,宜蘭縣警察局新民派出所,24.75741299891749,121.75399999986296
G,宜蘭縣,民眾服務,57,行政機關,宜蘭縣警察局新民派出所,24.75741299891749,121.75399999986296
G,宜蘭縣,民眾服務,57,行政機關,宜蘭縣警察局民權派出所,24.755329993998725,121.75533799984181
G,宜蘭縣,民眾服務,57,行政機關,農業委員會東區糧食管理處宜蘭辦事處,24.74821299792436,121.75440899986079
G,宜蘭縣,民眾服務,57,行政機關,宜蘭縣警政署警察電訊所,24.751392004454853,121.76847699989374
G,宜蘭縣,民眾服務,57,行政機關,調查局宜蘭縣調查站,24.767625000940797,121.75420999987864
G,宜蘭縣,民眾服務,57,行政機關,國有財產局台灣北區辦事處宜蘭分處,24.754419002179905,121.74569299988555
G,宜蘭縣,民眾服務,57,行政機關,內政部土地重劃工程處,24.76944099540169,121.75331999984589
G,宜蘭縣,民眾服務,57,行政機關,宜蘭縣政府地政處,24.730557998980398,121.76276599987001
G,宜蘭縣,民眾服務,57,行政機關,宜蘭縣政府地政處,24.730557998980398,121.76276599987001
G,宜蘭縣,民眾服務,57,行政機關,行政院農業委員會農糧署東區分署宜蘭辦事處,24.748060008667775,121.75428999992135
G,宜蘭縣,民眾服務,57,行政機關,行政院農業委員會農糧署東區分署宜蘭辦事處,24.748060008667775,121.75428999992135
G,宜蘭縣,民眾服務,57,行政機關,合作金庫銀行股份有限公司-宜蘭分行,24.755474006506386,121.75221899991571
G,宜蘭縣,民眾服務,57,行政機關,國防部後備司令部北部地區後備司令部宜蘭縣後備司令部,24.753106007561577,121.73817499991806
G,宜蘭縣,民眾服務,57,行政機關,國防部後備司令部北部地區後備司令部宜蘭縣後備司令部,24.753106007561577,121.73817499991806
G,宜蘭縣,民眾服務,57,行政機關,臺灣土地銀行-宜蘭分行,24.75498600931228,121.75576499993372
G,宜蘭縣,民眾服務,57,行政機關,交通部臺灣鐵路管理局七堵機務段宜蘭機務分段,24.752464005488946,121.75829999990412
G,宜蘭縣,民眾服務,57,行政機關,宜蘭縣政府教育資訊網路中心,24.76202500348856,121.75819999989602
G,宜蘭縣,民眾服務,57,行政機關,宜蘭縣政府教育資訊網路中心,24.76202500348856,121.75819999989602
G,宜蘭縣,民眾服務,57,行政機關,國防部後備司令部北部地區後備司令部後備901旅,24.753124009498265,121.73809999993036
G,宜蘭縣,民眾服務,57,行政機關,宜蘭縣選舉委員會,24.728653995225724,121.7659549998458
G,宜蘭縣,民眾服務,57,行政機關,宜蘭縣宜蘭市衛生所,24.74939300346119,121.75312099989385
G,宜蘭縣,民眾服務,57,行政機關,宜蘭縣政府文化局,24.74961499381588,121.74483799983686
G,宜蘭縣,民眾服務,57,行政機關,宜蘭縣環境保護局,24.7402530061611,121.75735599991383
G,宜蘭縣,民眾服務,57,行政機關,宜蘭縣政府衛生局,24.758658998917873,121.75450999986657
G,宜蘭縣,民眾服務,57,行政機關,交通部鐵路改建工程局東部工程,24.75130299699732,121.75777499985328
G,宜蘭縣,民眾服務,57,行政機關,宜蘭縣宜蘭地政事務所,24.754419002179905,121.74569299988555
G,宜蘭縣,民眾服務,57,行政機關,宜蘭縣政府,24.730557998980398,121.76276599987001
G,宜蘭縣,民眾服務,57,行政機關,宜蘭縣政府,24.730557998980398,121.76276599987001
G,宜蘭縣,民眾服務,57,行政機關,水利署第一河川局,24.750969005703617,121.75210799990893
G,宜蘭縣,民眾服務,57,行政機關,水利署第一河川局,24.750969005703617,121.75210799990893
G,宜蘭縣,民眾服務,57,行政機關,北區國稅局宜蘭縣分局第一辦公,24.748498010692074,121.75402399994144
G,宜蘭縣,民眾服務,57,行政機關,宜蘭縣宜蘭市戶政事務所,24.74917000366348,121.75306799989953
G,宜蘭縣,民眾服務,57,行政機關,宜蘭縣宜蘭市戶政事務所,24.74917000366348,121.75306799989953
G,宜蘭縣,民眾服務,57,行政機關,國軍退除役官兵輔導委員會,24.755711009318034,121.76015999993088
G,宜蘭縣,民眾服務,57,行政機關,宜蘭縣消防局,24.748145011388132,121.75352599994004
G,宜蘭縣,民眾服務,57,行政機關,宜蘭縣警察局,24.7491409970209,121.75380399985585
G,宜蘭縣,民眾服務,57,行政機關,宜蘭縣警察局宜蘭分局,24.755329993998725,121.75533799984181
G,宜蘭縣,民眾服務,57,行政機關,宜蘭縣議會,24.72971699844698,121.76437899985788
G,宜蘭縣,民眾服務,57,行政機關,宜蘭縣宜蘭市民代表會,24.75287999949236,121.75296099986791
G,宜蘭縣,民眾服務,57,行政機關,宜蘭縣宜蘭市民代表會,24.75287999949236,121.75296099986791
G,宜蘭縣,民眾服務,57,行政機關,台灣宜蘭地方法院,24.727499007916798,121.76141799992045
G,宜蘭縣,民眾服務,57,行政機關,交通部中央氣象局宜蘭氣象站,24.763377001270662,121.75685399988284
G,宜蘭縣,民眾服務,57,行政機關,宜蘭縣政府警察局保安警察隊,24.74913701013533,121.75380199993467
G,宜蘭縣,民眾服務,57,行政機關,宜蘭縣政府警察局交通警察隊,24.74913701013533,121.75380199993467
G,宜蘭縣,民眾服務,57,行政機關,宜蘭縣政府警察局少年警察隊,24.74913701013533,121.75380199993467
G,宜蘭縣,民眾服務,57,行政機關,宜蘭縣政府警察局民防管制中心,24.74913701013533,121.75380199993467
G,宜蘭縣,民眾服務,57,行政機關,宜蘭縣政府警察局刑事警察大隊,24.74913701013533,121.75380199993467
G,宜蘭縣,民眾服務,57,行政機關,宜蘭縣政府警察局婦幼警察隊,24.74913701013533,121.75380199993467
G,宜蘭縣,民眾服務,57,行政機關,臺灣省宜蘭農田水利會,24.754253999399538,121.75243899986711
G,宜蘭縣,民眾服務,57,行政機關,交通部臺灣鐵路管理局宜蘭運務段,24.754276001417793,121.75879599988171
G,宜蘭縣,民眾服務,57,行政機關,行政院國軍退除役官兵輔導委員會宜蘭縣榮民服務處,24.750639996989126,121.75825999985952
G,宜蘭縣,民眾服務,57,行政機關,行政院國軍退除役官兵輔導委員會宜蘭縣榮民服務處,24.750639996989126,121.75825999985952
G,宜蘭縣,民眾服務,57,行政機關,行政院衛生署宜蘭醫院,24.757857006766727,121.75403199991094
G,宜蘭縣,民眾服務,57,行政機關,臺灣菸酒股份有限公司宜蘭酒廠,24.75737600768262,121.74720699991917
G,宜蘭縣,民眾服務,57,行政機關,宜蘭縣政府地方稅務局,24.74849500558673,121.75402499991016
G,宜蘭縣,民眾服務,57,行政機關,宜蘭縣慢性病防治所,24.758658002153247,121.75451199988694
G,宜蘭縣,民眾服務,57,行政機關,宜蘭縣立體育場,24.740210997060004,121.75540199985659
G,宜蘭縣,民眾服務,57,行政機關,宜蘭縣漁業管理所,24.740210997060004,121.75540199985659
G,宜蘭縣,民眾服務,57,行政機關,宜蘭縣原住民事務所,24.740210997060004,121.75540199985659
G,宜蘭縣,民眾服務,57,行政機關,交通部台灣鐵路管理局宜蘭工務段,24.753571004758218,121.75745899990515
G,宜蘭縣,民眾服務,57,行政機關,交通部台灣鐵路管理局宜蘭工務段,24.753571004758218,121.75745899990515
G,宜蘭縣,民眾服務,57,行政機關,宜蘭縣史館,24.730683997679115,121.76223399985783
G,宜蘭縣,民眾服務,57,行政機關,台灣宜蘭地方法院檢察署,24.72816299856569,121.75938299986773
G,宜蘭縣,民眾服務,57,行政機關,宜蘭縣家庭教育中心,24.752526004985352,121.75507399990524
G,宜蘭縣,民眾服務,57,行政機關,法務部行政執行署宜蘭行政執行處,24.75234800050805,121.75269399987593
G,宜蘭縣,民眾服務,57,行政機關,宜蘭憲兵隊,24.747754994478182,121.7189939998494
G,宜蘭縣,民眾服務,57,行政機關,宜蘭縣警察局粗坑派出所,24.708261996848265,121.64837899987529
G,宜蘭縣,民眾服務,57,行政機關,宜蘭縣警察局大湖派出所,24.743071003821946,121.69761299990485
G,宜蘭縣,民眾服務,57,行政機關,宜蘭縣消防局員山消防分隊,24.74511200044812,121.7264419998807
G,宜蘭縣,民眾服務,57,行政機關,宜蘭縣消防局員山消防分隊,24.74511200044812,121.7264419998807
G,宜蘭縣,民眾服務,57,行政機關,宜蘭縣警察局惠好派出所,24.729217003362777,121.729213999895
G,宜蘭縣,民眾服務,57,行政機關,宜蘭縣警察局惠好派出所,24.729217003362777,121.729213999895
G,宜蘭縣,民眾服務,57,行政機關,宜蘭縣警察局內城派出所,24.715006011028358,121.69536999994929
G,宜蘭縣,民眾服務,57,行政機關,宜蘭縣警察局內城派出所,24.715006011028358,121.69536999994929
G,宜蘭縣,民眾服務,57,行政機關,宜蘭縣警察局枕山派出所,24.758976997680573,121.71863799987038
G,宜蘭縣,民眾服務,57,行政機關,宜蘭縣警察局員山分駐所,24.74519400751045,121.72693199992618
G,宜蘭縣,民眾服務,57,行政機關,行政院農業委員會林業試驗所福山研究中心,24.75658000136652,121.59469299990847
G,宜蘭縣,民眾服務,57,行政機關,宜蘭縣員山鄉鄉民代表會,24.743401999020485,121.72321099986976
G,宜蘭縣,民眾服務,57,行政機關,宜蘭縣員山鄉鄉民代表會,24.743401999020485,121.72321099986976
G,宜蘭縣,民眾服務,57,行政機關,宜蘭縣員山鄉衛生所,24.74431800802248,121.72440099992276
G,宜蘭縣,民眾服務,57,行政機關,宜蘭縣員山鄉衛生所,24.74431800802248,121.72440099992276
G,宜蘭縣,民眾服務,57,行政機關,宜蘭縣員山鄉戶政事務所,24.74511200044812,121.7264419998807
G,宜蘭縣,民眾服務,57,行政機關,宜蘭縣員山鄉戶政事務所,24.74511200044812,121.7264419998807
G,宜蘭縣,民眾服務,57,行政機關,宜蘭縣立殯葬管理所(員山福園),24.755837011313528,121.69858099995012
G,宜蘭縣,民眾服務,57,行政機關,中央健康保險局臺北分局,24.67608101155174,121.77149299994116
G,宜蘭縣,民眾服務,57,行政機關,職業訓練局羅東就業服務站,24.678345004676203,121.7723689999046
G,宜蘭縣,民眾服務,57,行政機關,宜蘭縣消防局第二消防大隊部,24.678058000393076,121.7692489998749
G,宜蘭縣,民眾服務,57,行政機關,宜蘭縣消防局第二消防大隊部,24.678058000393076,121.7692489998749
G,宜蘭縣,民眾服務,57,行政機關,宜蘭縣消防局羅東消防分隊,24.678058000393076,121.7692489998749
G,宜蘭縣,民眾服務,57,行政機關,宜蘭縣消防局羅東消防分隊,24.678058000393076,121.7692489998749
G,宜蘭縣,民眾服務,57,行政機關,宜蘭縣警察局成功派出所,24.673124996822406,121.76695899985597
G,宜蘭縣,民眾服務,57,行政機關,宜蘭縣警察局開羅派出所,24.67579700488678,121.77147499989881
G,宜蘭縣,民眾服務,57,行政機關,宜蘭縣警察局公正派出所,24.678438003570168,121.76935999989875
G,宜蘭縣,民眾服務,57,行政機關,鐵路警察局羅東分駐所,24.677871002507196,121.7745769998889
G,宜蘭縣,民眾服務,57,行政機關,羅東鎮第一公墓火葬場,24.6769430010774,121.76697899988059
G,宜蘭縣,民眾服務,57,行政機關,羅東鎮第一公墓火葬場,24.6769430010774,121.76697899988059
G,宜蘭縣,民眾服務,57,行政機關,北區國稅局羅東稽徵所第一辦公,24.678141006698308,121.76863099991427
G,宜蘭縣,民眾服務,57,行政機關,北區國稅局羅東稽徵所第一辦公,24.678141006698308,121.76863099991427
G,宜蘭縣,民眾服務,57,行政機關,臺灣土地銀行-羅東分行,24.678919010147375,121.76905999993532
G,宜蘭縣,民眾服務,57,行政機關,財政部基隆關稅局花蓮分局蘇澳派出課,24.670928999997766,121.76015799987127
G,宜蘭縣,民眾服務,57,行政機關,警政署保安警察第一總隊第三大隊第二中隊,24.680474997387183,121.77198399985292
G,宜蘭縣,民眾服務,57,行政機關,警政署保安警察第一總隊第三大隊第二中隊,24.680474997387183,121.77198399985292
G,宜蘭縣,民眾服務,57,行政機關,內政部入出國及移民署專勤事務收容事務大隊宜蘭第1收容所,24.680474997387183,121.77198399985292
G,宜蘭縣,民眾服務,57,行政機關,內政部入出國及移民署專勤事務收容事務大隊宜蘭第1收容所,24.680474997387183,121.77198399985292
G,宜蘭縣,民眾服務,57,行政機關,內政部入出國及移民署專勤事務服務事務大隊宜蘭縣服務站,24.68249199378608,121.765978999835
G,宜蘭縣,民眾服務,57,行政機關,內政部入出國及移民署專勤事務服務事務大隊宜蘭縣服務站,24.68249199378608,121.765978999835
G,宜蘭縣,民眾服務,57,行政機關,內政部入出國及移民署專勤事務第一大宜蘭縣專勤隊,24.68249199378608,121.765978999835
G,宜蘭縣,民眾服務,57,行政機關,內政部入出國及移民署專勤事務第一大宜蘭縣專勤隊,24.68249199378608,121.765978999835
G,宜蘭縣,民眾服務,57,行政機關,宜蘭縣政府地方稅務局羅東分局,24.67851400122453,121.76884999987732
G,宜蘭縣,民眾服務,57,行政機關,合作金庫銀行股份有限公司-羅東分行,24.677852003835532,121.77289699989203
G,宜蘭縣,民眾服務,57,行政機關,林務局羅東林區管理處,24.68420799839835,121.77127599985803
G,宜蘭縣,民眾服務,57,行政機關,宜蘭縣羅東鎮戶政事務所,24.67858400877491,121.76892299992404
G,宜蘭縣,民眾服務,57,行政機關,宜蘭縣羅東鎮戶政事務所,24.67858400877491,121.76892299992404
G,宜蘭縣,民眾服務,57,行政機關,宜蘭縣警察局羅東分局,24.678438003570168,121.76935999989875
G,宜蘭縣,民眾服務,57,行政機關,宜蘭縣羅東鎮鎮民代表會,24.6769430010774,121.76697899988059
G,宜蘭縣,民眾服務,57,行政機關,宜蘭縣羅東鎮鎮民代表會,24.6769430010774,121.76697899988059
G,宜蘭縣,民眾服務,57,行政機關,宜蘭縣羅東地政事務所,24.677359999011216,121.76726899986735
G,宜蘭縣,民眾服務,57,行政機關,宜蘭縣羅東地政事務所,24.677359999011216,121.76726899986735
G,宜蘭縣,民眾服務,57,行政機關,宜蘭縣羅東鎮衛生所,24.67753100964089,121.76694699992926
G,宜蘭縣,民眾服務,57,行政機關,臺北區監理所宜蘭監理站,24.694000007898047,121.7690369999158
G,宜蘭縣,民眾服務,57,行政機關,農業委員會畜產試驗所宜蘭分所,24.672869997276646,121.83190999984532
G,宜蘭縣,民眾服務,57,行政機關,宜蘭縣動植物防疫所,24.6671230055607,121.83120399990136
G,宜蘭縣,民眾服務,57,行政機關,宜蘭縣動植物防疫所,24.6671230055607,121.83120399990136
G,宜蘭縣,民眾服務,57,行政機關,宜蘭縣五結鄉戶政事務所,24.684897007589203,121.79884799991883
G,宜蘭縣,民眾服務,57,行政機關,宜蘭縣五結鄉戶政事務所,24.684897007589203,121.79884799991883
G,宜蘭縣,民眾服務,57,行政機關,宜蘭縣五結鄉衛生所,24.6849189951083,121.79884399983258
G,宜蘭縣,民眾服務,57,行政機關,宜蘭縣五結鄉衛生所,24.6849189951083,121.79884399983258
G,宜蘭縣,民眾服務,57,行政機關,宜蘭縣五結鄉鄉民代表會,24.684717008644558,121.79846199992606
G,宜蘭縣,民眾服務,57,行政機關,臺灣省基宜區車輛行車事故鑑定委員會,24.6939970028823,121.76903399988686
G,宜蘭縣,民眾服務,57,行政機關,國立臺灣傳統藝術總處籌備處,24.685894997724496,121.82407199984517
G,宜蘭縣,民眾服務,57,行政機關,宜蘭肉品市場股份有限公司,24.69944200565171,121.7760309999062
G,宜蘭縣,民眾服務,57,行政機關,宜蘭縣消防局三星消防分隊,24.667708002624227,121.65219999990747
G,宜蘭縣,民眾服務,57,行政機關,宜蘭縣三星鄉調解委員會,24.662729998057568,121.65518699988645
G,宜蘭縣,民眾服務,57,行政機關,宜蘭縣警察局三星派出所,24.667076005866022,121.65218699992543
G,宜蘭縣,民眾服務,57,行政機關,宜蘭縣警察局楓林派出所,24.682694001118335,121.65252499989494
G,宜蘭縣,民眾服務,57,行政機關,宜蘭縣警察局福山派出所,24.661969997974357,121.62146399988772
G,宜蘭縣,民眾服務,57,行政機關,宜蘭縣警察局大隱派出所,24.668922999094985,121.70315799988327
G,宜蘭縣,民眾服務,57,行政機關,宜蘭縣警察局大洲派出所,24.69398499892734,121.72980199987607
G,宜蘭縣,民眾服務,57,行政機關,國立傳統藝術中心,24.68602400481803,121.82418099989586
G,宜蘭縣,民眾服務,57,行政機關,宜蘭縣消防局五結消防分隊,24.665875997923628,121.82311099984356
G,宜蘭縣,民眾服務,57,行政機關,宜蘭縣警察局利澤派出所,24.665966998678602,121.82303199985034
G,宜蘭縣,民眾服務,57,行政機關,宜蘭縣警察局二結派出所,24.703726004869676,121.7678679999022
G,宜蘭縣,民眾服務,57,行政機關,台灣宜蘭地方法院羅東辦公室,24.695689004394445,121.76693099990275
G,宜蘭縣,民眾服務,57,行政機關,宜蘭縣警察局五結分駐所,24.687576996830884,121.79788799984466
G,宜蘭縣,民眾服務,57,行政機關,宜蘭縣警察局五結分駐所,24.687576996830884,121.79788799984466
G,宜蘭縣,民眾服務,57,行政機關,蘇澳區域性衛生掩埋場,24.705529010011006,121.81955599992887
G,宜蘭縣,民眾服務,57,行政機關,宜蘭縣警察局孝威派出所,24.694563007211716,121.81064999990532
G,宜蘭縣,民眾服務,57,行政機關,宜蘭縣大同鄉鄉民代表會,24.677278005962073,121.60927799992525
G,宜蘭縣,民眾服務,57,行政機關,宜蘭縣大同鄉戶政事務所,24.678546000766314,121.60835499989993
G,宜蘭縣,民眾服務,57,行政機關,宜蘭縣大同鄉衛生所,24.67800200595914,121.60882699992706
G,宜蘭縣,民眾服務,57,行政機關,關稅總局基隆關稅局蘇澳支局,24.604827999035844,121.85854699985238
G,宜蘭縣,民眾服務,57,行政機關,宜蘭縣消防局蘇澳消防分隊,24.59597299896584,121.84387199985468
G,宜蘭縣,民眾服務,57,行政機關,宜蘭縣消防局南方澳消防分隊,24.58330400994934,121.86499499992678
G,宜蘭縣,民眾服務,57,行政機關,蘇澳港消防分隊,24.597164011030717,121.85678599993312
G,宜蘭縣,民眾服務,57,行政機關,宜蘭縣警察局南方澳派出所,24.582485003385262,121.86613499987513
G,宜蘭縣,民眾服務,57,行政機關,宜蘭縣警察局馬賽派出所,24.620937006963572,121.83561599990242
G,宜蘭縣,民眾服務,57,行政機關,宜蘭縣警察局蘇澳派出所,24.596145999837002,121.84526599985892
G,宜蘭縣,民眾服務,57,行政機關,標準檢驗局蘇澳辦事處,24.604827999035844,121.85854699985238
G,宜蘭縣,民眾服務,57,行政機關,宜蘭縣警察局新城派出所,24.61315000221119,121.82325899987369
G,宜蘭縣,民眾服務,57,行政機關,宜蘭縣警察局港邊派出所,24.611904003072794,121.8525409998798
G,宜蘭縣,民眾服務,57,行政機關,宜蘭縣消防局馬賽消防分隊,24.621028009357588,121.83541899992497
G,宜蘭縣,民眾服務,57,行政機關,工業局龍德工業區服務中心,24.634143006596144,121.83119899990635
G,宜蘭縣,民眾服務,57,行政機關,臺灣土地銀行-蘇澳分行,24.595605996904734,121.85127599983376
G,宜蘭縣,民眾服務,57,行政機關,行政院海岸巡防署海岸巡防總局北部地區巡防局第一一岸巡大隊,24.6125949964275,121.85326699982728
G,宜蘭縣,民眾服務,57,行政機關,合作金庫銀行股份有限公司-蘇澳分行,24.582504003100492,121.86756599987717
G,宜蘭縣,民眾服務,57,行政機關,行政院海岸巡防署海岸巡防總局北部地區巡防局第一海岸巡防總隊,24.61268499896843,121.85323699985352
G,宜蘭縣,民眾服務,57,行政機關,行政院海岸巡防署海岸巡防總局第七海巡隊,24.59589500210537,121.8583019998651
G,宜蘭縣,民眾服務,57,行政機關,宜蘭縣蘇澳鎮鎮民代表會,24.594900003313764,121.8420389998791
G,宜蘭縣,民眾服務,57,行政機關,宜蘭縣蘇澳鎮衛生所,24.593272005102904,121.84246199988853
G,宜蘭縣,民眾服務,57,行政機關,宜蘭縣警察局蘇澳分局,24.596146000013185,121.84525599985878
G,宜蘭縣,民眾服務,57,行政機關,宜蘭縣蘇澳鎮戶政事務所,24.595792997958025,121.84454099984526
G,宜蘭縣,民眾服務,57,行政機關,宜蘭縣蘇澳鎮戶政事務所,24.595792997958025,121.84454099984526
G,宜蘭縣,民眾服務,57,行政機關,交通部公路總局第四區養護工程處,24.596737006669276,121.83471399990172
G,宜蘭縣,民眾服務,57,行政機關,交通部中央氣象局蘇澳氣象站,24.596867994161048,121.85719499981401
G,宜蘭縣,民眾服務,57,行政機關,交通部基隆港務局蘇澳港分局,24.596867994161048,121.85719499981401
G,宜蘭縣,民眾服務,57,行政機關,林務局羅東林區管理處南澳工作站,24.468486996720443,121.79501199985235
G,宜蘭縣,民眾服務,57,行政機關,宜蘭縣警察局澳花派出所,24.331608002811382,121.7428469998985
G,宜蘭縣,民眾服務,57,行政機關,宜蘭縣警察局武塔派出所,24.448886005554606,121.77947299991226
G,宜蘭縣,民眾服務,57,行政機關,宜蘭縣警察局金岳派出所,24.470835008691186,121.77761599992853
G,宜蘭縣,民眾服務,57,行政機關,宜蘭縣警察局碧候派出所,24.474395998140388,121.78736399986501
G,宜蘭縣,民眾服務,57,行政機關,宜蘭縣警察局東澳派出所,24.520557006735327,121.83305599990632
G,宜蘭縣,民眾服務,57,行政機關,宜蘭縣警察局南澳分駐所,24.465201006974183,121.80177699991012
G,宜蘭縣,民眾服務,57,行政機關,宜蘭縣消防局南澳消防分隊,24.466811008178997,121.80467799991733
G,宜蘭縣,民眾服務,57,行政機關,宜蘭縣警察局金洋派出所,24.42556599630432,121.74893799986212
G,宜蘭縣,民眾服務,57,行政機關,公路總局第四區養護工程處南澳工務段,24.46650800962255,121.80398499993136
G,宜蘭縣,民眾服務,57,行政機關,公路總局第四區養護工程處南澳工務段,24.46650800962255,121.80398499993136
G,宜蘭縣,民眾服務,57,行政機關,宜蘭縣南澳鄉民代表會,24.46662800911886,121.80515999992934
G,宜蘭縣,民眾服務,57,行政機關,宜蘭縣南澳鄉戶政事務所,24.46529200561314,121.80167899990589
G,宜蘭縣,民眾服務,57,行政機關,宜蘭縣南澳鄉衛生所,24.46582899939856,121.8035239998671
G,宜蘭縣,民眾服務,57,行政機關,內政部國土測繪中心宜蘭辦公室,24.754118986976255,121.74829396229758
G,宜蘭縣,民眾服務,57,行政機關,宜蘭縣三星鄉戶政事務所,24.66725600885449,121.65234599993838
G,宜蘭縣,民眾服務,57,行政機關,宜蘭縣三星鄉鄉民代表會,24.661284003496398,121.65539699990785
G,宜蘭縣,民眾服務,57,行政機關,宜蘭縣警察局三星分局,24.667076004881167,121.65225599992225
G,宜蘭縣,民眾服務,57,行政機關,宜蘭縣三星鄉衛生所,24.66611800031865,121.65154799989833
G,宜蘭縣,民眾服務,57,行政機關,宜蘭縣三星鄉衛生所,24.66611800031865,121.65154799989833
G,宜蘭縣,民眾服務,57,行政機關,台灣宜蘭監獄,24.66605699452185,121.67804399985822
G,宜蘭縣,民眾服務,57,行政機關,臺灣宜蘭看守所,24.666119996444657,121.6780379998713
G,宜蘭縣,民眾服務,57,行政機關,臺灣宜蘭少年觀護所,24.666119996444657,121.6780379998713
G,宜蘭縣,民眾服務,57,行政機關,宜蘭縣消防局冬山消防分隊,24.63462801088749,121.79148599993792
G,宜蘭縣,民眾服務,57,行政機關,宜蘭縣警察局廣興派出所,24.66969300231676,121.74936199989273
G,宜蘭縣,民眾服務,57,行政機關,宜蘭縣警察局順安派出所,24.654992003715446,121.76432899989797
G,宜蘭縣,民眾服務,57,行政機關,宜蘭縣警察局冬山分駐所,24.63462399834901,121.79210899986029
G,宜蘭縣,民眾服務,57,行政機關,宜蘭縣冬山鄉鄉民代表會,24.634532996852645,121.79225599985077
G,宜蘭縣,民眾服務,57,行政機關,宜蘭縣冬山鄉戶政事務所,24.634720997743546,121.79094399985556
G,宜蘭縣,民眾服務,57,行政機關,宜蘭縣冬山鄉衛生所,24.636073003222698,121.79133699988489
G,宜蘭縣,民眾服務,57,行政機關,宜蘭縣冬山鄉衛生所,24.636073003222698,121.79133699988489
G,宜蘭縣,民眾服務,57,行政機關,宜蘭縣消防局大同消防分隊,24.677370007275893,121.60889299993984
G,宜蘭縣,民眾服務,57,行政機關,宜蘭縣警察局松羅派出所,24.656266999602547,121.57998299990163
G,宜蘭縣,民眾服務,57,行政機關,宜蘭縣警察局明池派出所,24.650321995601548,121.47309599990443
G,宜蘭縣,民眾服務,57,行政機關,宜蘭縣警察局茂安派出所,24.524715005331323,121.44957999994651
G,宜蘭縣,民眾服務,57,行政機關,宜蘭縣警察局南山派出所,24.43976600032578,121.37907799994053
G,宜蘭縣,民眾服務,57,行政機關,宜蘭縣警察局四季派出所,24.486583009364328,121.42875499996244
G,宜蘭縣,民眾服務,57,行政機關,宜蘭縣警察局太平山派出所,24.498257998803616,121.53348299991194
G,宜蘭縣,民眾服務,57,行政機關,宜蘭縣警察局土場派出所,24.573498004442285,121.49804199993285
G,宜蘭縣,民眾服務,57,行政機關,宜蘭縣警察局碼崙派出所,24.598219007193414,121.52959099994175
G,宜蘭縣,民眾服務,57,行政機關,宜蘭縣警察局英士派出所,24.61484900525051,121.52463399993403
G,宜蘭縣,民眾服務,57,行政機關,宜蘭縣警察局牛鬥派出所,24.639796999442424,121.56637399991024
G,宜蘭縣,民眾服務,57,行政機關,宜蘭縣警察局大同分駐所,24.671969005146302,121.60487499992782
G,宜蘭縣,民眾服務,57,行政機關,宜蘭縣警察局寒溪派出所,24.60804799605259,121.68868599986999
G,宜蘭縣,民眾服務,57,行政機關,交通部公路總局第四區養護工程處獨立山工務段,24.574782996124668,121.4805719999089
G,宜蘭縣,民眾服務,58,醫療保健,宜蘭縣宜蘭市衛生所,24.749319721776942,121.75322161870393
G,宜蘭縣,民眾服務,58,醫療保健,宜蘭縣羅東聖母醫院牛鬥醫療巡迴站,24.64099424642545,121.57002440660784
G,宜蘭縣,民眾服務,58,醫療保健,宜蘭縣時潮村衛生室,24.805299321742883,121.80886401364648
G,宜蘭縣,民眾服務,58,醫療保健,宜蘭縣國軍退除役官兵輔導委員會員山榮民醫院,24.72185072241715,121.68779410135649
G,宜蘭縣,民眾服務,58,醫療保健,宜蘭縣頭城鎮衛生所,24.856792177951256,121.82046547671415
G,宜蘭縣,民眾服務,58,醫療保健,宜蘭縣杏和醫院,24.820608602089884,121.76910783639254
G,宜蘭縣,民眾服務,58,醫療保健,宜蘭縣羅東聖母醫院山地巡迴醫療南澳復健站,24.465327580980233,121.79989848678007
G,宜蘭縣,民眾服務,58,醫療保健,宜蘭縣退輔會員山榮民醫院附設門診部,24.75035872072041,121.75742261447448
G,宜蘭縣,民眾服務,58,醫療保健,宜蘭縣海天醫院,24.778876550307956,121.81055503599536
G,宜蘭縣,民眾服務,58,醫療保健,宜蘭縣宜蘭普門醫療財團法人普門醫院附設護理之家,24.721439255267295,121.72143606303658
G,宜蘭縣,民眾服務,58,醫療保健,宜蘭縣財團法人羅許基金會羅東博愛醫院,24.67160109783886,121.77311345812132
G,宜蘭縣,民眾服務,58,醫療保健,宜蘭縣五結鄉衛生所,24.684701415450412,121.798923712206
G,宜蘭縣,民眾服務,58,醫療保健,宜蘭縣大同鄉四季衛生室,24.487727788438498,121.42629843288213
G,宜蘭縣,民眾服務,58,醫療保健,宜蘭縣宜蘭普門醫療財團法人普門醫院,24.72150090977942,121.72142610927976
G,宜蘭縣,民眾服務,58,醫療保健,宜蘭縣壯圍鄉紅葉社區衛生室,24.736604840205366,121.81546137769374
G,宜蘭縣,民眾服務,58,醫療保健,宜蘭縣大同鄉衛生所,24.67785216324312,121.60881758830773
G,宜蘭縣,民眾服務,58,醫療保健,宜蘭縣礁溪鄉衛生所,24.820814732145216,121.76971179874548
G,宜蘭縣,民眾服務,58,醫療保健,宜蘭縣壯圍鄉衛生所,24.746729406284906,121.78635776197405
G,宜蘭縣,民眾服務,58,醫療保健,宜蘭縣冬山鄉衛生所,24.636161625780662,121.79151964402452
G,宜蘭縣,民眾服務,58,醫療保健,宜蘭縣建生醫院,24.59599247001996,121.8462165748302
G,宜蘭縣,民眾服務,58,醫療保健,宜蘭縣蘇澳榮民醫院附設門診部,24.59621338973337,121.83958467877883
G,宜蘭縣,民眾服務,58,醫療保健,宜蘭縣蘇澳榮民醫院,24.613957871435368,121.84858900872077
G,宜蘭縣,民眾服務,58,醫療保健,宜蘭縣財團法人羅許基金會羅東博愛醫院門診中心,24.671803419481485,121.77103349995704
G,宜蘭縣,民眾服務,58,醫療保健,宜蘭縣天主教靈醫會羅東聖母醫院,24.67172040032328,121.7715118629671
G,宜蘭縣,民眾服務,58,醫療保健,宜蘭縣頭城鎮石城里衛生室,24.970820533627023,121.9270248879494
G,宜蘭縣,民眾服務,58,醫療保健,宜蘭縣蘇澳鎮衛生所,24.594052602721966,121.84165800919335
G,宜蘭縣,民眾服務,58,醫療保健,宜蘭縣羅東鎮衛生所,24.67749616100611,121.76699896692332
G,宜蘭縣,民眾服務,58,醫療保健,宜蘭縣財團法人蘭陽仁愛綜合醫院,24.748748238196132,121.75449246966738
G,宜蘭縣,民眾服務,58,醫療保健,宜蘭縣頂埔衛生室,24.844539611725104,121.81085262168787
G,宜蘭縣,民眾服務,58,醫療保健,宜蘭縣大福衛生室,24.801773354851886,121.81711818706245
G,宜蘭縣,民眾服務,58,醫療保健,宜蘭縣立慢性病防治所,24.758568566709478,121.7545301393062
G,宜蘭縣,民眾服務,58,醫療保健,宜蘭縣南澳鄉衛生所,24.465900332151776,121.80347540602577
G,宜蘭縣,民眾服務,58,醫療保健,宜蘭縣國立陽明大學附設醫院,24.757925690038828,121.75400114617354
G,宜蘭縣,民眾服務,58,醫療保健,宜蘭縣茂安衛生室,24.531868840963412,121.45149006354157
G,宜蘭縣,民眾服務,58,醫療保健,杏和醫院,24.82054300699983,121.76917999991008
G,宜蘭縣,民眾服務,58,醫療保健,海天醫院,24.77923500617002,121.81043399990597
G,宜蘭縣,民眾服務,58,醫療保健,國立陽明大學附設醫院,24.757857006766727,121.75403199991094
G,宜蘭縣,民眾服務,58,醫療保健,財團法人蘭陽仁愛醫院,24.749116010769075,121.75431599993743
G,宜蘭縣,民眾服務,58,醫療保健,財團法人佛教普門醫院,24.74896100673024,121.75004899991715
G,宜蘭縣,民眾服務,58,醫療保健,宜蘭普門醫療財團法人普門醫院,24.721461010010728,121.72158099994155
G,宜蘭縣,民眾服務,58,醫療保健,員山榮民醫院,24.72191800129737,121.68782799989764
G,宜蘭縣,民眾服務,58,醫療保健,財團法人羅許基金會羅東博愛醫院,24.671677010188063,121.7731369999351
G,宜蘭縣,民眾服務,58,醫療保健,財團法人天主教靈醫會羅東聖母醫院,24.67149300422439,121.77130099990205
G,宜蘭縣,民眾服務,58,醫療保健,六福中醫醫院,24.672726003387826,121.76911099988939
G,宜蘭縣,民眾服務,58,醫療保健,蘇澳榮民醫院,24.614510009055316,121.84881299991338
G,宜蘭縣,民眾服務,58,醫療保健,建生醫院,24.596049000290034,121.84639099985785
G,宜蘭縣,民眾服務,59,加油站,宜蘭縣蘇澳榮民醫院附設護理之家,24.612538167555044,121.84971392642804
G,宜蘭縣,民眾服務,59,加油站,宜蘭縣中期照護,24.72122713009403,121.68700739846533
G,宜蘭縣,民眾服務,59,加油站,宜蘭縣內政部宜蘭教養院,24.694622670307364,121.73320671315984
G,宜蘭縣,民眾服務,59,加油站,宜蘭縣天主教靈醫會羅東聖母醫院附設護理之家,24.671656529920682,121.77151995715377
G,宜蘭縣,民眾服務,59,加油站,中油加油站-頭城站(中油直營),24.86447801179914,121.82844199993903
G,宜蘭縣,民眾服務,59,加油站,中油加油站-北關站(中油直營),24.90562299425365,121.87080399980701
G,宜蘭縣,民眾服務,59,加油站,中油加油站-大里站(中油直營),24.971536004918818,121.92803899987194
G,宜蘭縣,民眾服務,59,加油站,中油加油站-金面站,24.840191008189862,121.79867799991341
G,宜蘭縣,民眾服務,59,加油站,台塑加油站-竹安站(台塑),24.815373007740913,121.81886399990697
G,宜蘭縣,民眾服務,59,加油站,中油加油站-信宜站,24.80148900361567,121.76529499989734
G,宜蘭縣,民眾服務,59,加油站,中油加油站-金泉站,24.83711400322761,121.78692699989114
G,宜蘭縣,民眾服務,59,加油站,中油加油站-豐富站,24.81121400899773,121.7676749999304
G,宜蘭縣,民眾服務,59,加油站,中油加油站-礁溪站(中油直營),24.829564999604965,121.77714099986828
G,宜蘭縣,民眾服務,59,加油站,台塑加油站-泉家站(台塑),24.791683005511025,121.76210899990932
