縣市代號,縣市,大類別,小類別代號,小類別名稱,地標名稱,緯度,經度
H,桃園縣,交通運輸,11,火車站,桃園縣臺鐵桃林鐵路寶山車站,25.01274983533933,121.31706156408347
H,桃園縣,交通運輸,11,火車站,桃園縣臺鐵富岡車站,24.934384519447566,121.08308325861272
H,桃園縣,交通運輸,11,火車站,桃園縣臺鐵桃林鐵路桃園車站,24.989207942469747,121.31359796602395
H,桃園縣,交通運輸,11,火車站,桃園縣臺鐵內壢車站,24.972776155406574,121.25828001163984
H,桃園縣,交通運輸,11,火車站,桃園縣臺鐵桃園車站,24.989156101964355,121.31340482774506
H,桃園縣,交通運輸,11,火車站,桃園縣臺鐵桃林鐵路長興車站,25.07340793692971,121.28287803707379
H,桃園縣,交通運輸,11,火車站,桃園縣臺鐵桃林鐵路南祥車站,25.045953529467855,121.29742641549234
H,桃園縣,交通運輸,11,火車站,桃園縣臺鐵中壢車站,24.95371454975461,121.22579863001955
H,桃園縣,交通運輸,11,火車站,桃園縣臺鐵桃林鐵路桃園高中車站,24.998102768918468,121.32574788948351
H,桃園縣,交通運輸,11,火車站,桃園縣臺鐵埔心車站,24.91959448857717,121.18353939687981
H,桃園縣,交通運輸,11,火車站,桃園火車站,24.989183999112537,121.31344699994253
H,桃園縣,交通運輸,11,火車站,內壢火車站,24.97279900094947,121.2582179999607
H,桃園縣,交通運輸,11,火車站,中壢火車站,24.95369499912141,121.22569899995818
H,桃園縣,交通運輸,11,火車站,富岡火車站,24.9344120115915,121.08313899999109
H,桃園縣,交通運輸,11,火車站,埔心火車站,24.919407006583434,121.18364099997574
H,桃園縣,交通運輸,11,火車站,楊梅火車站,24.914035993902182,121.14597299996652
H,桃園縣,交通運輸,11,火車站,楊梅火車站,24.914035993902182,121.14597299996652
H,桃園縣,交通運輸,12,客運站,統聯客運-中壢轉運站(自營站),25.00137699937223,121.25322199995031
H,桃園縣,交通運輸,12,客運站,桃園客運-竹圍站,25.10587200210654,121.24425799995822
H,桃園縣,交通運輸,12,客運站,統聯客運-機場第一航站(自營站),25.081384994494147,121.23742499995036
H,桃園縣,交通運輸,12,客運站,統聯客運-機場第二航站(自營站),25.076949996280213,121.23273799994682
H,桃園縣,交通運輸,12,客運站,桃園客運-大園站,25.057644998654528,121.20417599996213
H,桃園縣,交通運輸,12,客運站,阿羅哈客運-桃園站,25.035122997212028,121.3004419999428
H,桃園縣,交通運輸,12,客運站,統聯客運-南崁站(自營站),25.035182997711516,121.30032399993748
H,桃園縣,交通運輸,12,客運站,和欣客運-桃園站,25.0411680086451,121.29539099996593
H,桃園縣,交通運輸,12,客運站,桃園客運-觀音站,25.037855002938375,121.08086399998744
H,桃園縣,交通運輸,12,客運站,日統客運-林口站(營業站),25.06432200220565,121.36649199993921
H,桃園縣,交通運輸,12,客運站,統聯客運-林口站(自營站),25.059110008090425,121.36688699996127
H,桃園縣,交通運輸,12,客運站,阿羅哈客運-林口站,25.058885007526122,121.36652899995886
H,桃園縣,交通運輸,12,客運站,國光客運-林口代售處,25.058885007526122,121.36652899995886
H,桃園縣,交通運輸,12,客運站,三重客運-公西站,25.051521008282215,121.37281999996037
H,桃園縣,交通運輸,12,客運站,桃園客運-桃園車站,24.990448008857047,121.3125259999654
H,桃園縣,交通運輸,12,客運站,桃園客運-桃園站,24.9809680086038,121.32142699996398
H,桃園縣,交通運輸,12,客運站,國光客運-桃園車站,24.98965700376943,121.31095899995427
H,桃園縣,交通運輸,12,客運站,桃園客運-旅行社,24.98964500363545,121.31231599995209
H,桃園縣,交通運輸,12,客運站,桃園客運-桃園公車站,24.98678000474581,121.3139729999553
H,桃園縣,交通運輸,12,客運站,桃園客運-總公司,24.98678000474581,121.3139729999553
H,桃園縣,交通運輸,12,客運站,和欣客運-中壢交流道站,24.956701997952504,121.20162299996082
H,桃園縣,交通運輸,12,客運站,國光客運-中壢民族站,24.95734300257102,121.20216799996864
H,桃園縣,交通運輸,12,客運站,新竹客運-中壢總站,24.953384001093422,121.22440299996559
H,桃園縣,交通運輸,12,客運站,國光客運-中壢車站,24.953429005320395,121.22415699996905
H,桃園縣,交通運輸,12,客運站,統聯客運-中壢轉運站(自營站),25.00137699937223,121.25322199995031
H,桃園縣,交通運輸,12,客運站,桃園客運-中壢站,24.95308600201836,121.22383899996441
H,桃園縣,交通運輸,12,客運站,桃園客運-中壢公車站,24.954178005200056,121.22399999996543
H,桃園縣,交通運輸,12,客運站,統聯客運-中壢站(自營站),24.95744900963905,121.20369399997584
H,桃園縣,交通運輸,12,客運站,桃園客運-新屋站,24.972889007824868,121.10246999998432
H,桃園縣,交通運輸,12,客運站,新竹客運-龍潭站,24.865023002477784,121.21100399996683
H,桃園縣,交通運輸,12,客運站,國光客運-龍潭站,24.868303002406954,121.21541299996157
H,桃園縣,交通運輸,12,客運站,桃園客運-龍潭站,24.867554010546215,121.21569899998322
H,桃園縣,交通運輸,12,客運站,新竹客運-楊梅站,24.913284000048325,121.14862699996964
H,桃園縣,交通運輸,12,客運站,桃園客運-大溪站,24.879886007139554,121.29041399996602
H,桃園縣,交通運輸,15,高鐵站,桃園縣台灣高鐵桃園車站,25.014153767513385,121.21597806359883
H,桃園縣,交通運輸,15,高鐵站,高鐵桃園站(青埔站)-出口1,25.013101003196947,121.2152879999708
H,桃園縣,交通運輸,15,高鐵站,高鐵桃園站(青埔站)-出口2,25.012907005415187,121.21523099997066
H,桃園縣,交通運輸,15,高鐵站,高鐵桃園站(青埔站)-出口3,25.012673003857607,121.2149869999705
H,桃園縣,交通運輸,15,高鐵站,高鐵桃園站(青埔站)-出口4,25.01259199877297,121.21477099995845
H,桃園縣,交通運輸,15,高鐵站,高鐵桃園站(青埔站)-出口5,25.012902010599458,121.21439599997916
H,桃園縣,交通運輸,15,高鐵站,高鐵桃園站(青埔站)-出口6,25.01312100198191,121.21445299996707
H,桃園縣,交通運輸,15,高鐵站,高鐵桃園站(青埔站)-出口7,25.01333200363122,121.21466499996708
H,桃園縣,交通運輸,15,高鐵站,高鐵桃園站(青埔站)-出口8,25.01341800729422,121.21491299997362
H,桃園縣,交通運輸,16,航空站,桃園縣桃園國際機場股份有限公司臺灣桃園國際機場,25.07720901657499,121.23205038135302
H,桃園縣,交通運輸,16,航空站,台灣桃園國際機場,25.08312499938852,121.23994899995488
H,桃園縣,交通運輸,17,碼頭,桃園縣蚵殼魚港,24.93944575150901,120.98706736697791
H,桃園縣,交通運輸,17,碼頭,桃園縣永安漁港,24.988150704109437,121.01418706902025
H,桃園縣,交通運輸,17,碼頭,桃園縣竹圍漁港,25.118151445721033,121.24295394107892
H,桃園縣,交通運輸,17,碼頭,桃園縣觀塘工業港,25.035159455242983,121.0471770450132
H,桃園縣,交通運輸,17,碼頭,竹圍漁港,25.11820399781657,121.24463999994697
H,桃園縣,交通運輸,17,碼頭,永安漁港,24.990894994559284,121.01348199999441
H,桃園縣,交通運輸,18,主要道路建設,桃園縣內壢交流道,24.990767276030898,121.23970645553848
H,桃園縣,交通運輸,18,主要道路建設,桃園縣大竹交流道,25.035091722970765,121.23739701167206
H,桃園縣,交通運輸,18,主要道路建設,桃園縣平鎮二交流道,24.928501038285834,121.20920730460298
H,桃園縣,交通運輸,18,主要道路建設,桃園縣中壢交流道,24.957148041150994,121.19978720632041
H,桃園縣,交通運輸,18,主要道路建設,桃園縣沙崙交流道,25.107154069449734,121.2214464278993
H,桃園縣,交通運輸,18,主要道路建設,桃園縣觀音交流道,25.029534744864186,121.05349743738559
H,桃園縣,交通運輸,18,主要道路建設,桃園縣大溪交流道,24.89069889987469,121.26662673647452
H,桃園縣,交通運輸,18,主要道路建設,桃園縣龍潭交流道,24.861756992637734,121.22324272544627
H,桃園縣,交通運輸,18,主要道路建設,桃園縣楊梅交流道,24.909230113057653,121.1645707302826
H,桃園縣,交通運輸,18,主要道路建設,桃園縣南桃園交流道,24.99850517354801,121.28336238167982
H,桃園縣,交通運輸,18,主要道路建設,桃園縣大湳交流道,24.96269447027248,121.32413931142031
H,桃園縣,交通運輸,18,主要道路建設,桃園縣幼獅交流道,24.924727038064578,121.17092918953924
H,桃園縣,交通運輸,18,主要道路建設,桃園縣機場系統交流道,25.018858972385722,121.27362991729872
H,桃園縣,交通運輸,18,主要道路建設,桃園縣桃園交流道,25.039239115102518,121.29760800323213
H,桃園縣,交通運輸,18,主要道路建設,桃園縣平鎮系統交流道,24.9358464478722,121.18966251683999
H,桃園縣,交通運輸,18,主要道路建設,桃園縣觀音一交流道,25.001378309094054,121.0988100211593
H,桃園縣,交通運輸,18,主要道路建設,桃園縣大園交流道,25.082068810827003,121.17677220419014
H,桃園縣,交通運輸,18,主要道路建設,桃園縣新屋交流道,24.965486135948385,121.13415741203279
H,桃園縣,交通運輸,18,主要道路建設,桃園縣林口交流道,25.064898183922757,121.36254014094058
H,桃園縣,交通運輸,18,主要道路建設,國2-大園交流道-南下,25.057639006100324,121.21336799997624
H,桃園縣,交通運輸,18,主要道路建設,國2-機場端-南下,25.06844700097681,121.21977799995697
H,桃園縣,交通運輸,18,主要道路建設,國2-機場端-北上,25.066971995665444,121.21964599994745
H,桃園縣,交通運輸,18,主要道路建設,台61-竹圍交流道-北上,25.106443994848597,121.21987299995502
H,桃園縣,交通運輸,18,主要道路建設,台61-竹圍交流道-南下,25.105418008898468,121.21678399997758
H,桃園縣,交通運輸,18,主要道路建設,台61-沙崙交流道-南下,25.103330995187246,121.211787999952
H,桃園縣,交通運輸,18,主要道路建設,台61-大園交流道-北上,25.085016000733006,121.18307999996551
H,桃園縣,交通運輸,18,主要道路建設,台61-大園交流道-南下,25.08304100971909,121.17947899998266
H,桃園縣,交通運輸,18,主要道路建設,國2-大園交流道-北上,25.060344000502656,121.21352099995825
H,桃園縣,交通運輸,18,主要道路建設,桃園縣大園交流道,25.059159594441038,121.21325949851831
H,桃園縣,交通運輸,18,主要道路建設,國1-林口交流道-西行,25.06580400686901,121.35419899996234
H,桃園縣,交通運輸,18,主要道路建設,國1-機場系統交流道-南下,25.015869002606873,121.26888099995755
H,桃園縣,交通運輸,18,主要道路建設,台61-竹圍交流道-南下,25.119083995634988,121.26058299994217
H,桃園縣,交通運輸,18,主要道路建設,台66-觀音交流道-東行,25.0287899973889,121.05425799998126
H,桃園縣,交通運輸,18,主要道路建設,台66-觀音交流道-東行,25.02893801088852,121.05391999999283
H,桃園縣,交通運輸,18,主要道路建設,台66-觀音交流道平交匝道-東行,25.02475800371501,121.0625949999839
H,桃園縣,交通運輸,18,主要道路建設,台66-觀音一交流道-東行,24.998607996426472,121.10266299997858
H,桃園縣,交通運輸,18,主要道路建設,台66-觀音一交流道-西行,25.003308007419957,121.09609699998741
H,桃園縣,交通運輸,18,主要道路建設,台66-新屋交流道-西行,24.976622001399612,121.13399999997868
H,桃園縣,交通運輸,18,主要道路建設,台61-觀音交流道-北上,25.0317320031748,121.05611499998416
H,桃園縣,交通運輸,18,主要道路建設,台61-觀音交流道-南下,25.028079004958105,121.05169699998962
H,桃園縣,交通運輸,18,主要道路建設,台61-桃科交流道-北上,25.054244002112892,121.09421099998036
H,桃園縣,交通運輸,18,主要道路建設,國1-林口交流道-東行,25.06501800130766,121.3706439999395
H,桃園縣,交通運輸,18,主要道路建設,中壢服務區,25.00319000444934,121.25255499996184
H,桃園縣,交通運輸,18,主要道路建設,國1-內壢交流道-南下,24.986379001430663,121.23520499995992
H,桃園縣,交通運輸,18,主要道路建設,國1-內壢交流道-北上,24.99105899777801,121.24056399994912
H,桃園縣,交通運輸,18,主要道路建設,國1-中壢交流道-北上,24.95813800681329,121.20104599997943
H,桃園縣,交通運輸,18,主要道路建設,國2-南桃園交流道-北上,25.000614010834493,121.28385399997573
H,桃園縣,交通運輸,18,主要道路建設,國1-機場系統交流道-東行,25.016149997840007,121.27468299995073
H,桃園縣,交通運輸,18,主要道路建設,國1-機場系統交流道-西行,25.02091900262021,121.27275199996011
H,桃園縣,交通運輸,18,主要道路建設,國2-機場系統交流道,25.0189199973611,121.27363799994352
H,桃園縣,交通運輸,18,主要道路建設,國1-機場系統交流道-北上,25.021409010628304,121.27793699997575
H,桃園縣,交通運輸,18,主要道路建設,國2-南桃園交流道-南下,24.99657199421237,121.28250999994106
H,桃園縣,交通運輸,18,主要道路建設,國2-大湳交流道-南下,24.959443996038853,121.3246149999352
H,桃園縣,交通運輸,18,主要道路建設,國2-大湳交流道-北上,24.964011999160565,121.32387599994048
H,桃園縣,交通運輸,18,主要道路建設,國1-中壢交流道-南下,24.955763002660717,121.19849899996828
H,桃園縣,交通運輸,18,主要道路建設,台66-平鎮系統交流道-東行,24.933310002161438,121.19499899997136
H,桃園縣,交通運輸,18,主要道路建設,台66-平鎮系統交流道-西行,24.937756000749243,121.18586099996419
H,桃園縣,交通運輸,18,主要道路建設,國1-平鎮系統交流道-北上,24.939014002909584,121.1924099999654
H,桃園縣,交通運輸,18,主要道路建設,台66-平鎮一交流道-西行,24.932395011223623,121.19765399998583
H,桃園縣,交通運輸,18,主要道路建設,台66-平鎮二交流道-東行,24.927449007331777,121.21452199997826
H,桃園縣,交通運輸,18,主要道路建設,台66-平鎮二交流道-西行,24.928525994322356,121.21181699995608
H,桃園縣,交通運輸,18,主要道路建設,台66-平鎮三交流道-東行,24.90577800118113,121.2313669999637
H,桃園縣,交通運輸,18,主要道路建設,台66-平鎮三交流道-西行,24.907407001549103,121.23032099996017
H,桃園縣,交通運輸,18,主要道路建設,台66-新屋交流道-東行,24.964958008724118,121.13410999998386
H,桃園縣,交通運輸,18,主要道路建設,國1-平鎮系統交流道-南下,24.93372699469027,121.18654699996009
H,桃園縣,交通運輸,18,主要道路建設,國1-幼獅交流道-北上,24.92536700439,121.17192699997733
H,桃園縣,交通運輸,18,主要道路建設,國1-楊梅交流道-南下,24.907252999127493,121.16346899996626
H,桃園縣,交通運輸,18,主要道路建設,國1-幼獅交流道-南下,24.92373600485791,121.16980699997318
H,桃園縣,交通運輸,18,主要道路建設,國1-楊梅交流道-北上,24.911132006534064,121.1654599999739
H,桃園縣,交通運輸,18,主要道路建設,國3-龍潭交流道-南下,24.861581000981264,121.22121499995846
H,桃園縣,交通運輸,18,主要道路建設,國3-龍潭交流道-北上,24.86235900344047,121.22677199996143
H,桃園縣,交通運輸,18,主要道路建設,楊梅收費站,24.89912700714577,121.14676099998047
H,桃園縣,交通運輸,18,主要道路建設,楊梅收費站,24.89912700714577,121.14676099998047
H,桃園縣,交通運輸,18,主要道路建設,龍潭收費站,24.83724499476124,121.1991649999528
H,桃園縣,交通運輸,18,主要道路建設,龍潭收費站,24.83724499476124,121.1991649999528
H,桃園縣,交通運輸,18,主要道路建設,國3-大溪交流道-南下,24.88994200039573,121.26329299995807
H,桃園縣,交通運輸,18,主要道路建設,國3-大溪交流道-北上,24.893826006749705,121.26550999996338
H,桃園縣,交通運輸,18,主要道路建設,台66-大溪端-西行,24.89842600477083,121.25851199996593
H,桃園縣,公共建設,21,國小,桃園縣楊梅市瑞梅國民小學,24.909805107834394,121.1711500766884
H,桃園縣,公共建設,21,國小,桃園縣中壢市山東國民小學,25.016565244155878,121.17276380591157
H,桃園縣,公共建設,21,國小,桃園縣復興鄉巴崚國民小學,24.68527671433586,121.3970983353781
H,桃園縣,公共建設,21,國小,桃園縣中壢市中壢國民小學,24.953785407459964,121.22126671252747
H,桃園縣,公共建設,21,國小,桃園縣楊梅市大同國民小學,24.910821487907,121.14873069849992
H,桃園縣,公共建設,21,國小,桃園縣大溪鎮永福國民小學,24.89282099662254,121.32600928078764
H,桃園縣,公共建設,21,國小,桃園縣蘆竹鄉大竹國民小學,25.024882388099925,121.25875613662768
H,桃園縣,公共建設,21,國小,桃園縣復興鄉光華國民小學,24.65541161807724,121.39953505420887
H,桃園縣,公共建設,21,國小,桃園縣蘆竹鄉光明國民小學,25.0411563509363,121.29098677013833
H,桃園縣,公共建設,21,國小,桃園縣楊梅市楊心國民小學,24.912130668655315,121.14378740416413
H,桃園縣,公共建設,21,國小,桃園縣大溪鎮仁和國民小學,24.897324866772486,121.27764839030009
H,桃園縣,公共建設,21,國小,桃園縣平鎮市忠貞國民小學,24.923156826477587,121.24998166216797
H,桃園縣,公共建設,21,國小,桃園縣八德市大勇國民小學,24.968020670930798,121.30433240885108
H,桃園縣,公共建設,21,國小,桃園縣桃園市東門國民小學,24.994648513086762,121.31576833350145
H,桃園縣,公共建設,21,國小,桃園縣龍潭鄉龍星國民小學,24.862777691026846,121.21797689988055
H,桃園縣,公共建設,21,國小,桃園縣觀音鄉上大國民小學,24.97884703611949,121.14677040575712
H,桃園縣,公共建設,21,國小,桃園縣龜山鄉大埔國民小學,25.03029460704132,121.37518081012739
H,桃園縣,公共建設,21,國小,桃園縣蘆竹鄉公埔國民小學,25.072234120872768,121.28596591095179
H,桃園縣,公共建設,21,國小,桃園縣桃園市文山國民小學,24.996368988540546,121.29181604235704
H,桃園縣,公共建設,21,國小,桃園縣龜山鄉壽山國民小學,25.002971059465473,121.36481183124664
H,桃園縣,公共建設,21,國小,桃園縣平鎮市北勢國民小學,24.935774585668955,121.22362335217497
H,桃園縣,公共建設,21,國小,桃園縣楊梅市富岡國民小學,24.937485203569093,121.0807163164309
H,桃園縣,公共建設,21,國小,桃園縣八德市大安國民小學,24.95636618099291,121.3153547709213
H,桃園縣,公共建設,21,國小,桃園縣平鎮市新勢國民小學,24.950002558632153,121.2168943715215
H,桃園縣,公共建設,21,國小,桃園縣蘆竹鄉南崁國民小學,25.050197798196905,121.30088500603155
H,桃園縣,公共建設,21,國小,桃園縣八德市大忠國民小學,24.959765428115542,121.30051643895804
H,桃園縣,公共建設,21,國小,桃園縣新屋鄉笨港國民小學,24.97455110344908,121.0263064134831
H,桃園縣,公共建設,21,國小,桃園縣桃園市會稽國民小學,25.020083681738644,121.30873328293809
H,桃園縣,公共建設,21,國小,桃園縣復興鄉羅浮國民小學,24.797007997975147,121.36440117967905
H,桃園縣,公共建設,21,國小,桃園縣新屋鄉蚵間國民小學,24.948084813842023,121.0088981573267
H,桃園縣,公共建設,21,國小,桃園縣立楊光國民中小學,24.90639150680328,121.16882287890304
H,桃園縣,公共建設,21,國小,桃園縣中壢市中原國民小學,24.95591429042261,121.23870309630519
H,桃園縣,公共建設,21,國小,桃園縣中壢市興仁國民小學,24.967778953047397,121.26202055832204
H,桃園縣,公共建設,21,國小,桃園縣龜山鄉龜山國民小學,24.993431119410385,121.33943011131055
H,桃園縣,公共建設,21,國小,桃園縣楊梅市瑞塘國民小學,24.907878664838208,121.17969687503896
H,桃園縣,公共建設,21,國小,桃園縣中壢市龍岡國民小學,24.94223884310984,121.22965008245586
H,桃園縣,公共建設,21,國小,桃園縣龜山鄉幸福國民小學,24.98928920579369,121.33086637257198
H,桃園縣,公共建設,21,國小,桃園縣龍潭鄉德龍國民小學,24.88303208562179,121.19482049578252
H,桃園縣,公共建設,21,國小,桃園縣龍潭鄉高原國民小學,24.830204234421796,121.19423659257335
H,桃園縣,公共建設,21,國小,桃園縣桃園市大業國民小學,25.006656485825822,121.31595409503306
H,桃園縣,公共建設,21,國小,桃園縣平鎮市山豐國民小學,24.89716916991603,121.2127803587173
H,桃園縣,公共建設,21,國小,桃園縣竹圍鄉竹圍國民小學,25.103826858903748,121.24437323593506
H,桃園縣,公共建設,21,國小,桃園縣蘆竹鄉錦興國民小學,25.046753001796,121.28974920766507
H,桃園縣,公共建設,21,國小,桃園縣桃園市同安國民小學,25.02173555847836,121.29838602320936
H,桃園縣,公共建設,21,國小,桃園縣龜山鄉新路國民小學,24.995556532243985,121.33626256992692
H,桃園縣,公共建設,21,國小,桃園縣大園鄉溪海國民小學,25.046899883280595,121.18677057701223
H,桃園縣,公共建設,21,國小,桃園縣桃園市慈文國民小學,25.012348844000858,121.3044299481086
H,桃園縣,公共建設,21,國小,桃園縣八德市大成國民小學,24.958469581327456,121.29837053040923
H,桃園縣,公共建設,21,國小,桃園縣大溪鎮僑愛國民小學,24.92063012893896,121.29250270657371
H,桃園縣,公共建設,21,國小,桃園縣觀音鄉草漯國民小學,25.04574849349429,121.14320859038983
H,桃園縣,公共建設,21,國小,桃園縣復興鄉奎輝國民小學嘎色鬧分校,24.775720415826864,121.32488604453957
H,桃園縣,公共建設,21,國小,桃園縣觀音鄉崙坪國民小學,25.000282096434486,121.16194681988608
H,桃園縣,公共建設,21,國小,桃園縣楊梅市水美國民小學,24.918629842501403,121.13788862007787
H,桃園縣,公共建設,21,國小,桃園縣私立福祿貝爾國際文教機構雙語小學,24.853805573486373,121.21478727337963
H,桃園縣,公共建設,21,國小,桃園縣蘆竹鄉新莊國民小學,25.028169703114465,121.24663333232907
H,桃園縣,公共建設,21,國小,桃園縣大溪鎮員樹林國民小學,24.882916644173193,121.26600565156333
H,桃園縣,公共建設,21,國小,桃園縣大園鄉后厝國民小學,25.08123650416348,121.21517977216689
H,桃園縣,公共建設,21,國小,桃園縣大溪鎮大溪國民小學,24.88446343589792,121.28664988161943
H,桃園縣,公共建設,21,國小,桃園縣中壢市內定國民小學,24.993644763705184,121.24944963982598
H,桃園縣,公共建設,21,國小,桃園縣桃園市建德國民小學,24.977254895712125,121.31517894000434
H,桃園縣,公共建設,21,國小,桃園縣中壢市富臺國民小學,24.940275306478178,121.2524441909325
H,桃園縣,公共建設,21,國小,桃園縣蘆竹鄉山腳國民小學,25.088492177533283,121.28765630078773
H,桃園縣,公共建設,21,國小,桃園縣桃園市北門國民小學,25.00727446606776,121.30696242428026
H,桃園縣,公共建設,21,國小,桃園縣龍潭鄉潛龍國民小學,24.88080900006899,121.21127725304623
H,桃園縣,公共建設,21,國小,桃園縣桃園市建國國民小學,24.981898118912916,121.3155100525757
H,桃園縣,公共建設,21,國小,桃園縣平鎮市宋屋國民小學,24.941873066917513,121.20668442719685
H,桃園縣,公共建設,21,國小,桃園縣龍潭鄉龍源國民小學,24.82622093223643,121.2118513148691
H,桃園縣,公共建設,21,國小,桃園縣楊梅市瑞埔國民小學,24.916622451267173,121.18562362771836
H,桃園縣,公共建設,21,國小,桃園縣中壢市興國國民小學,24.96407676974618,121.22223302647956
H,桃園縣,公共建設,21,國小,桃園縣桃園市成功國民小學,24.99884627059973,121.3069598788071
H,桃園縣,公共建設,21,國小,桃園縣中壢市自立國民小學,24.967992171335826,121.25188918310795
H,桃園縣,公共建設,21,國小,桃園縣桃園市同德國民小學,25.014551668690185,121.29588456630496
H,桃園縣,公共建設,21,國小,桃園縣平鎮市文化國民小學,24.953466990616484,121.20351784798873
H,桃園縣,公共建設,21,國小,桃園縣龜山鄉山頂國民小學,24.99189669697381,121.32684270063527
H,桃園縣,公共建設,21,國小,桃園縣復興鄉高坡國民小學,24.7681778406127,121.35127898011177
H,桃園縣,公共建設,21,國小,桃園縣桃園市南門國民小學,24.988652761934418,121.30438893970135
H,桃園縣,公共建設,21,國小,桃園縣龜山鄉龍壽國民小學,25.010958996068656,121.38749135121103
H,桃園縣,公共建設,21,國小,桃園縣觀音鄉富林國民小學,25.03679748032864,121.12059596548458
H,桃園縣,公共建設,21,國小,桃園縣龜山鄉福源國民小學,24.988618037334007,121.35725415069406
H,桃園縣,公共建設,21,國小,桃園縣中壢市忠幅國民小學,24.976393267254988,121.23481163505947
H,桃園縣,公共建設,21,國小,桃園縣新屋鄉新屋國民小學,24.97370276249243,121.10198010745725
H,桃園縣,公共建設,21,國小,桃園縣中壢市華勛國民小學,24.95377237414026,121.25745837506977
H,桃園縣,公共建設,21,國小,桃園縣桃園市西門國民小學,24.99525106401716,121.30435767919182
H,桃園縣,公共建設,21,國小,桃園縣中壢市大倫國民小學,24.99014378187516,121.18054641128296
H,桃園縣,公共建設,21,國小,桃園縣觀音鄉大潭國民小學,25.021452519746816,121.05875890484752
H,桃園縣,公共建設,21,國小,桃園縣平鎮市新榮國民小學,24.952684631625978,121.21813340428132
H,桃園縣,公共建設,21,國小,桃園縣楊梅市上田國民小學,24.937806226183405,121.12618272101852
H,桃園縣,公共建設,21,國小,桃園縣新屋鄉蚵間國民小學附設幼稚園,24.94799432707768,121.00913218160721
H,桃園縣,公共建設,21,國小,桃園縣大溪鎮美華國民小學,24.881613082891167,121.30475256267516
H,桃園縣,公共建設,21,國小,桃園縣復興鄉高義國民小學,24.711648246879665,121.36037447350529
H,桃園縣,公共建設,21,國小,桃園縣中壢市新街國民小學,24.963155293608335,121.22813627980358
H,桃園縣,公共建設,21,國小,桃園縣大園鄉五權國民小學,25.023784166490493,121.23105718231837
H,桃園縣,公共建設,21,國小,桃園縣中壢市中正國民小學,24.961937307907153,121.26289267473709
H,桃園縣,公共建設,21,國小,桃園縣龜山鄉自強國民小學,24.99750620054413,121.34560098655496
H,桃園縣,公共建設,21,國小,桃園縣平鎮市祥安國民小學,24.894100296756733,121.2030152503278
H,桃園縣,公共建設,21,國小,桃園縣桃園市中埔國民小學,25.009795116855734,121.28764968078997
H,桃園縣,公共建設,21,國小,桃園縣復興鄉三光國民小學,24.673849509283748,121.3672107721072
H,桃園縣,公共建設,21,國小,桃園縣龜山鄉龍壽國民小學附設幼稚園,25.010932729277723,121.38749106072893
H,桃園縣,公共建設,21,國小,桃園縣復興鄉義盛國民小學,24.79100974976706,121.3794213866896
H,桃園縣,公共建設,21,國小,桃園縣觀音鄉觀音國民小學,25.035369333217343,121.08283379919857
H,桃園縣,公共建設,21,國小,桃園縣楊梅市楊明國民小學,24.911460874294466,121.15906010306887
H,桃園縣,公共建設,21,國小,桃園縣中壢市芭里國民小學,24.994566436613102,121.20169121735876
H,桃園縣,公共建設,21,國小,桃園縣新屋鄉東明國民小學,24.976507624866933,121.08474643906554
H,桃園縣,公共建設,21,國小,桃園縣大溪鎮百吉國民小學,24.82343417406716,121.31082677135076
H,桃園縣,公共建設,21,國小,桃園縣新屋鄉大坡國民小學,24.957569401871115,121.0402567027475
H,桃園縣,公共建設,21,國小,桃園縣大園鄉潮音國民小學,25.065607461632677,121.17342516050402
H,桃園縣,公共建設,21,國小,桃園縣龍潭鄉龍潭國民小學,24.863903106128053,121.21364939179472
H,桃園縣,公共建設,21,國小,桃園縣大溪鎮瑞祥國民小學,24.868014062856915,121.2527885023957
H,桃園縣,公共建設,21,國小,桃園縣中壢市林森國民小學,24.94589907200689,121.2270395308004
H,桃園縣,公共建設,21,國小,桃園縣桃園市大有國民小學,25.00939724666621,121.32051910571634
H,桃園縣,公共建設,21,國小,桃園縣新屋鄉頭洲國民小學,24.962923478864404,121.14192841291
H,桃園縣,公共建設,21,國小,桃園縣桃園市莊敬國民小學,25.02108785333284,121.29275901559579
H,桃園縣,公共建設,21,國小,桃園縣復興鄉霞雲國民小學,24.81679446459283,121.38347498864698
H,桃園縣,公共建設,21,國小,桃園縣八德市瑞豐國民小學,24.935725284634675,121.2989863894092
H,桃園縣,公共建設,21,國小,桃園縣中壢市內壢國民小學,24.97450382314298,121.25959824902421
H,桃園縣,公共建設,21,國小,桃園縣復興鄉三光國民小學附設幼稚園,24.673880050237138,121.36700747470461
H,桃園縣,公共建設,21,國小,桃園縣楊梅市瑞原國民小學,24.926318228428485,121.1039845932093
H,桃園縣,公共建設,21,國小,桃園縣龜山鄉南美國民小學,25.048208550744654,121.29725690291487
H,桃園縣,公共建設,21,國小,桃園縣大溪鎮內柵國民小學,24.85586902683158,121.28209086747988
H,桃園縣,公共建設,21,國小,桃園縣新屋鄉社子國民小學,24.956568829591095,121.08202630680304
H,桃園縣,公共建設,21,國小,桃園縣平鎮市東勢國民小學,24.911125996108975,121.23204456184878
H,桃園縣,公共建設,21,國小,桃園縣八德市茄苳國民小學,24.96475610432758,121.27847146422481
H,桃園縣,公共建設,21,國小,桃園縣中壢市普仁國民小學,24.948629409218995,121.24450976393925
H,桃園縣,公共建設,21,國小,桃園縣中壢市中平國民小學,24.95942006736065,121.1776331045209
H,桃園縣,公共建設,21,國小,桃園縣桃園市桃園國民小學附設幼稚園,24.99167798322374,121.30943129230559
H,桃園縣,公共建設,21,國小,桃園縣桃園市新埔國民小學,25.017807432209608,121.3068431868727
H,桃園縣,公共建設,21,國小,桃園縣八德市廣興國民小學,24.94553016985433,121.2823444586286
H,桃園縣,公共建設,21,國小,桃園縣中壢市信義國民小學,24.950710089779374,121.23188261873969
H,桃園縣,公共建設,21,國小,桃園縣蘆竹鄉外社國民小學,25.082445105896582,121.30662566335143
H,桃園縣,公共建設,21,國小,桃園縣大園鄉內海國民小學,25.08657342036018,121.1910737107908
H,桃園縣,公共建設,21,國小,桃園縣龍潭鄉石門國民小學,24.841922005324037,121.2412010516676
H,桃園縣,公共建設,21,國小,桃園縣桃園市青溪國民小學,24.999877359131453,121.31814310286427
H,桃園縣,公共建設,21,國小,桃園縣蘆竹鄉大華國民小學,25.039268954308767,121.25425410981708
H,桃園縣,公共建設,21,國小,桃園縣觀音鄉育仁國民小學,25.013284607200337,121.10260317784241
H,桃園縣,公共建設,21,國小,桃園縣八德市八德國民小學,24.928828250254526,121.28374601266829
H,桃園縣,公共建設,21,國小,桃園縣龜山鄉樂善國民小學,25.052367425640217,121.3831536605021
H,桃園縣,公共建設,21,國小,桃園縣龍潭鄉三坑國民小學,24.836553946335723,121.24855527348018
H,桃園縣,公共建設,21,國小,桃園縣新屋鄉埔頂國民小學,24.957695552007298,121.1149800443987
H,桃園縣,公共建設,21,國小,桃園縣大園鄉埔心國民小學,25.04917127458473,121.22523944917737
H,桃園縣,公共建設,21,國小,桃園縣桃園市永順國民小學,25.00864281288281,121.29748777520521
H,桃園縣,公共建設,21,國小,桃園縣大園鄉沙崙國民小學,25.093314696498506,121.22219548267886
H,桃園縣,公共建設,21,國小,桃園縣龜山鄉大坑國民小學,25.04490906174137,121.31469160053125
H,桃園縣,公共建設,21,國小,桃園縣大園鄉大園國民小學,25.05991115131648,121.20205074810858
H,桃園縣,公共建設,21,國小,桃園縣復興鄉奎輝國民小學,24.797183837245456,121.33466515614126
H,桃園縣,公共建設,21,國小,桃園縣私立新興國際中小學,25.015489891248404,121.28390071641267
H,桃園縣,公共建設,21,國小,桃園縣觀音鄉新坡國民小學,25.013709186545324,121.13751650131846
H,桃園縣,公共建設,21,國小,桃園縣龜山鄉文欣國民小學,25.057715998200738,121.371603817537
H,桃園縣,公共建設,21,國小,桃園縣楊梅市楊梅國民小學,24.906062932056187,121.14490640242849
H,桃園縣,公共建設,21,國小,桃園縣大園鄉?林國民小學,25.07748192348388,121.25601671938642
H,桃園縣,公共建設,21,國小,桃園縣大園鄉圳頭國民小學,25.072500312709018,121.20482448207744
H,桃園縣,公共建設,21,國小,桃園縣大溪鎮百吉國民小學新峰分校,24.853532709288793,121.34527464364575
H,桃園縣,公共建設,21,國小,桃園縣桃園市桃園國民小學,24.992175785875837,121.30975281449044
H,桃園縣,公共建設,21,國小,桃園縣復興鄉三民國民小學,24.832893712329916,121.33092239361821
H,桃園縣,公共建設,21,國小,桃園縣平鎮市義興國民小學,24.949330045343274,121.2099848898569
H,桃園縣,公共建設,21,國小,桃園縣龜山鄉大崗國民小學,25.05238988816812,121.35803176496876
H,桃園縣,公共建設,21,國小,桃園縣八德市霄裡國民小學,24.936345248165964,121.26418568748295
H,桃園縣,公共建設,21,國小,桃園縣蘆竹鄉蘆竹國民小學,25.050673531738273,121.26712094742692
H,桃園縣,公共建設,21,國小,桃園縣楊梅市瑞埔國民小學補校,24.91703257163432,121.1858233346545
H,桃園縣,公共建設,21,國小,桃園縣龍潭鄉雙龍國民小學,24.856882083136732,121.21498422082436
H,桃園縣,公共建設,21,國小,桃園縣新屋鄉啟文國民小學,24.978638421382655,121.11672668867887
H,桃園縣,公共建設,21,國小,桃園縣復興鄉長興國民小學,24.79954785641215,121.30738919712553
H,桃園縣,公共建設,21,國小,桃園縣大溪鎮南興國民小學,24.90295135143097,121.26678504845133
H,桃園縣,公共建設,21,國小,桃園縣蘆竹鄉頂社國民小學,25.077858373436808,121.32022362790185
H,桃園縣,公共建設,21,國小,桃園縣復興鄉介壽國民小學,24.81549548990617,121.35093295473
H,桃園縣,公共建設,21,國小,桃園縣平鎮市復旦國民小學,24.955063041862253,121.2079446430425
H,桃園縣,公共建設,21,國小,桃園縣中壢市新明國民小學,24.959152662761642,121.21560815329248
H,桃園縣,公共建設,21,國小,桃園縣蘆竹鄉海湖國民小學,25.102374660010796,121.26721259767788
H,桃園縣,公共建設,21,國小,桃園縣大溪鎮田心國民小學,24.880638947293384,121.29199483680667
H,桃園縣,公共建設,21,國小,桃園縣桃園市快樂國民小學,25.01871350504397,121.31544361879457
H,桃園縣,公共建設,21,國小,桃園縣平鎮市南勢國民小學,24.913756894097077,121.2110455576637
H,桃園縣,公共建設,21,國小,桃園縣大溪鎮中興國民小學,24.925003262878356,121.31061736199575
H,桃園縣,公共建設,21,國小,桃園縣龜山鄉長庚國民小學,25.06134619447587,121.3875187619757
H,桃園縣,公共建設,21,國小,桃園縣平鎮市平興國民小學,24.944620642996195,121.2033302361711
H,桃園縣,公共建設,21,國小,桃園縣龜山鄉文華國民小學,25.051149898735712,121.36510619876749
H,桃園縣,公共建設,21,國小,桃園縣觀音鄉保生國民小學,25.006187799608767,121.07243012963013
H,桃園縣,公共建設,21,國小,桃園縣大溪鎮福安國民小學,24.850695080780245,121.28892871020656
H,桃園縣,公共建設,21,國小,桃園縣龍潭鄉武漢國民小學,24.869936096317456,121.23436705951208
H,桃園縣,公共建設,21,國小,桃園縣龍潭鄉三和國民小學,24.847962158075152,121.16789662760269
H,桃園縣,公共建設,21,國小,桃園縣楊梅市上湖國民小學,24.909744474968527,121.08480945431947
H,桃園縣,公共建設,21,國小,桃園縣龜山鄉樂善國民小學,25.052755598246215,121.38225063001504
H,桃園縣,公共建設,21,國小,桃園縣大園鄉陳康國民小學,25.060026929499553,121.23086353278075
H,桃園縣,公共建設,21,國小,桃園縣蘆竹鄉新興國民小學,25.008285123094968,121.26482718957182
H,桃園縣,公共建設,21,國小,桃園縣新屋鄉永安國民小學,24.98738862378615,121.04638221824088
H,桃園縣,公共建設,21,國小,桃園縣立迴龍國民中小學,25.019412834458045,121.40514024580102
H,桃園縣,公共建設,21,國小,桃園縣中壢市青埔國民小學,25.00699448964226,121.21407701566824
H,桃園縣,公共建設,21,國小,桃園縣大溪鎮仁善國民小學,24.90890006285043,121.27891951891434
H,桃園縣,公共建設,21,國小,桃園縣中壢市元生國民小學,24.974489719359884,121.25120341354697
H,桃園縣,公共建設,21,國小,桃園縣桃園市龍山國民小學,24.98115869327827,121.27051337404326
H,桃園縣,公共建設,21,國小,桃園縣龜山鄉大湖國民小學,25.057775057954846,121.35952479203515
H,桃園縣,公共建設,21,國小,縣立大園國中,25.070299000333268,121.2062089999659
H,桃園縣,公共建設,21,國小,縣立竹圍國小,25.10391699989357,121.24453799995264
H,桃園縣,公共建設,21,國小,縣立五權國小,25.024037006951108,121.2315679999722
H,桃園縣,公共建設,21,國小,縣立圳頭國小,25.072107994823494,121.20438899995142
H,桃園縣,公共建設,21,國小,縣立后厝國小,25.081121003221806,121.2149609999657
H,桃園縣,公共建設,21,國小,縣立竹圍國中,25.109886000998095,121.23794599995703
H,桃園縣,公共建設,21,國小,縣立陳康國小,25.06015200216494,121.23050599996556
H,桃園縣,公共建設,21,國小,縣立內海國小,25.08647999835151,121.1910679999603
H,桃園縣,公共建設,21,國小,縣立埔心國小,25.048784005948686,121.22540999997334
H,桃園縣,公共建設,21,國小,縣立溪海國小,25.047213010364082,121.18680499998446
H,桃園縣,公共建設,21,國小,縣立果林國小,25.076722011107968,121.2562509999816
H,桃園縣,公共建設,21,國小,縣立潮音國小,25.065375997298933,121.17338199996706
H,桃園縣,公共建設,21,國小,縣立沙崙國小,25.09302800098429,121.22197199996072
H,桃園縣,公共建設,21,國小,縣立大園國小,25.059921998918437,121.20222699996394
H,桃園縣,公共建設,21,國小,桃園縣桃園市中山國民小學,24.986307669008138,121.29014063280714
H,桃園縣,公共建設,21,國小,桃園縣龍潭鄉石門國民小學第二校區,24.822221018879336,121.23554884853212
H,桃園縣,公共建設,21,國小,桃園縣楊梅市四維國民小學,24.91216958755149,121.1845883136513
H,桃園縣,公共建設,21,國小,桃園縣觀音鄉樹林國民小學,25.0621743000365,121.12817876131341
H,桃園縣,公共建設,21,國小,桃園縣蘆竹鄉龍安國民小學,24.991182690479615,121.27288440077568
H,桃園縣,公共建設,21,國小,縣立大竹國中,25.0222779978268,121.25802099995123
H,桃園縣,公共建設,21,國小,縣立光明國中,25.044160003935872,121.28915499995652
H,桃園縣,公共建設,21,國小,縣立山腳國中,25.087154998171695,121.27830099994446
H,桃園縣,公共建設,21,國小,縣立光明國小,25.041086003107477,121.29108999995124
H,桃園縣,公共建設,21,國小,縣立大竹國小,25.02534600654806,121.25916599997214
H,桃園縣,公共建設,21,國小,縣立大華國小,25.039799998613226,121.25406299995008
H,桃園縣,公共建設,21,國小,縣立外社國小,25.082676010579917,121.30637599997466
H,桃園縣,公共建設,21,國小,縣立頂社國小,25.07768200086415,121.3199049999415
H,桃園縣,公共建設,21,國小,縣立公埔國小,25.071611000594963,121.2861959999477
H,桃園縣,公共建設,21,國小,縣立山腳國小,25.08885200754686,121.2879319999653
H,桃園縣,公共建設,21,國小,縣立錦興國小,25.04713800373071,121.289518999955
H,桃園縣,公共建設,21,國小,縣立蘆竹國小,25.050970999435958,121.267673999956
H,桃園縣,公共建設,21,國小,縣立新莊國小,25.027895011163476,121.24680499998199
H,桃園縣,公共建設,21,國小,縣立新興國小,25.007911000470525,121.26495499995818
H,桃園縣,公共建設,21,國小,縣立南崁國小,25.0503660049103,121.30096399996087
H,桃園縣,公共建設,21,國小,縣立海湖國小,25.102522999976493,121.26755799995435
H,桃園縣,公共建設,21,國小,縣立草漯國中,25.04338200927165,121.14052799998153
H,桃園縣,公共建設,21,國小,縣立新坡國中,25.01540100943811,121.1332039999888
H,桃園縣,公共建設,21,國小,縣立觀音國小,25.03538999707807,121.08251799997515
H,桃園縣,公共建設,21,國小,縣立新坡國小,25.01350000745259,121.1380069999786
H,桃園縣,公共建設,21,國小,縣立觀音國中,25.03990500757006,121.08056799998431
H,桃園縣,公共建設,21,國小,縣立崙坪國小,25.000293997952188,121.16230399997076
H,桃園縣,公共建設,21,國小,縣立大潭國小,25.021317008275584,121.05888599999385
H,桃園縣,公共建設,21,國小,縣立育仁國小,25.0130770082347,121.10280399998618
H,桃園縣,公共建設,21,國小,縣立富林國小,25.03698900311603,121.12074099997739
H,桃園縣,公共建設,21,國小,縣立草漯國小,25.045816000900984,121.14370199997207
H,桃園縣,公共建設,21,國小,縣立上大國小,24.97900300864129,121.14703199998327
H,桃園縣,公共建設,21,國小,縣立保生國小,25.006413995151515,121.07218499998007
H,桃園縣,公共建設,21,國小,縣立樹林國小,25.062352002053142,121.12802099997653
H,桃園縣,公共建設,21,國小,縣立幸福國小,24.989450994739837,121.3309789999302
H,桃園縣,公共建設,21,國小,縣立龜山國小,24.99394600386099,121.3398469999548
H,桃園縣,公共建設,21,國小,縣立大崗國中,25.05156201080666,121.37086799996804
H,桃園縣,公共建設,21,國小,縣立壽山國中,24.995204995511877,121.34172299993173
H,桃園縣,公共建設,21,國小,縣立迴龍國中,25.020404000151412,121.40925799992758
H,桃園縣,公共建設,21,國小,縣立幸福國中,24.988005008515994,121.33184599996108
H,桃園縣,公共建設,21,國小,縣立龜山國中,24.997289004173957,121.33874699994854
H,桃園縣,公共建設,21,國小,縣立文華國小,25.05094399721337,121.3651179999252
H,桃園縣,公共建設,21,國小,縣立新路國小,24.99549001029558,121.33579899996833
H,桃園縣,公共建設,21,國小,縣立南美國小,25.04811599777677,121.29725099994141
H,桃園縣,公共建設,21,國小,縣立山頂國小,24.99171699833989,121.32721999993811
H,桃園縣,公共建設,21,國小,縣立迴龍國小,25.020314008886768,121.40917899995874
H,桃園縣,公共建設,21,國小,縣立龍壽國小,25.01080200926389,121.38765799996024
H,桃園縣,公共建設,21,國小,縣立大埔國小,25.029974003160714,121.37526199994488
H,桃園縣,公共建設,21,國小,縣立壽山國小,25.002916006487347,121.36440099995184
H,桃園縣,公共建設,21,國小,縣立大坑國小,25.04455900521947,121.31495299995352
H,桃園縣,公共建設,21,國小,縣立大崗國小,25.052406007436524,121.35814499995739
H,桃園縣,公共建設,21,國小,縣立樂善國小,25.05261599643047,121.38257599992016
H,桃園縣,公共建設,21,國小,縣立福源國小,24.989390008525408,121.3574969999651
H,桃園縣,公共建設,21,國小,長庚國小,25.061332999042996,121.38649899992687
H,桃園縣,公共建設,21,國小,縣立中平國小,24.959559010127677,121.17749199997965
H,桃園縣,公共建設,21,國小,縣立芭里國小,24.994739008521304,121.20162499998092
H,桃園縣,公共建設,21,國小,縣立山東國小,25.016172004986124,121.17292699997282
H,桃園縣,公共建設,21,國小,縣立會稽國中,25.019196009835927,121.31163799997397
H,桃園縣,公共建設,21,國小,縣立經國國中,25.021739996980493,121.30396499993498
H,桃園縣,公共建設,21,國小,縣立大有國小,25.009426001017093,121.32080799994515
H,桃園縣,公共建設,21,國小,縣立青溪國中,24.997039002793336,121.31879999994779
H,桃園縣,公共建設,21,國小,縣立慈文國中,25.008961003162156,121.30065899995252
H,桃園縣,公共建設,21,國小,縣立建國國中,24.977780000013404,121.30588999994981
H,桃園縣,公共建設,21,國小,縣立福豐國中,24.976839999453347,121.31357999994452
H,桃園縣,公共建設,21,國小,縣立中興國中,24.997010004708493,121.28994999995847
H,桃園縣,公共建設,21,國小,縣立文昌國中,25.00955000546827,121.30721899996051
H,桃園縣,公共建設,21,國小,縣立桃園國中,24.9960000099194,121.30410899997386
H,桃園縣,公共建設,21,國小,縣立同德國中,25.019920001821415,121.30350899994797
H,桃園縣,公共建設,21,國小,縣立大有國中,25.00996999838075,121.31870899993676
H,桃園縣,公共建設,21,國小,縣立成功國小,24.999358996064508,121.30632999993897
H,桃園縣,公共建設,21,國小,縣立大業國小,25.006230011825668,121.31542899997974
H,桃園縣,公共建設,21,國小,縣立文山國小,24.99643901175875,121.29139899998061
H,桃園縣,公共建設,21,國小,縣立北門國小,25.007249008301528,121.30635899997117
H,桃園縣,公共建設,21,國小,縣立桃園國小,24.991590010535404,121.30955999996942
H,桃園縣,公共建設,21,國小,縣立中埔國小,25.009670005313847,121.28632999995975
H,桃園縣,公共建設,21,國小,縣立同安國小,25.02143899713283,121.29789999993706
H,桃園縣,公共建設,21,國小,縣立同德國小,25.014221000179276,121.29563999994784
H,桃園縣,公共建設,21,國小,縣立青溪國小,25.000331006798454,121.31746899995812
H,桃園縣,公共建設,21,國小,縣立建國國小,24.98348000625988,121.31481999995798
H,桃園縣,公共建設,21,國小,縣立東門國小,24.99541999818159,121.31480899994561
H,桃園縣,公共建設,21,國小,縣立會稽國小,25.020218999655523,121.30849999994548
H,桃園縣,公共建設,21,國小,縣立中山國小,24.986649007799244,121.28964899996613
H,桃園縣,公共建設,21,國小,縣立西門國小,24.995268994998987,121.30380899993625
H,桃園縣,公共建設,21,國小,縣立南門國小,24.988199003452152,121.30421999995258
H,桃園縣,公共建設,21,國小,縣立慈文國小,25.01217099473016,121.3037799999355
H,桃園縣,公共建設,21,國小,縣立建德國小,24.976809002238735,121.31478999995035
H,桃園縣,公共建設,21,國小,縣立龍山國小,24.980619011551134,121.26977999997565
H,桃園縣,公共建設,21,國小,縣立莊敬國小,25.021160008848646,121.2927599999665
H,桃園縣,公共建設,21,國小,國立桃園啟智學校,24.981100006974742,121.3002989999615
H,桃園縣,公共建設,21,國小,縣立元生國小,24.97407800366215,121.25177899996675
H,桃園縣,公共建設,21,國小,縣立新明國中,24.95680500248756,121.21244699996954
H,桃園縣,公共建設,21,國小,縣立內壢國中,24.97164500690831,121.24914899997245
H,桃園縣,公共建設,21,國小,縣立興南國中,24.97429899895772,121.22672999996236
H,桃園縣,公共建設,21,國小,縣立自強國中,24.968917996534728,121.25982099994226
H,桃園縣,公共建設,21,國小,縣立東興國中,24.950099010853357,121.22911199997658
H,桃園縣,公共建設,21,國小,縣立龍岡國中,24.930109999252952,121.25160999994982
H,桃園縣,公共建設,21,國小,縣立龍興國中,24.937891002285298,121.23608399995972
H,桃園縣,公共建設,21,國小,縣立大崙國中,24.992329005687424,121.18008499997208
H,桃園縣,公共建設,21,國小,縣立大崙國小,24.99061300453681,121.18036999997733
H,桃園縣,公共建設,21,國小,縣立自立國小,24.96848000081385,121.25181699996097
H,桃園縣,公共建設,21,國小,縣立普仁國小,24.94871999392809,121.24471599994628
H,桃園縣,公共建設,21,國小,縣立富台國小,24.940490998279426,121.25260199995307
H,桃園縣,公共建設,21,國小,縣立中原國小,24.95622300213468,121.2388679999663
H,桃園縣,公共建設,21,國小,縣立新明國小,24.959418005233715,121.21582899997165
H,桃園縣,公共建設,21,國小,縣立興國國小,24.964014003438166,121.22171999996651
H,桃園縣,公共建設,21,國小,縣立信義國小,24.950816008176556,121.23227199997125
H,桃園縣,公共建設,21,國小,縣立忠福國小,24.976362004627337,121.23531199996975
H,桃園縣,公共建設,21,國小,縣立內定國小,24.993944007322234,121.2497489999745
H,桃園縣,公共建設,21,國小,縣立新街國小,24.963553007066857,121.22803799996753
H,桃園縣,公共建設,21,國小,縣立中壢國小,24.954716002932127,121.22101999996812
H,桃園縣,公共建設,21,國小,縣立林森國小,24.945678002107474,121.2269749999605
H,桃園縣,公共建設,21,國小,縣立青埔國小,25.007180008680372,121.21418799997502
H,桃園縣,公共建設,21,國小,縣立華勛國小,24.953664006923585,121.25749099996511
H,桃園縣,公共建設,21,國小,縣立內壢國小,24.974606007096824,121.25959499996709
H,桃園縣,公共建設,21,國小,縣立興仁國小,24.968011003931096,121.26202699995798
H,桃園縣,公共建設,21,國小,縣立中正國小,24.962050997549806,121.26290599994807
H,桃園縣,公共建設,21,國小,縣立龍岡國小,24.94197300312842,121.229532999964
H,桃園縣,公共建設,21,國小,縣立大成國中,24.958719003983227,121.30565199995442
H,桃園縣,公共建設,21,國小,縣立八德國中,24.92995500908074,121.28744199996837
H,桃園縣,公共建設,21,國小,縣立八德國小,24.928336998598617,121.2833789999487
H,桃園縣,公共建設,21,國小,縣立瑞豐國小,24.935889004387715,121.29991299996163
H,桃園縣,公共建設,21,國小,縣立大勇國小,24.96838200020908,121.3043889999432
H,桃園縣,公共建設,21,國小,縣立大安國小,24.956080003018513,121.31555899995568
H,桃園縣,公共建設,21,國小,縣立大忠國小,24.959361010348793,121.30077199996826
H,桃園縣,公共建設,21,國小,縣立大成國小,24.958013006918833,121.29764899996914
H,桃園縣,公共建設,21,國小,縣立廣興國小,24.944951995286758,121.28223899993887
H,桃園縣,公共建設,21,國小,縣立茄苳國小,24.964551011562538,121.27812399997896
H,桃園縣,公共建設,21,國小,縣立霄裡國小,24.936588009285526,121.26448599997153
H,桃園縣,公共建設,21,國小,縣立中壢國中,24.950024004613773,121.21918899996743
H,桃園縣,公共建設,21,國小,縣立平南國中,24.90958900879182,121.21045599997998
H,桃園縣,公共建設,21,國小,縣立東安國中,24.91729400584657,121.24915899996603
H,桃園縣,公共建設,21,國小,縣立平興國中,24.949681001956872,121.20586899996249
H,桃園縣,公共建設,21,國小,縣立平鎮國中,24.94533200944559,121.21729999998173
H,桃園縣,公共建設,21,國小,縣立山豐國小,24.896945002715626,121.21297799996562
H,桃園縣,公共建設,21,國小,縣立文化國小,24.953114999416076,121.20421099996543
H,桃園縣,公共建設,21,國小,縣立東安國小,24.918105003835986,121.25002199996578
H,桃園縣,公共建設,21,國小,縣立東安國小,24.918105003835986,121.25002199996578
H,桃園縣,公共建設,21,國小,縣立新勢國小,24.949575011698577,121.21695999998627
H,桃園縣,公共建設,21,國小,縣立宋屋國小,24.941915000534344,121.20698499996777
H,桃園縣,公共建設,21,國小,縣立北勢國小,24.935753006014618,121.22273899996866
H,桃園縣,公共建設,21,國小,縣立祥安國小,24.892896997355358,121.20231099996059
H,桃園縣,公共建設,21,國小,縣立復旦國小,24.955186000257523,121.20781999996684
H,桃園縣,公共建設,21,國小,縣立平興國小,24.942551005467188,121.20413499997674
H,桃園縣,公共建設,21,國小,縣立忠貞國小,24.92361199663364,121.24992399995294
H,桃園縣,公共建設,21,國小,縣立新榮國小,24.951726995750718,121.2185689999568
H,桃園縣,公共建設,21,國小,縣立義興國小,24.949947000410013,121.20977199996678
H,桃園縣,公共建設,21,國小,縣立東勢國小,24.91036900629633,121.23224599996928
H,桃園縣,公共建設,21,國小,縣立南勢國小,24.913470000220055,121.21109599996616
H,桃園縣,公共建設,21,國小,縣立武漢國中,24.878769994550478,121.23160299994704
H,桃園縣,公共建設,21,國小,縣立凌雲國中,24.859131007085,121.20187999997506
H,桃園縣,公共建設,21,國小,縣立龍潭國中,24.8552289995983,121.21614199996328
H,桃園縣,公共建設,21,國小,縣立龍星國小,24.861997001507298,121.21828199996104
H,桃園縣,公共建設,21,國小,縣立富岡國中,24.94122799914769,121.07436499998
H,桃園縣,公共建設,21,國小,縣立楊明國中,24.91128200356685,121.15472299997494
H,桃園縣,公共建設,21,國小,縣立瑞原國中,24.93207699417797,121.12261899996885
H,桃園縣,公共建設,21,國小,縣立楊梅國中,24.904065995686455,121.14777499996227
H,桃園縣,公共建設,21,國小,縣立楊明國小,24.91181900144462,121.1592179999749
H,桃園縣,公共建設,21,國小,縣立富岡國小,24.937794003688957,121.08079899998273
H,桃園縣,公共建設,21,國小,縣立瑞埔國小,24.91639299883581,121.1860439999597
H,桃園縣,公共建設,21,國小,縣立四維國小,24.911880004612325,121.18498699997785
H,桃園縣,公共建設,21,國小,縣立楊梅國小,24.905874995902998,121.14481699996665
H,桃園縣,公共建設,21,國小,縣立高榮國小,24.93673300769658,121.1639439999836
H,桃園縣,公共建設,21,國小,縣立大同國小,24.910385002734113,121.14878199997908
H,桃園縣,公共建設,21,國小,縣立水美國小,24.91906300362759,121.13763499998029
H,桃園縣,公共建設,21,國小,縣立仁美國中,24.92452100903558,121.18378899997808
H,桃園縣,公共建設,21,國小,縣立瑞梅國小,24.910631999508038,121.1716109999696
H,桃園縣,公共建設,21,國小,縣立瑞原國小,24.92613299993491,121.10429599998116
H,桃園縣,公共建設,21,國小,縣立上田國小,24.93812400719325,121.12623899997963
H,桃園縣,公共建設,21,國小,縣立上湖國小,24.90944199683223,121.08470099997596
H,桃園縣,公共建設,21,國小,縣立楊心國小,24.913279999806992,121.14341999996823
H,桃園縣,公共建設,21,國小,桃園縣立楊光國(中)小,24.906842000370116,121.16989299996632
H,桃園縣,公共建設,21,國小,縣立瑞塘國小,24.908094005847943,121.17985399997059
H,桃園縣,公共建設,21,國小,縣立潛龍國小,24.88060700430809,121.21058499996627
H,桃園縣,公共建設,21,國小,縣立石門國小,24.84155701097677,121.24179399997803
H,桃園縣,公共建設,21,國小,縣立武漢國小,24.870459997041902,121.23409099995273
H,桃園縣,公共建設,21,國小,縣立龍潭國小,24.86326899632721,121.21317799995676
H,桃園縣,公共建設,21,國小,縣立雙龍國小,24.85703600204118,121.2157099999609
H,桃園縣,公共建設,21,國小,私立福祿貝爾國小,24.85396700477532,121.21460699996757
H,桃園縣,公共建設,21,國小,縣立三坑國小,24.836309003629008,121.24849199996285
H,桃園縣,公共建設,21,國小,縣立石門國中,24.84092799964547,121.23989299995637
H,桃園縣,公共建設,21,國小,縣立德龍國小,24.882344009836757,121.19490999997979
H,桃園縣,公共建設,21,國小,縣立三和國小,24.847798003396832,121.1673589999709
H,桃園縣,公共建設,21,國小,縣立龍源國小,24.826073001921973,121.21222399996704
H,桃園縣,公共建設,21,國小,縣立高原國小,24.830250006568487,121.19419499997976
H,桃園縣,公共建設,21,國小,縣立頭洲國小,24.963389007088104,121.14175499997737
H,桃園縣,公共建設,21,國小,縣立永安國中,24.988278004032136,121.0435659999943
H,桃園縣,公共建設,21,國小,縣立新屋國中,24.96965199777049,121.10161899997291
H,桃園縣,公共建設,21,國小,縣立東明國小,24.97661399553861,121.08477599998064
H,桃園縣,公共建設,21,國小,縣立永安國小,24.987645010019676,121.0467549999889
H,桃園縣,公共建設,21,國小,縣立新屋國小,24.974165000166504,121.10213799997517
H,桃園縣,公共建設,21,國小,縣立埔頂國小,24.957724005432542,121.11545399997775
H,桃園縣,公共建設,21,國小,縣立大坡國中,24.96209700232262,121.04003099998793
H,桃園縣,公共建設,21,國小,縣立笨港國小,24.974740000868998,121.02617799999018
H,桃園縣,公共建設,21,國小,縣立北湖國小,25.00479801104227,121.04958499999572
H,桃園縣,公共建設,21,國小,縣立北湖國小,25.00479801104227,121.04958499999572
H,桃園縣,公共建設,21,國小,縣立蚵間國小,24.948018002362936,121.00893199999098
H,桃園縣,公共建設,21,國小,縣立啟文國小,24.97848800593205,121.11685999998018
H,桃園縣,公共建設,21,國小,縣立大坡國小,24.957222002736753,121.0403859999925
H,桃園縣,公共建設,21,國小,縣立社子國小,24.95621100801021,121.08196999998962
H,桃園縣,公共建設,21,國小,縣立大溪國中,24.879469000685603,121.29622299995333
H,桃園縣,公共建設,21,國小,縣立大漢國中,24.86856500147315,121.28584599995537
H,桃園縣,公共建設,21,國小,縣立介壽國中,24.820662007253073,121.35246999996481
H,桃園縣,公共建設,21,國小,縣立介壽國小,24.81588000169895,121.35098299994428
H,桃園縣,公共建設,21,國小,縣立高義國小,24.712480001305387,121.36061599994221
H,桃園縣,公共建設,21,國小,縣立三光國小,24.673730993464044,121.36743099992405
H,桃園縣,公共建設,21,國小,縣立霞雲國小,24.816615003386186,121.38258999994422
H,桃園縣,公共建設,21,國小,縣立巴崚國小,24.684761010437697,121.39691999996485
H,桃園縣,公共建設,21,國小,縣立三民國小,24.832719009922066,121.33096599996645
H,桃園縣,公共建設,21,國小,縣立光華國小,24.65513999734827,121.39969099992838
H,桃園縣,公共建設,21,國小,縣立長興國小,24.799904996725843,121.30744799993944
H,桃園縣,公共建設,21,國小,縣立奎輝國小,24.8046020069401,121.34786499996045
H,桃園縣,公共建設,21,國小,縣立義盛國小,24.8099139973217,121.35416099993293
H,桃園縣,公共建設,21,國小,縣立仁善國小,24.908755001286025,121.27869199995543
H,桃園縣,公共建設,21,國小,縣立永福國小,24.892949995294085,121.32555399992872
H,桃園縣,公共建設,21,國小,縣立南興國小,24.902637004700086,121.26695799996405
H,桃園縣,公共建設,21,國小,縣立僑愛國小,24.920917008202743,121.29206499997235
H,桃園縣,公共建設,21,國小,縣立田心國小,24.88101199919345,121.29196099994846
H,桃園縣,公共建設,21,國小,縣立內柵國小,24.855571002646457,121.28209499996133
H,桃園縣,公共建設,21,國小,縣立員樹林國小,24.883227997052618,121.2656979999494
H,桃園縣,公共建設,21,國小,縣立大溪國小,24.88490500365999,121.28654599995727
H,桃園縣,公共建設,21,國小,縣立仁和國中,24.894680998209793,121.27307699994641
H,桃園縣,公共建設,21,國小,縣立中興國小,24.925484997275873,121.31026299994014
H,桃園縣,公共建設,21,國小,縣立瑞祥國小,24.867992002477784,121.25316699996193
H,桃園縣,公共建設,21,國小,縣立美華國小,24.881256996792246,121.30493699993492
H,桃園縣,公共建設,21,國小,縣立福安國小,24.850411005274324,121.28888099996516
H,桃園縣,公共建設,21,國小,縣立百吉國小,24.8235529985146,121.31084999994236
H,桃園縣,公共建設,22,國中,桃園縣立經國國民中學,25.021885125794416,121.30473315334577
H,桃園縣,公共建設,22,國中,桃園縣私立治平高級中學進修學校,24.915899718811595,121.18777648400506
H,桃園縣,公共建設,22,國中,桃園縣立同德國民中學,25.015713463248357,121.2935995418359
H,桃園縣,公共建設,22,國中,桃園縣立八德國民中學,24.929832741668953,121.28686041158453
H,桃園縣,公共建設,22,國中,桃園縣立桃園國民中學,24.995773870958836,121.30510501139419
H,桃園縣,公共建設,22,國中,桃園縣私立天主教振聲高級中學,24.990295938108037,121.30166874464388
H,桃園縣,公共建設,22,國中,桃園縣國立中壢高級中學,24.962694924712626,121.211404784628
H,桃園縣,公共建設,22,國中,桃園縣私立大興高級中學,25.06168583940407,121.19244769446345
H,桃園縣,公共建設,22,國中,桃園縣私立光啟高級中學進修學校,25.0200024016573,121.40364010911055
H,桃園縣,公共建設,22,國中,桃園縣立楊梅國民中學,24.903565175340834,121.1483298658976
H,桃園縣,公共建設,22,國中,桃園縣立草漯國民中學,25.044397997415736,121.14051093156121
H,桃園縣,公共建設,22,國中,桃園縣立新坡國民中學,25.01563068812294,121.13341463220632
H,桃園縣,公共建設,22,國中,桃園縣立中興國民中學,24.996618780559537,121.29077219756014
H,桃園縣,公共建設,22,國中,桃園縣國立楊梅高級中學,24.921856372422734,121.14848882336894
H,桃園縣,公共建設,22,國中,桃園縣立光明國民中學,25.044399996450355,121.28931857315327
H,桃園縣,公共建設,22,國中,桃園縣私立治平高級中學,24.91593536960234,121.18732324137206
H,桃園縣,公共建設,22,國中,桃園縣立凌雲國民中學,24.85894450735203,121.2024387052014
H,桃園縣,公共建設,22,國中,桃園縣國立陽明高級中學,24.98029311196181,121.30274833321496
H,桃園縣,公共建設,22,國中,桃園縣私立至善高級中學,24.867770083499302,121.28557863178422
H,桃園縣,公共建設,22,國中,桃園縣立長腳國民中學,25.087916340303245,121.27866750169892
H,桃園縣,公共建設,22,國中,桃園縣立龍潭國民中學,24.8562909235743,121.21721113723746
H,桃園縣,公共建設,22,國中,桃園縣立石門國民中學,24.84088392391188,121.24008352776701
H,桃園縣,公共建設,22,國中,桃園縣立大園國民中學,25.070563710160325,121.20553950127143
H,桃園縣,公共建設,22,國中,桃園縣立東興國民中學,24.950084633287794,121.22939810576815
H,桃園縣,公共建設,22,國中,桃園縣立興南國民中學,24.974199046887687,121.22724264269522
H,桃園縣,公共建設,22,國中,桃園縣私立光啟高級中學,25.019976139127184,121.4036548460775
H,桃園縣,公共建設,22,國中,桃園縣立幸福國民中學,24.988023402485542,121.33216674740956
H,桃園縣,公共建設,22,國中,桃園縣立新明國民中學,24.9564844236665,121.21229172807647
H,桃園縣,公共建設,22,國中,桃園縣立大倫國民中學,24.9917087715233,121.18007311152049
H,桃園縣,公共建設,22,國中,桃園縣立永豐高級中學,24.974957619322,121.26959813737712
H,桃園縣,公共建設,22,國中,桃園縣私立泉僑高級中學,24.847437105243085,121.24515125170048
H,桃園縣,公共建設,22,國中,桃園縣立瑞原國民中學,24.933292580814605,121.12179360244556
H,桃園縣,公共建設,22,國中,桃園縣私立大華高級中學,24.882608353735105,121.1739829974739
H,桃園縣,公共建設,22,國中,桃園縣立龜山國民中學,24.997813887487805,121.33861120513521
H,桃園縣,公共建設,22,國中,桃園縣立大成國民中學,24.95832386712292,121.3057928039632
H,桃園縣,公共建設,22,國中,桃園縣立福豐國民中學,24.977023790137565,121.31389963348282
H,桃園縣,公共建設,22,國中,桃園縣立大溪高級中學,24.86884909269648,121.28577423749275
H,桃園縣,公共建設,22,國中,桃園縣立揚明國民中學,24.911092186654376,121.15515696487114
H,桃園縣,公共建設,22,國中,桃園縣立瑞坪國民中學,24.90682396275954,121.18017968516457
H,桃園縣,公共建設,22,國中,桃園縣立清華國民中學,24.981557418644407,121.10808803526568
H,桃園縣,公共建設,22,國中,桃園縣立大崗國民中學,25.051945262192685,121.37134709886344
H,桃園縣,公共建設,22,國中,桃園縣立會稽國民中學,25.016787066603825,121.31414239642439
H,桃園縣,公共建設,22,國中,桃園縣立仁美國民中學,24.92430495281546,121.1840417554612
H,桃園縣,公共建設,22,國中,桃園縣國立內壢高級中學,24.97836487978182,121.25656669297872
H,桃園縣,公共建設,22,國中,桃園縣立平鎮高級中學,24.939542707980955,121.21906260364042
H,桃園縣,公共建設,22,國中,桃園縣立建國國民中學,24.977716209555222,121.30704159684255
H,桃園縣,公共建設,22,國中,桃園縣立富岡國民中學,24.941855414455244,121.07403590134615
H,桃園縣,公共建設,22,國中,桃園縣立青溪國民中學,24.997198668393708,121.31976474379543
H,桃園縣,公共建設,22,國中,桃園縣私立新興高級中學,24.974732758601707,121.27113713728117
H,桃園縣,公共建設,22,國中,桃園縣立竹圍國民中學,25.110459495041052,121.23853901057213
H,桃園縣,公共建設,22,國中,桃園縣私立復旦高級中學,24.94860799614567,121.20288392105621
H,桃園縣,公共建設,22,國中,桃園縣立東安國民中學,24.916937466452197,121.24932691058359
H,桃園縣,公共建設,22,國中,桃園縣立富強國民中學,24.968707198561226,121.26029143033479
H,桃園縣,公共建設,22,國中,桃園縣立文昌國民中學,25.010413581704153,121.30779468921217
H,桃園縣,公共建設,22,國中,桃園縣私立啟英高級中學,24.97503993959807,121.23571102866184
H,桃園縣,公共建設,22,國中,桃園縣立龍岡國民中學,24.9300360612464,121.25188193401762
H,桃園縣,公共建設,22,國中,桃園縣立平南國民中學,24.90986780065278,121.21048122623137
H,桃園縣,公共建設,22,國中,桃園縣立中壢國民中學,24.950783055343823,121.21909424907781
H,桃園縣,公共建設,22,國中,桃園縣立觀音國民中學,25.039333369457726,121.08080160594253
H,桃園縣,公共建設,22,國中,桃園縣立平興國民中學,24.949480326043957,121.20610849032184
H,桃園縣,公共建設,22,國中,桃園縣立南崁高級中學,25.054386064677672,121.29850264767647
H,桃園縣,公共建設,22,國中,桃園縣立龍興國民中學,24.938413764275175,121.2363847253445
H,桃園縣,公共建設,22,國中,桃園縣立武漢國民中學,24.879689835351915,121.23182495040709
H,桃園縣,公共建設,22,國中,桃園縣立慈文國民中學,25.009316423942874,121.3012150472975
H,桃園縣,公共建設,22,國中,桃園縣立大坡國民中學,24.96159855507359,121.03999394819223
H,桃園縣,公共建設,22,國中,桃園縣立大竹國民中學,25.022454043752465,121.25746553177397
H,桃園縣,公共建設,22,國中,桃園縣立介壽國民中學,24.821072082258954,121.35303965608773
H,桃園縣,公共建設,22,國中,桃園縣立平鎮國民中學,24.944993084458662,121.21824726130306
H,桃園縣,公共建設,22,國中,桃園縣立大溪國民中學,24.879203039066024,121.2956716130877
H,桃園縣,公共建設,22,國中,桃園縣立內壢國民中學,24.972215373456027,121.24858638053884
H,桃園縣,公共建設,22,國中,桃園縣私立治平高級中學國中部,24.915796343160753,121.1886028674279
H,桃園縣,公共建設,22,國中,桃園縣立仁和國民中學,24.894816038409616,121.27393367384994
H,桃園縣,公共建設,22,國中,桃園縣私立育達高級中學,24.95214005851787,121.20937012333503
H,桃園縣,公共建設,22,國中,桃園縣國立桃園高級中學,24.99820476704715,121.32615357723463
H,桃園縣,公共建設,22,國中,桃園縣立永安國民中學,24.98860707997998,121.04420326502463
H,桃園縣,公共建設,22,國中,桃園縣國立武陵高級中學,24.98807692394233,121.28591002916286
H,桃園縣,公共建設,22,國中,桃園縣立壽山國民中學,24.994752473093403,121.3413076241634
H,桃園縣,公共建設,22,國中,桃園縣立新屋國民中學,24.97014599550886,121.10197269865809
H,桃園縣,公共建設,22,國中,桃園縣立大有國民中學,25.00934350400892,121.31954956443046
H,桃園縣,公共建設,23,高中,桃園縣國立中壢高級家事商業職業學校,24.9530439367508,121.21975636787684
H,桃園縣,公共建設,23,高中,桃園縣國立桃園高級農工職業學校,24.994395434425094,121.32092910141117
H,桃園縣,公共建設,23,高中,桃園縣國立龍潭高級農工職業學校,24.861476148750707,121.21308249863893
H,桃園縣,公共建設,23,高中,桃園縣國立中壢高級商業職業學校,24.96264711638227,121.21433867577362
H,桃園縣,公共建設,23,高中,桃園縣私立成功高級工商職業學校,24.988492784146228,121.34147508267996
H,桃園縣,公共建設,23,高中,桃園縣私立方曙高級商工職業學校,24.857386566440685,121.20142644780185
H,桃園縣,公共建設,23,高中,桃園縣私立永平高級工商職業學校,24.919539571048446,121.17433553116952
H,桃園縣,公共建設,23,高中,私立大興高中,25.062102002309565,121.19279499996425
H,桃園縣,公共建設,23,高中,縣立南崁高中,25.05407299566634,121.29839599994172
H,桃園縣,公共建設,23,高中,私立光啟高中,25.020149996912917,121.40312399992297
H,桃園縣,公共建設,23,高中,私立成功工商,24.988976994921995,121.34121999992882
H,桃園縣,公共建設,23,高中,國立中壢家商,24.952461008391573,121.21964899997802
H,桃園縣,公共建設,23,高中,國立武陵高中,24.987379001096055,121.28426899995308
H,桃園縣,公共建設,23,高中,國立桃園高中,24.999540004878625,121.32598899996094
H,桃園縣,公共建設,23,高中,私立振聲高中,24.9908000063184,121.30058999996685
H,桃園縣,公共建設,23,高中,國立陽明高中,24.98244000715124,121.30166999996557
H,桃園縣,公共建設,23,高中,國立桃園農工,24.993249002825156,121.3181199999567
H,桃園縣,公共建設,23,高中,私立振聲高中附設國中部,24.9908000063184,121.30058999996685
H,桃園縣,公共建設,23,高中,國立中壢高商,24.962128011914345,121.2150209999865
H,桃園縣,公共建設,23,高中,國立中壢高中,24.96276700367854,121.2101599999724
H,桃園縣,公共建設,23,高中,私立啟英高中,24.975098003771738,121.23526999996402
H,桃園縣,公共建設,23,高中,國立內壢高中,24.97786200737264,121.25640199997167
H,桃園縣,公共建設,23,高中,私立六和高中附設國中部,24.9649069976206,121.22800999995322
H,桃園縣,公共建設,23,高中,縣立永豐高中,24.97494999868696,121.2692729999459
H,桃園縣,公共建設,23,高中,縣立永豐高中附設國中部,24.975040004889063,121.26929299995976
H,桃園縣,公共建設,23,高中,私立新興高中,24.975126009884335,121.2717189999745
H,桃園縣,公共建設,23,高中,私立六和高中,24.946458010253142,121.18584099998327
H,桃園縣,公共建設,23,高中,縣立平鎮高中,24.939551002700107,121.21913099996218
H,桃園縣,公共建設,23,高中,私立復旦高中,24.948512009969896,121.20253999998431
H,桃園縣,公共建設,23,高中,私立育達高中,24.951934007484905,121.20943799997606
H,桃園縣,公共建設,23,高中,私立復旦高中附設國中部,24.948512009625322,121.20261899997483
H,桃園縣,公共建設,23,高中,國立龍潭農工,24.861733002517468,121.21392699996193
H,桃園縣,公共建設,23,高中,私立大華高中,24.88282100115248,121.17429399997283
H,桃園縣,公共建設,23,高中,私立永平工商,24.91947701090645,121.17388099997946
H,桃園縣,公共建設,23,高中,私立大華高中附設國中部,24.88282100096193,121.17434399997131
H,桃園縣,公共建設,23,高中,國立楊梅高中,24.922663997911286,121.14894499996893
H,桃園縣,公共建設,23,高中,私立治平高中,24.915757998462492,121.18780499996225
H,桃園縣,公共建設,23,高中,私立治平高中附設國中部,24.91575799809852,121.18789399996496
H,桃園縣,公共建設,23,高中,私立泉僑高中,24.847420007834916,121.24480399997155
H,桃園縣,公共建設,23,高中,私立方曙工家,24.857597997345323,121.20087799995713
H,桃園縣,公共建設,23,高中,私立泉僑高中附設國中部,24.84733000306365,121.24480299996054
H,桃園縣,公共建設,23,高中,私立清華高中附設國中部,24.981294009771528,121.10786899998806
H,桃園縣,公共建設,23,高中,私立至善工商,24.867213000927933,121.28443699995125
H,桃園縣,公共建設,24,專科,桃園縣龍華科技大學進修專校,25.018577270567054,121.40164435506435
H,桃園縣,公共建設,24,專科,桃園縣新生醫護管理專科學校,24.89802357565067,121.21271488846038
H,桃園縣,公共建設,25,大學及研究所,桃園縣萬能科技大學,24.990574266389938,121.23196801730334
H,桃園縣,公共建設,25,大學及研究所,桃園縣國立體育大學(2),25.028716970874267,121.388543523126
H,桃園縣,公共建設,25,大學及研究所,桃園縣龍華科技大學,25.018571384809732,121.40168229425993
H,桃園縣,公共建設,25,大學及研究所,桃園縣國立中央警察大學,25.04638437774864,121.35231958458803
H,桃園縣,公共建設,25,大學及研究所,桃園縣國立體育大學(6),25.028865434705185,121.3898158957549
H,桃園縣,公共建設,25,大學及研究所,桃園縣清雲科技大學,24.947613423509964,121.23066893735228
H,桃園縣,公共建設,25,大學及研究所,桃園縣國立體育大學(10),25.031160663040374,121.38463842026677
H,桃園縣,公共建設,25,大學及研究所,桃園縣龍華科技大學進修學院,25.01855265977558,121.40166952110046
H,桃園縣,公共建設,25,大學及研究所,桃園縣國立中央大學,24.967986921248787,121.19074027308326
H,桃園縣,公共建設,25,大學及研究所,桃園縣國立體育大學(9),25.03358632752733,121.38400624045153
H,桃園縣,公共建設,25,大學及研究所,桃園縣國立體育大學(4),25.03610128169647,121.38498465845983
H,桃園縣,公共建設,25,大學及研究所,桃園縣中原大學,24.9576720550288,121.24070204652179
H,桃園縣,公共建設,25,大學及研究所,桃園縣南亞技術學院城中校區,24.959771486017196,121.22357893071808
H,桃園縣,公共建設,25,大學及研究所,桃園縣龍華科技大學(1),25.019640254761843,121.40226388171462
H,桃園縣,公共建設,25,大學及研究所,桃園縣原住民部落大學,24.71138399569102,121.36048818684463
H,桃園縣,公共建設,25,大學及研究所,桃園縣桃園創新技術學院,24.936876312113977,121.25166066051952
H,桃園縣,公共建設,25,大學及研究所,桃園縣清雲科技大學宿舍,24.945390598367233,121.23231836819467
H,桃園縣,公共建設,25,大學及研究所,桃園縣國立體育大學(12),25.029539627233483,121.3879492093801
H,桃園縣,公共建設,25,大學及研究所,桃園縣國立臺灣體育大學林口綜合體育館,25.033811751730084,121.38220707953919
H,桃園縣,公共建設,25,大學及研究所,桃園縣國立體育大學(7),25.029560711140377,121.38567061820882
H,桃園縣,公共建設,25,大學及研究所,桃園縣長庚技術學院,25.03144816308384,121.3889058547635
H,桃園縣,公共建設,25,大學及研究所,桃園縣國立體育大學(1),25.03021107088154,121.38438320244936
H,桃園縣,公共建設,25,大學及研究所,桃園縣開南大學,25.011314422205785,121.27024450606916
H,桃園縣,公共建設,25,大學及研究所,桃園縣長庚大學,25.03394052453904,121.38956952939164
H,桃園縣,公共建設,25,大學及研究所,桃園縣元智大學,24.9693321893037,121.26818052040858
H,桃園縣,公共建設,25,大學及研究所,桃園縣銘傳大學龜山校區,24.984795830515758,121.34433990530874
H,桃園縣,公共建設,25,大學及研究所,桃園縣國立體育大學(11),25.031831507088352,121.38579947208817
H,桃園縣,公共建設,25,大學及研究所,桃園縣國立體育大學,25.035482622031363,121.38418457038445
H,桃園縣,公共建設,25,大學及研究所,桃園縣國立體育大學(3),25.033303384666368,121.3831165950565
H,桃園縣,公共建設,25,大學及研究所,桃園縣聖德基督學院,24.98510662424506,121.22174619042322
H,桃園縣,公共建設,25,大學及研究所,桃園縣國立體育大學(5),25.03124992898789,121.38774243051066
H,桃園縣,公共建設,25,大學及研究所,桃園縣國立體育大學(8),25.034541241266833,121.38362880701044
H,桃園縣,公共建設,25,大學及研究所,開南大學,25.010427999782216,121.27093499994974
H,桃園縣,公共建設,25,大學及研究所,銘傳大學桃園校區,24.986173001866554,121.34346099994922
H,桃園縣,公共建設,25,大學及研究所,國立體育學院,25.034291000192425,121.38144899993942
H,桃園縣,公共建設,25,大學及研究所,長庚大學,25.0333690114665,121.38909599997231
H,桃園縣,公共建設,25,大學及研究所,龍華科技大學,25.01834599583292,121.40269199992129
H,桃園縣,公共建設,25,大學及研究所,長庚技術學院,25.03092799602048,121.39037699991587
H,桃園縣,公共建設,25,大學及研究所,中央警察大學,25.047005002931197,121.35130099994599
H,桃園縣,公共建設,25,大學及研究所,聖德基督學院,24.984959004190753,121.22186599996704
H,桃園縣,公共建設,25,大學及研究所,中原大學,24.95739400870388,121.24075199997479
H,桃園縣,公共建設,25,大學及研究所,南亞技術學院,24.937421995647707,121.25183299995143
H,桃園縣,公共建設,25,大學及研究所,清雲科技大學,24.947209997393628,121.22905699995827
H,桃園縣,公共建設,25,大學及研究所,萬能科技大學,24.990630995177728,121.23248599995107
H,桃園縣,公共建設,25,大學及研究所,元智大學,24.97008500804085,121.26330899997501
H,桃園縣,公共建設,25,大學及研究所,國立中央大學,24.96829399925606,121.19542199996637
H,桃園縣,公共建設,25,大學及研究所,陸軍化兵學校,24.927496999151323,121.2975749999433
H,桃園縣,公共建設,25,大學及研究所,國防大學,24.934519004705617,121.30322599995867
H,桃園縣,公共建設,25,大學及研究所,新生醫護管理專科學校,24.897848000041765,121.21341499995839
H,桃園縣,公共建設,25,大學及研究所,陸軍專科學校,24.93911599565272,121.25978899994776
H,桃園縣,公共建設,25,大學及研究所,國立中正理工學院,24.8775329980499,121.26953599995345
H,桃園縣,公共建設,31,傳統市場,桃園縣興國公有生鮮市場,24.962136053695033,121.21939524377737
H,桃園縣,公共建設,31,傳統市場,桃園縣桃園市永和公有零售市場,24.99661175798263,121.31009517726257
H,桃園縣,公共建設,31,傳統市場,桃園縣龍潭鄉第二公有零售市場,24.865864043264168,121.21614418764194
H,桃園縣,公共建設,31,傳統市場,桃園縣龜山鄉新路公有零售市場,24.99299112017037,121.33549280201859
H,桃園縣,公共建設,31,傳統市場,桃園縣三和公有市場,25.073136135891954,121.25764394097133
H,桃園縣,公共建設,31,傳統市場,桃園縣永豐市場,24.897341696402613,121.2101691502107
H,桃園縣,公共建設,31,傳統市場,桃園縣龜山鄉樂善公有零售市場,25.055172509267138,121.38111881805429
H,桃園縣,公共建設,31,傳統市場,桃園縣桃園市東門公有零售市場,24.992595703097095,121.31675173564038
H,桃園縣,公共建設,31,傳統市場,桃園縣蘆竹鄉大竹公有零售市場,25.024564701255336,121.25643572556265
H,桃園縣,公共建設,31,傳統市場,桃園縣龍潭鄉第一公有零售市場,24.86464835931814,121.21274660206731
H,桃園縣,公共建設,31,傳統市場,桃園縣中壢市第二公有零售市場,24.95630426150875,121.2165804429587
H,桃園縣,公共建設,31,傳統市場,桃園縣八德市八德公有零售市場,24.931820946743002,121.28470122416635
H,桃園縣,公共建設,31,傳統市場,桃園縣中壢市中央市場,24.956173973154687,121.22772623054618
H,桃園縣,公共建設,31,傳統市場,桃園縣中壢市忠孝黃昏市場,24.98267540264302,121.25311119466147
H,桃園縣,公共建設,31,傳統市場,桃園縣大溪鎮僑愛公有市場,24.92156176594851,121.29366065084363
H,桃園縣,公共建設,31,傳統市場,桃園縣平鎮市第一公有零售市場,24.95301567318958,121.22114148921371
H,桃園縣,公共建設,31,傳統市場,桃園縣八德市大湳公有零售市場,24.95988753165675,121.29689213566486
H,桃園縣,公共建設,31,傳統市場,桃園縣桃園市南門公有零售市場,24.99198875343163,121.30696927495934
H,桃園縣,公共建設,31,傳統市場,桃園縣大溪鎮第一公有零售市場,24.88384835179121,121.28799383069018
H,桃園縣,公共建設,31,傳統市場,桃園縣平鎮市義民黃昏市場,24.94340875213542,121.20333460412184
H,桃園縣,公共建設,31,傳統市場,桃園縣中壢市第一公有零售市場,24.955909370209884,121.22150717750488
H,桃園縣,公共建設,31,傳統市場,桃園縣楊梅市第二公有零售市場,24.91156045404241,121.14529147029971
H,桃園縣,公共建設,31,傳統市場,桃園縣永安漁港觀光漁市,24.98792021917249,121.01501837602989
H,桃園縣,公共建設,31,傳統市場,桃園縣楊梅市第一公有零售市場,24.908294095027504,121.14366735096351
H,桃園縣,公共建設,31,傳統市場,桃園縣新屋鄉第一公有零售市場,24.973019404905322,121.1040499936247
H,桃園縣,公共建設,31,傳統市場,桃園縣中壢市建興市場,24.95141632010264,121.23297932441206
H,桃園縣,公共建設,31,傳統市場,桃園縣大園鄉第一公有零售市場,25.065823381215566,121.19873268700621
H,桃園縣,公共建設,31,傳統市場,桃園縣蘆竹鄉南崁公有零售市場,25.04718450148863,121.2944949123776
H,桃園縣,公共建設,34,生活百貨量販,桃園縣全聯福利中心中壢忠孝店,24.976137936559564,121.25541023254344
H,桃園縣,公共建設,34,生活百貨量販,桃園縣全聯福利中心龍岡店,24.932369531672276,121.2555977209897
H,桃園縣,公共建設,34,生活百貨量販,桃園縣大潤發中壢店,24.954161202654547,121.23445805845479
H,桃園縣,公共建設,34,生活百貨量販,桃園縣全聯福利中心中壢環東店,24.943176837731823,121.22707886366672
H,桃園縣,公共建設,34,生活百貨量販,桃園縣家樂福內壢店,24.972945390204895,121.2535852269609
H,桃園縣,公共建設,34,生活百貨量販,桃園縣全聯福利中心(迴龍店),25.018189344266336,121.40732259772348
H,桃園縣,公共建設,34,生活百貨量販,桃園縣全聯福利中心大有店,25.01593366126909,121.31638496458162
H,桃園縣,公共建設,34,生活百貨量販,桃園縣全聯福利中心桃園復興店,24.99052569377652,121.30384224189015
H,桃園縣,公共建設,34,生活百貨量販,桃園縣全聯福利中心蘆竹忠孝店,25.04404721102074,121.2917310592759
H,桃園縣,公共建設,34,生活百貨量販,桃園縣家樂福桃園店,25.021858144077974,121.30742420604443
H,桃園縣,公共建設,34,生活百貨量販,桃園縣全聯福利中心中壢中原店,24.954018479932962,121.24274677385257
H,桃園縣,公共建設,34,生活百貨量販,桃園縣全聯福利中心中壢環中店,24.961841306220816,121.25537359062896
H,桃園縣,公共建設,34,生活百貨量販,桃園縣頂好桃園一店,25.00378046005002,121.30545583921425
H,桃園縣,公共建設,34,生活百貨量販,桃園縣全聯福利中心龍潭店,24.86576737283018,121.21116700041986
H,桃園縣,公共建設,34,生活百貨量販,桃園縣大潤發平鎮店,24.92116500088518,121.21295616440634
H,桃園縣,公共建設,34,生活百貨量販,桃園縣全聯福利中心國際二店,24.987791761675407,121.28936052439296
H,桃園縣,公共建設,34,生活百貨量販,桃園縣家樂福中壢店,24.946744288741574,121.24451136974751
H,桃園縣,公共建設,34,生活百貨量販,桃園縣桃園Gourmet店,24.98982482421479,121.31400905351852
H,桃園縣,公共建設,34,生活百貨量販,桃園縣頂好桃園二店,24.988658641172528,121.28881068877051
H,桃園縣,公共建設,34,生活百貨量販,桃園縣全聯福利中心大園店,25.064484692674025,121.19387208235844
H,桃園縣,公共建設,34,生活百貨量販,桃園縣全聯福利中心桃園中山店,24.995545192815904,121.31417752350863
H,桃園縣,公共建設,34,生活百貨量販,桃園縣全聯福利中心平鎮壢新店,24.943742495580437,121.2035166616993
H,桃園縣,公共建設,34,生活百貨量販,桃園縣全聯福利中心大溪中正店,24.882131493202643,121.2887191974208
H,桃園縣,公共建設,34,生活百貨量販,桃園縣全聯福利中心桃園莊敬店,25.02248245019941,121.29309505412442
H,桃園縣,公共建設,34,生活百貨量販,桃園縣全聯福利中心桃園南崁店,25.050411835209015,121.28975981940086
H,桃園縣,公共建設,34,生活百貨量販,桃園縣全聯福利中心桃園三民店,24.998246530111263,121.30829654844662
H,桃園縣,公共建設,34,生活百貨量販,桃園縣大潤發八德店,24.953712850159427,121.29775179937876
H,桃園縣,公共建設,34,生活百貨量販,桃園縣全聯福利中心蘆竹大竹店,25.024100125911975,121.2569938810087
H,桃園縣,公共建設,34,生活百貨量販,桃園縣全聯福利中心八德介壽店,24.932564588876268,121.29725022834353
H,桃園縣,公共建設,34,生活百貨量販,桃園縣全聯福利中心中壢中山店,24.957209512639928,121.21551192440023
H,桃園縣,公共建設,34,生活百貨量販,桃園縣全聯福利中心楊梅埔心店,24.915338387969634,121.18077668105056
H,桃園縣,公共建設,34,生活百貨量販,桃園縣全聯福利中心八德大湳店,24.960982040573164,121.29455558470255
H,桃園縣,公共建設,34,生活百貨量販,桃園縣全聯福利中心平鎮南豐店,24.900133333354205,121.20952214696044
H,桃園縣,公共建設,34,生活百貨量販,桃園縣全聯福利中心中美店,24.95960556034914,121.22201120934231
H,桃園縣,公共建設,34,生活百貨量販,桃園縣全聯福利中心力行店,25.001978467982234,121.30228104249686
H,桃園縣,公共建設,34,生活百貨量販,桃園縣全聯福利中心龍潭中興店,24.993350969747333,121.33661365863234
H,桃園縣,公共建設,34,生活百貨量販,桃園縣家樂福經國店,25.01585542643104,121.30489326491096
H,桃園縣,公共建設,34,生活百貨量販,桃園縣全聯福利中心大溪文化店,24.881662843898305,121.29367807793189
H,桃園縣,公共建設,34,生活百貨量販,桃園縣佳佳市場,24.861821502197117,121.21811449686176
H,桃園縣,公共建設,34,生活百貨量販,桃園縣全聯福利中心龜山店,24.99249964909389,121.33904925658429
H,桃園縣,公共建設,34,生活百貨量販,桃園縣全聯福利中心桃園國際店,24.99311557917834,121.28794869006975
H,桃園縣,公共建設,34,生活百貨量販,桃園縣遠東愛買桃園店,24.984874848900226,121.28619613620205
H,桃園縣,公共建設,34,生活百貨量販,桃園縣全聯福利中心桃企店,24.981175681696964,121.31874759866916
H,桃園縣,公共建設,34,生活百貨量販,桃園縣全聯福利中心內壢店,24.977854515073723,121.24801878410712
H,桃園縣,公共建設,34,生活百貨量販,桃園縣家樂福大江店,25.00060444372864,121.22885256919905
H,桃園縣,公共建設,34,生活百貨量販,桃園縣家樂福中原店,24.96241033911755,121.23219117164935
H,桃園縣,公共建設,34,生活百貨量販,桃園縣全聯福利中心新屋店,24.972931998853287,121.10115430183663
H,桃園縣,公共建設,34,生活百貨量販,桃園縣全聯福利中心平鎮和平店,24.946247239832562,121.2199137786977
H,桃園縣,公共建設,34,生活百貨量販,桃園縣全聯福利中心楊梅店,24.908345369928487,121.15155857775282
H,桃園縣,公共建設,42,一般公園,尋夢園森林公園,25.096510996917083,121.27799399994704
H,桃園縣,公共建設,42,一般公園,新興公園,25.004662005037293,121.2762849999671
H,桃園縣,公共建設,42,一般公園,富竹公園,25.031711001255434,121.27193599995533
H,桃園縣,公共建設,42,一般公園,壽山巖公園,25.004648009816663,121.3671969999708
H,桃園縣,公共建設,42,一般公園,虎頭山公園,25.0011139993115,121.33092399994216
H,桃園縣,公共建設,42,一般公園,環保公園,25.04849600846032,121.35766699995847
H,桃園縣,公共建設,42,一般公園,中正公園,24.99924099742581,121.34331899992952
H,桃園縣,公共建設,42,一般公園,休閒運動公園,24.965809007694837,121.2890269999645
H,桃園縣,公共建設,42,一般公園,南通社區公園,25.020093006946215,121.30597299995982
H,桃園縣,公共建設,42,一般公園,南通社區公園,25.020093006946215,121.30597299995982
H,桃園縣,公共建設,42,一般公園,公五公園,24.995993998265714,121.30654399994086
H,桃園縣,公共建設,42,一般公園,忠孝兒童公園,24.98590700784377,121.29507099997141
H,桃園縣,公共建設,42,一般公園,忠孝兒童公園,24.98590700784377,121.29507099997141
H,桃園縣,公共建設,42,一般公園,仁愛兒童公園,24.985530999441824,121.29112999995242
H,桃園縣,公共建設,42,一般公園,文昌公園,24.992843001346472,121.31015099994987
H,桃園縣,公共建設,42,一般公園,中正紀念公園,25.001198003955366,121.32975699995839
H,桃園縣,公共建設,42,一般公園,福安公園,24.98633700255198,121.31279199995235
H,桃園縣,公共建設,42,一般公園,東平公園,25.00921099566038,121.32305799993236
H,桃園縣,公共建設,42,一般公園,兒童公園,25.01385700168563,121.31568099995425
H,桃園縣,公共建設,42,一般公園,大會溪公園,25.01405400147926,121.31618599994826
H,桃園縣,公共建設,42,一般公園,同新公園,25.01215500209742,121.30598199995053
H,桃園縣,公共建設,42,一般公園,親子公園,25.017317000081317,121.30188199994504
H,桃園縣,公共建設,42,一般公園,莊敬環保公園,25.026400998710386,121.30196399994355
H,桃園縣,公共建設,42,一般公園,同德公園,25.019322005396795,121.29339499995949
H,桃園縣,公共建設,42,一般公園,延平公園,24.981033998594864,121.31566699994161
H,桃園縣,公共建設,42,一般公園,陽明公園,24.981271002277506,121.30956999995065
H,桃園縣,公共建設,42,一般公園,霖園兒童公園,24.986282002378058,121.28763999995635
H,桃園縣,公共建設,42,一般公園,霖園兒童公園,24.986282002378058,121.28763999995635
H,桃園縣,公共建設,42,一般公園,內厝公園,24.990350009670415,121.17970499997722
H,桃園縣,公共建設,42,一般公園,中正公園,24.9594860023715,121.22632799996735
H,桃園縣,公共建設,42,一般公園,忠福公園,24.972123999149414,121.23301999995284
H,桃園縣,公共建設,42,一般公園,新興公園,24.945316007025347,121.22547899996799
H,桃園縣,公共建設,42,一般公園,復興公園,24.97367500166685,121.24848299995442
H,桃園縣,公共建設,42,一般公園,自強公園,24.968113997673292,121.25942799995308
H,桃園縣,公共建設,42,一般公園,成功公園,24.977560009355663,121.25786199997492
H,桃園縣,公共建設,42,一般公園,成功公園,24.977560009355663,121.25786199997492
H,桃園縣,公共建設,42,一般公園,中山公園,24.985447996331406,121.2513969999505
H,桃園縣,公共建設,42,一般公園,五權兒童公園,24.95929100749183,121.20439799997575
H,桃園縣,公共建設,42,一般公園,大和兒童公園,24.963325999932685,121.22464499995858
H,桃園縣,公共建設,42,一般公園,大和兒童公園,24.963325999932685,121.22464499995858
H,桃園縣,公共建設,42,一般公園,中堅里社區公園,24.938559006109156,121.25882199996401
H,桃園縣,公共建設,42,一般公園,龍岡公園,24.92708700748511,121.24401299997339
H,桃園縣,公共建設,42,一般公園,廣達公園,24.955955009033737,121.20785199997948
H,桃園縣,公共建設,42,一般公園,宋屋公園,24.945385997036144,121.20456099995727
H,桃園縣,公共建設,42,一般公園,新富公園,24.938812011864076,121.21713899997735
H,桃園縣,公共建設,42,一般公園,廣仁公園,24.939683003341237,121.20693999996865
H,桃園縣,公共建設,42,一般公園,新寶公園,24.93907799695381,121.21414499995822
H,桃園縣,公共建設,42,一般公園,復旦公園,24.95405100301326,121.20416599996764
H,桃園縣,公共建設,42,一般公園,八德社區公園,24.880264996301864,121.19792299995568
H,桃園縣,公共建設,42,一般公園,中央公園,24.837792002943733,121.1841829999715
H,桃園縣,公共建設,42,一般公園,湖濱公園,24.888113005350455,121.17187799997309
H,桃園縣,公共建設,42,一般公園,龜山公園,24.904952999759356,121.14884299997408
H,桃園縣,公共建設,42,一般公園,永安海濱公園,24.98017799550894,121.01402899999322
H,桃園縣,公共建設,42,一般公園,白鷺公園,24.960919004863086,121.27027599996052
H,桃園縣,公共建設,42,一般公園,社區公園,24.934906001280044,121.2843939999582
H,桃園縣,公共建設,42,一般公園,欒樹林公園,24.816653999719886,121.25297199995936
H,桃園縣,公共建設,42,一般公園,社區公園,24.823969008264896,121.31150099996732
H,桃園縣,公共建設,42,一般公園,瑞興社區公園,24.91990901045299,121.30488799997146
H,桃園縣,公共建設,42,一般公園,大溪埔頂公園,24.908524001686995,121.28199999995013
H,桃園縣,公共建設,42,一般公園,慈湖紀念雕塑公園,24.840499997334593,121.29313799993965
H,桃園縣,公共建設,42,一般公園,角板山公園,24.81425000129518,121.35080499994757
H,桃園縣,公共建設,42,一般公園,角板山雕塑公園,24.81861100388869,121.35091599995539
H,桃園縣,公共建設,42,一般公園,中正公園,24.88419199435,121.28484599993676
H,桃園縣,公共建設,42,一般公園,七里坡公園,24.88503699482956,121.30227799993663
H,桃園縣,公共建設,42,一般公園,溪州公園,24.817023997240117,121.2534099999466
H,桃園縣,民眾服務,51,觀光遊憩設施,桃園縣蘆竹濱海遊憩區,25.11701512850122,121.27619058488094
H,桃園縣,民眾服務,51,觀光遊憩設施,桃園縣公園,25.019575070588196,121.22234308274629
H,桃園縣,民眾服務,51,觀光遊憩設施,桃園縣公園,25.01262139599221,121.20904248822379
H,桃園縣,民眾服務,51,觀光遊憩設施,桃園縣公園,24.95119360562762,121.23585058199684
H,桃園縣,民眾服務,51,觀光遊憩設施,桃園縣公園,25.008524197788205,121.20923761652058
H,桃園縣,民眾服務,51,觀光遊憩設施,桃園縣五福社區運動公園,25.05293874515964,121.29637673266767
H,桃園縣,民眾服務,51,觀光遊憩設施,桃園縣公園,25.0506444546378,121.29296610309052
H,桃園縣,民眾服務,51,觀光遊憩設施,桃園縣公園,24.947623953146927,121.20140831062056
H,桃園縣,民眾服務,51,觀光遊憩設施,桃園縣大溪埔頂公園,24.907702422084544,121.28213639387094
H,桃園縣,民眾服務,51,觀光遊憩設施,桃園縣大園濱海遊憩區服務中心,25.11454608262562,121.242542467763
H,桃園縣,民眾服務,51,觀光遊憩設施,桃園縣公園,24.91448348882151,121.18364988081812
H,桃園縣,民眾服務,51,觀光遊憩設施,桃園縣仁武公園,24.901784905782137,121.28050763019056
H,桃園縣,民眾服務,51,觀光遊憩設施,桃園縣兒童公園,25.013731037916695,121.31565642164986
H,桃園縣,民眾服務,51,觀光遊憩設施,桃園縣普慶公園,24.948600398092417,121.24650770534438
H,桃園縣,民眾服務,51,觀光遊憩設施,桃園縣長庚護理之家桃園長青院區養生文化村公園,25.018251624747634,121.36610165485533
H,桃園縣,民眾服務,51,觀光遊憩設施,桃園縣公園,25.017745404742755,121.2204596965469
H,桃園縣,民眾服務,51,觀光遊憩設施,桃園縣公園,24.89929054448503,121.16136767185509
H,桃園縣,民眾服務,51,觀光遊憩設施,桃園縣公園,24.999258876359722,121.3419668901711
H,桃園縣,民眾服務,51,觀光遊憩設施,桃園縣公園,24.930964835330474,121.22215983540298
H,桃園縣,民眾服務,51,觀光遊憩設施,桃園縣中興環保公園,25.016068573485438,121.26009219718591
H,桃園縣,民眾服務,51,觀光遊憩設施,桃園縣公園,25.00614069431682,121.21427201789463
H,桃園縣,民眾服務,51,觀光遊憩設施,桃園縣光明公園,24.963601471567383,121.21607894106629
H,桃園縣,民眾服務,51,觀光遊憩設施,桃園縣公園,24.919845173110662,121.25071940680255
H,桃園縣,民眾服務,51,觀光遊憩設施,桃園縣公園,25.072601729275128,121.25794494041125
H,桃園縣,民眾服務,51,觀光遊憩設施,桃園縣中壢市內厝社區公園,24.98983082210273,121.17950579139966
H,桃園縣,民眾服務,51,觀光遊憩設施,桃園縣公園,25.0101308893191,121.29945005296288
H,桃園縣,民眾服務,51,觀光遊憩設施,桃園縣市三簡易運動公園,24.98789344336721,121.29135212205131
H,桃園縣,民眾服務,51,觀光遊憩設施,桃園縣中正公園,24.999395822719016,121.34312295659845
H,桃園縣,民眾服務,51,觀光遊憩設施,桃園縣華興公園,25.0569848261474,121.36229638886141
H,桃園縣,民眾服務,51,觀光遊憩設施,桃園縣五權兒童公園,24.95906878008337,121.2041366608014
H,桃園縣,民眾服務,51,觀光遊憩設施,桃園縣陽明公園,25.021188261037945,121.29406253748226
H,桃園縣,民眾服務,51,觀光遊憩設施,桃園縣公鄰4公園,25.05316536903452,121.35755889324578
H,桃園縣,民眾服務,51,觀光遊憩設施,桃園縣兩蔣文化園區大溪陵寢,24.84829771708184,121.28630480226464
H,桃園縣,民眾服務,51,觀光遊憩設施,桃園縣永興公園,24.958524583510332,121.21972139226723
H,桃園縣,民眾服務,51,觀光遊憩設施,桃園縣親子遊樂公園,25.04482615131838,121.14203230764458
H,桃園縣,民眾服務,51,觀光遊憩設施,桃園縣公園,24.844744502458873,121.23492555275175
H,桃園縣,民眾服務,51,觀光遊憩設施,桃園縣公園,24.821575499374383,121.2553267993113
H,桃園縣,民眾服務,51,觀光遊憩設施,桃園縣公園,25.042031716928822,121.37294783984298
H,桃園縣,民眾服務,51,觀光遊憩設施,桃園縣環保公園,25.05544325070634,121.35883111303042
H,桃園縣,民眾服務,51,觀光遊憩設施,桃園縣公園,25.013885091228893,121.21381211327143
H,桃園縣,民眾服務,51,觀光遊憩設施,桃園縣公園,24.97617477380835,121.25407871323438
H,桃園縣,民眾服務,51,觀光遊憩設施,桃園縣延平公園,24.980905483278914,121.31602052254725
H,桃園縣,民眾服務,51,觀光遊憩設施,桃園縣公園,25.007826096467554,121.20010506241366
H,桃園縣,民眾服務,51,觀光遊憩設施,桃園縣公園,24.923846887227562,121.18530756935655
H,桃園縣,民眾服務,51,觀光遊憩設施,桃園縣公園,24.89597919665112,121.2770351390481
H,桃園縣,民眾服務,51,觀光遊憩設施,桃園縣新屋鄉兒童遊樂場,24.97173956172619,121.10126207932242
H,桃園縣,民眾服務,51,觀光遊憩設施,桃園縣新榮公園,24.94528400454726,121.21462925067985
H,桃園縣,民眾服務,51,觀光遊憩設施,桃園縣茄苳里埤塘公園,24.966191287453338,121.27210057796141
H,桃園縣,民眾服務,51,觀光遊憩設施,桃園縣公園,24.980148788605337,121.24933862083867
H,桃園縣,民眾服務,51,觀光遊憩設施,桃園縣成功公園,25.000084017950034,121.3252123811875
H,桃園縣,民眾服務,51,觀光遊憩設施,桃園縣永康公園,25.00178281376398,121.30298021092781
H,桃園縣,民眾服務,51,觀光遊憩設施,桃園縣崑崙藥用植物觀光園,24.806166811008634,121.22114155474904
H,桃園縣,民眾服務,51,觀光遊憩設施,桃園縣小人國主題樂園,24.836664918176556,121.1792826136738
H,桃園縣,民眾服務,51,觀光遊憩設施,桃園縣環保公園,25.02116822026558,121.25582895614632
H,桃園縣,民眾服務,51,觀光遊憩設施,桃園縣觀音兒童公園,25.035414765286326,121.08069222208734
H,桃園縣,民眾服務,51,觀光遊憩設施,桃園縣桃園藝文廣場,25.017477323600005,121.29949617804783
H,桃園縣,民眾服務,51,觀光遊憩設施,桃園縣龍潭觀光大池,24.86221790437354,121.21002086363995
H,桃園縣,民眾服務,51,觀光遊憩設施,桃園縣公園,24.96186522627908,121.22929330642664
H,桃園縣,民眾服務,51,觀光遊憩設施,桃園縣文昌公園,24.992712576781457,121.30989156868858
H,桃園縣,民眾服務,51,觀光遊憩設施,桃園縣德和公園,24.95296376255498,121.26217277030185
H,桃園縣,民眾服務,51,觀光遊憩設施,桃園縣中壢市元生公園,24.974186203368316,121.25264866217518
H,桃園縣,民眾服務,51,觀光遊憩設施,桃園縣瑞發公園,24.934151066448262,121.298839365749
H,桃園縣,民眾服務,51,觀光遊憩設施,桃園縣公園,25.050681022456594,121.36876153358537
H,桃園縣,民眾服務,51,觀光遊憩設施,桃園縣溪州公園,24.81665525157492,121.25331757430823
H,桃園縣,民眾服務,51,觀光遊憩設施,桃園縣溫州公園,25.00666746727046,121.29814898760372
H,桃園縣,民眾服務,51,觀光遊憩設施,桃園縣公園,25.00771625266083,121.2108039038033
H,桃園縣,民眾服務,51,觀光遊憩設施,桃園縣忠義公園,25.00911241634878,121.3229240871846
H,桃園縣,民眾服務,51,觀光遊憩設施,桃園縣公園,25.000192639609892,121.20828863471958
H,桃園縣,民眾服務,51,觀光遊憩設施,桃園縣蘆竹鄉國門景觀公園,25.042428600113674,121.29521913758727
H,桃園縣,民眾服務,51,觀光遊憩設施,桃園縣公園,25.014989931939635,121.20931411428613
H,桃園縣,民眾服務,51,觀光遊憩設施,桃園縣公園,24.89919256599455,121.20794568407831
H,桃園縣,民眾服務,51,觀光遊憩設施,桃園縣公園,24.948998553596827,121.20484282995811
H,桃園縣,民眾服務,51,觀光遊憩設施,桃園縣角板山雕塑公園,24.8162611171538,121.34895638550535
H,桃園縣,民眾服務,51,觀光遊憩設施,桃園縣公園,25.025654370848475,121.05708523575538
H,桃園縣,民眾服務,51,觀光遊憩設施,桃園縣公園,24.960318786745482,121.11856924885372
H,桃園縣,民眾服務,51,觀光遊憩設施,桃園縣舊社公園,24.954136767730628,121.21607192690867
H,桃園縣,民眾服務,51,觀光遊憩設施,桃園縣玉山公園,24.98230802043568,121.30136650486058
H,桃園縣,民眾服務,51,觀光遊憩設施,桃園縣同安親子公園,25.017021272460678,121.3019713866299
H,桃園縣,民眾服務,51,觀光遊憩設施,桃園縣公園,25.051952694637617,121.36616871780089
H,桃園縣,民眾服務,51,觀光遊憩設施,桃園縣復興公園,25.054008805960628,121.37372973490484
H,桃園縣,民眾服務,51,觀光遊憩設施,桃園縣公園,25.014102857273684,121.20659211118189
H,桃園縣,民眾服務,51,觀光遊憩設施,桃園縣國信公園,24.994489929309463,121.28686883065221
H,桃園縣,民眾服務,51,觀光遊憩設施,桃園縣公鄰8公園,25.05692313100707,121.37093086679336
H,桃園縣,民眾服務,51,觀光遊憩設施,桃園縣建新公園,24.979371586527577,121.3105663760252
H,桃園縣,民眾服務,51,觀光遊憩設施,桃園縣公園,25.11521292768145,121.24277957831988
H,桃園縣,民眾服務,51,觀光遊憩設施,桃園縣站後廣場,24.988213952800667,121.31421286514248
H,桃園縣,民眾服務,51,觀光遊憩設施,桃園縣東眼山國家遊樂區,24.83230175352108,121.41039571659618
H,桃園縣,民眾服務,51,觀光遊憩設施,桃園縣大湖紀念公園,25.057164427064453,121.35763479093654
H,桃園縣,民眾服務,51,觀光遊憩設施,桃園縣公園,25.004370989085665,121.27602378966775
H,桃園縣,民眾服務,51,觀光遊憩設施,桃園縣福林公園,24.97992106406342,121.30619367085778
H,桃園縣,民眾服務,51,觀光遊憩設施,桃園縣同德環保公園,25.0155975479941,121.29505167622037
H,桃園縣,民眾服務,51,觀光遊憩設施,桃園縣龍珠灣遊樂區,24.820198658212433,121.28711845860084
H,桃園縣,民眾服務,51,觀光遊憩設施,桃園縣兩蔣文化園區慈湖紀念雕塑公園,24.84090992506643,121.29524483554266
H,桃園縣,民眾服務,51,觀光遊憩設施,桃園縣公園,25.025933695412668,121.25947792466233
H,桃園縣,民眾服務,51,觀光遊憩設施,桃園縣平鎮市復旦公園,24.954107369982854,121.20386592715457
H,桃園縣,民眾服務,51,觀光遊憩設施,桃園縣公園,25.03906204023175,121.2915346936085
H,桃園縣,民眾服務,51,觀光遊憩設施,桃園縣永康公園,25.000785936567706,121.30372281074563
H,桃園縣,民眾服務,51,觀光遊憩設施,桃園縣公鄰17公園,25.05241872055682,121.36051448450021
H,桃園縣,民眾服務,51,觀光遊憩設施,桃園縣寶慶公園,25.017063762714773,121.29224189686639
H,桃園縣,民眾服務,51,觀光遊憩設施,桃園縣新興公園,24.945394473653714,121.22587852350317
H,桃園縣,民眾服務,51,觀光遊憩設施,桃園縣公園,24.916045291817966,121.20711346223584
H,桃園縣,民眾服務,51,觀光遊憩設施,桃園縣公園,24.99207105301984,121.33733154689706
H,桃園縣,民眾服務,51,觀光遊憩設施,桃園縣貴山公園,24.904706021115498,121.14889371386086
H,桃園縣,民眾服務,51,觀光遊憩設施,桃園縣龜山鄉楓樹國民小學,25.006113041480024,121.34213508731361
H,桃園縣,民眾服務,51,觀光遊憩設施,桃園縣蓮華時公園,25.003794865258403,121.2976188603157
H,桃園縣,民眾服務,51,觀光遊憩設施,桃園縣公園,25.055278650993287,121.38068117154572
H,桃園縣,民眾服務,51,觀光遊憩設施,桃園縣公園,25.02427296192802,121.26144070681643
H,桃園縣,民眾服務,51,觀光遊憩設施,桃園縣霞雲探索教育學校,24.811207426388798,121.35208234147615
H,桃園縣,民眾服務,51,觀光遊憩設施,桃園縣龍鳳公園,24.98979735737829,121.27883168840009
H,桃園縣,民眾服務,51,觀光遊憩設施,桃園縣公園,24.979411644065884,121.30074660545976
H,桃園縣,民眾服務,51,觀光遊憩設施,桃園縣大溪中正公園,24.884252336131045,121.284626593869
H,桃園縣,民眾服務,51,觀光遊憩設施,桃園縣太平山公園,24.82354834931854,121.23468056013068
H,桃園縣,民眾服務,51,觀光遊憩設施,桃園縣北岸溼地生態區,24.995023511920277,121.02007829842165
H,桃園縣,民眾服務,51,觀光遊憩設施,桃園縣公園,25.004191629599905,121.21659431454417
H,桃園縣,民眾服務,51,觀光遊憩設施,桃園縣長庚護理之家桃園長青院區養生文化村公園,25.018867805754866,121.36758231952336
H,桃園縣,民眾服務,51,觀光遊憩設施,桃園縣公園,25.061224913090264,121.19674072748988
H,桃園縣,民眾服務,51,觀光遊憩設施,桃園縣民族公園,24.996184530956373,121.30639861274881
H,桃園縣,民眾服務,51,觀光遊憩設施,桃園縣中福環保公園,25.020716597427327,121.26218306660449
H,桃園縣,民眾服務,51,觀光遊憩設施,桃園縣公園,24.971679812619286,121.10404938194182
H,桃園縣,民眾服務,51,觀光遊憩設施,桃園縣動物保護教育園區,25.007822883206547,121.02823277716122
H,桃園縣,民眾服務,51,觀光遊憩設施,桃園縣中壢藝術園區,24.972185497324887,121.23280555427256
H,桃園縣,民眾服務,51,觀光遊憩設施,桃園縣蓮花池景觀公園,25.037473419223282,121.082550689744
H,桃園縣,民眾服務,51,觀光遊憩設施,桃園縣虎頭山公園,25.000992188333427,121.32919777160895
H,桃園縣,民眾服務,51,觀光遊憩設施,桃園縣滲眉埤公園,25.071379925308385,121.2607910780584
H,桃園縣,民眾服務,51,觀光遊憩設施,桃園縣濱海綠之園公園,24.941273857897034,121.00184211139629
H,桃園縣,民眾服務,51,觀光遊憩設施,桃園縣上興公園,25.018406089865366,121.26146150282355
H,桃園縣,民眾服務,51,觀光遊憩設施,桃園縣永安雪森林遊憩區,24.98280841441535,121.0173877840954
H,桃園縣,民眾服務,51,觀光遊憩設施,桃園縣公園,25.063780489601257,121.36527764216005
H,桃園縣,民眾服務,51,觀光遊憩設施,桃園縣仁愛兒童公園,24.98555850804015,121.29136938242493
H,桃園縣,民眾服務,51,觀光遊憩設施,桃園縣新勢運動公園,24.95181315257489,121.21665950522036
H,桃園縣,民眾服務,51,觀光遊憩設施,桃園縣文興公園,25.055724132841465,121.37180497530957
H,桃園縣,民眾服務,51,觀光遊憩設施,桃園縣公園,25.050409112814915,121.16868321259382
H,桃園縣,民眾服務,51,觀光遊憩設施,桃園縣仁和公園,24.897661940717686,121.28083029218422
H,桃園縣,民眾服務,51,觀光遊憩設施,桃園縣公園,24.92811114487549,121.22497969500428
H,桃園縣,民眾服務,51,觀光遊憩設施,桃園縣公園,25.000173002152227,121.20540123097453
H,桃園縣,民眾服務,51,觀光遊憩設施,桃園縣公園,24.909113978186703,121.20547578721865
H,桃園縣,民眾服務,51,觀光遊憩設施,桃園縣公園,24.936145826911147,121.29619784404271
H,桃園縣,民眾服務,51,觀光遊憩設施,桃園縣中正公園,25.02309562531248,121.29766933943415
H,桃園縣,民眾服務,51,觀光遊憩設施,桃園縣同德公園,25.019149574656794,121.29254110215287
H,桃園縣,民眾服務,51,觀光遊憩設施,桃園縣角板山公園,24.813628180792726,121.35054791650994
H,桃園縣,民眾服務,51,觀光遊憩設施,桃園縣大同公園,24.989673141395837,121.34247442467783
H,桃園縣,民眾服務,51,觀光遊憩設施,桃園縣菜公堂一號公園,25.056591479601856,121.36818084411095
H,桃園縣,民眾服務,51,觀光遊憩設施,桃園縣大園公園,25.066001068003956,121.19346113263545
H,桃園縣,民眾服務,51,觀光遊憩設施,桃園縣國強公園,24.993308745608193,121.28930985382173
H,桃園縣,民眾服務,51,觀光遊憩設施,桃園縣介壽公園,24.979322812151466,121.3052797589753
H,桃園縣,民眾服務,51,觀光遊憩設施,桃園縣大林公園,24.97734324694783,121.32047124740816
H,桃園縣,民眾服務,51,觀光遊憩設施,桃園縣廣達公園,24.955979171406728,121.20736557068336
H,桃園縣,民眾服務,51,觀光遊憩設施,桃園縣朝陽森林公園,24.998628241536984,121.31221170615945
H,桃園縣,民眾服務,51,觀光遊憩設施,桃園縣龍和公園兒童遊樂中心,24.934147516186158,121.24440262337149
H,桃園縣,民眾服務,51,觀光遊憩設施,桃園縣環保公園,25.050193319421922,121.35616181090523
H,桃園縣,民眾服務,51,觀光遊憩設施,桃園縣中信公園,24.99048778087741,121.28651928906679
H,桃園縣,民眾服務,51,觀光遊憩設施,桃園縣觀音海水浴場,25.046646225016765,121.07600567638542
H,桃園縣,民眾服務,51,觀光遊憩設施,桃園縣龍德公園,24.937652620104778,121.23805717753487
H,桃園縣,民眾服務,51,觀光遊憩設施,桃園縣公園,24.932100806201113,121.25765384117048
H,桃園縣,民眾服務,51,觀光遊憩設施,桃園縣大湳公二綠化公園,24.962931192788222,121.29734493044762
H,桃園縣,民眾服務,51,觀光遊憩設施,桃園縣公園,25.014903035027437,121.2222402945288
H,桃園縣,民眾服務,51,觀光遊憩設施,桃園縣公園,25.02662851146596,121.05413310872162
H,桃園縣,民眾服務,51,觀光遊憩設施,桃園縣經國環保公園,25.026260370982403,121.30170985370563
H,桃園縣,民眾服務,51,觀光遊憩設施,桃園縣南平公園,25.02160160439423,121.30604582740489
H,桃園縣,民眾服務,51,觀光遊憩設施,桃園縣東埔公園,25.005754472774733,121.30715521638541
H,桃園縣,民眾服務,51,觀光遊憩設施,桃園縣楊明公園,24.910657102158133,121.15892417912025
H,桃園縣,民眾服務,51,觀光遊憩設施,桃園縣福豐公園,24.985769706858278,121.31120458018837
H,桃園縣,民眾服務,51,觀光遊憩設施,桃園縣陽明運動公園,24.981494732074523,121.31021151194894
H,桃園縣,民眾服務,51,觀光遊憩設施,桃園縣霖園兒童公園,24.978170128425703,121.30065464896036
H,桃園縣,民眾服務,51,觀光遊憩設施,桃園縣復興公園,24.97362494060031,121.24841587093636
H,桃園縣,民眾服務,51,觀光遊憩設施,桃園縣公園,24.969393591793278,121.14642359852002
H,桃園縣,民眾服務,51,觀光遊憩設施,桃園縣公園,25.009061797869304,121.20792536940357
H,桃園縣,民眾服務,51,觀光遊憩設施,桃園縣公園,25.04617534122935,121.29425797978524
H,桃園縣,民眾服務,51,觀光遊憩設施,桃園縣復興親子公園,24.949762920893058,121.20412027798287
H,桃園縣,民眾服務,51,觀光遊憩設施,桃園縣公園,25.017399159981387,121.21111056775617
H,桃園縣,民眾服務,51,觀光遊憩設施,桃園縣環保公園,25.04912958778011,121.37748949405854
H,桃園縣,民眾服務,51,觀光遊憩設施,桃園縣公園,25.043196730469653,121.37075334850718
H,桃園縣,民眾服務,51,觀光遊憩設施,桃園縣虎頭山環保公園,25.01208318521466,121.32821842849363
H,桃園縣,民眾服務,51,觀光遊憩設施,桃園縣公園,24.907555997412466,121.11878823061971
H,桃園縣,民眾服務,51,觀光遊憩設施,桃園縣小烏來瀑布風景區,24.79064366240875,121.37505215764125
H,桃園縣,民眾服務,51,觀光遊憩設施,桃園縣明德公園,25.018369779186497,121.29593650101174
H,桃園縣,民眾服務,51,觀光遊憩設施,桃園縣公園,25.009909529635998,121.20174201831402
H,桃園縣,民眾服務,51,觀光遊憩設施,桃園縣仁祥公園,24.948754344212144,121.26068587934846
H,桃園縣,民眾服務,51,觀光遊憩設施,桃園縣公園,24.957867630618196,121.17145472530987
H,桃園縣,民眾服務,51,觀光遊憩設施,桃園縣仁德公園,24.95340327640812,121.266336706474
H,桃園縣,民眾服務,51,觀光遊憩設施,桃園縣桃鶯公園,24.988877428044898,121.31761934356582
H,桃園縣,民眾服務,51,觀光遊憩設施,桃園縣公園,24.916581232080162,121.25427146278118
H,桃園縣,民眾服務,51,觀光遊憩設施,桃園縣振興公園,24.93168962856204,121.2311905197424
H,桃園縣,民眾服務,51,觀光遊憩設施,桃園縣福信公園,24.994040247256386,121.28367180043035
H,桃園縣,民眾服務,51,觀光遊憩設施,桃園縣公園,25.005297109286182,121.21234094793319
H,桃園縣,民眾服務,51,觀光遊憩設施,桃園縣公園,25.116496565969214,121.24518874323886
H,桃園縣,民眾服務,51,觀光遊憩設施,桃園縣公園,24.92663477268561,121.22573064651868
H,桃園縣,民眾服務,51,觀光遊憩設施,桃園縣高城公園,24.97940879354212,121.2740677445828
H,桃園縣,民眾服務,51,觀光遊憩設施,桃園縣公園,25.015332829167846,121.30388483449507
H,桃園縣,民眾服務,51,觀光遊憩設施,桃園縣公園,24.95888266607715,121.30888250857552
H,桃園縣,民眾服務,51,觀光遊憩設施,桃園縣福安公園,24.986428794293214,121.31270242486161
H,桃園縣,民眾服務,51,觀光遊憩設施,桃園縣平鎮義興公園,24.949381065680157,121.20924759560107
H,桃園縣,民眾服務,51,觀光遊憩設施,桃園縣中央公園,24.8386302081939,121.18429048217638
H,桃園縣,民眾服務,51,觀光遊憩設施,桃園縣中山公園,24.989688876106346,121.2905178434917
H,桃園縣,民眾服務,51,觀光遊憩設施,桃園縣公園,25.01981422561319,121.26331247101794
H,桃園縣,民眾服務,51,觀光遊憩設施,桃園縣公園,25.011188977233445,121.20888484882342
H,桃園縣,民眾服務,51,觀光遊憩設施,桃園縣君臨休閒廣場,24.965004133105534,121.30572222376064
H,桃園縣,民眾服務,51,觀光遊憩設施,桃園縣公園,25.01963738925755,121.26728759450836
H,桃園縣,民眾服務,51,觀光遊憩設施,桃園縣公園,25.045337847683783,121.23601984672777
H,桃園縣,民眾服務,51,觀光遊憩設施,桃園縣大明星公園,24.968665689864906,121.32771564400714
H,桃園縣,民眾服務,51,觀光遊憩設施,桃園縣公園,25.009015738406475,121.21960615967042
H,桃園縣,民眾服務,51,觀光遊憩設施,桃園縣公園,24.976871866113346,121.23598538107436
H,桃園縣,民眾服務,51,觀光遊憩設施,桃園縣公園,25.048997648696375,121.2970464287741
H,桃園縣,民眾服務,51,觀光遊憩設施,桃園縣兒童遊樂場,24.938978253269262,121.08731882298062
H,桃園縣,民眾服務,51,觀光遊憩設施,桃園縣常興公園,24.975598067113722,121.2507385414356
H,桃園縣,民眾服務,51,觀光遊憩設施,桃園縣拉拉山風景特定區管理站,24.67973959845333,121.38409514341168
H,桃園縣,民眾服務,51,觀光遊憩設施,桃園縣公園,25.043644765492854,121.29489622854175
H,桃園縣,民眾服務,51,觀光遊憩設施,桃園縣兩蔣文化園區慈湖陵寢,24.842199104440112,121.29916239158221
H,桃園縣,民眾服務,51,觀光遊憩設施,桃園縣漢口環保公園,24.909869008001152,121.20875765438471
H,桃園縣,民眾服務,51,觀光遊憩設施,桃園縣公園,25.00981316960179,121.20389723450386
H,桃園縣,民眾服務,51,觀光遊憩設施,桃園縣山子頂公園,24.89335974986741,121.20527493184642
H,桃園縣,民眾服務,51,觀光遊憩設施,桃園縣公園,25.004878880983984,121.34520173664225
H,桃園縣,民眾服務,51,觀光遊憩設施,桃園縣公園,25.00592238736507,121.2208926412835
H,桃園縣,民眾服務,51,觀光遊憩設施,桃園縣公鄰18公園,25.05372285955915,121.3640798293335
H,桃園縣,民眾服務,51,觀光遊憩設施,桃園縣公園,25.00586717408382,121.2085557529713
H,桃園縣,民眾服務,51,觀光遊憩設施,桃園縣公園,25.039698030205685,121.37506207129498
H,桃園縣,民眾服務,51,觀光遊憩設施,桃園縣莊敬廣場,24.971680407849526,121.25763219540795
H,桃園縣,民眾服務,51,觀光遊憩設施,桃園縣寶山公園,25.013191422860267,121.31399904624364
H,桃園縣,民眾服務,51,觀光遊憩設施,桃園縣風景區管理所慈湖管理所,24.839800602843287,121.29292002261901
H,桃園縣,民眾服務,51,觀光遊憩設施,桃園縣公園,25.046817237449904,121.29481027082436
H,桃園縣,民眾服務,51,觀光遊憩設施,桃園縣公園,24.93198467458767,121.17697239946236
H,桃園縣,民眾服務,51,觀光遊憩設施,桃園縣黎明公園,24.939406454472525,121.25591353346017
H,桃園縣,民眾服務,51,觀光遊憩設施,桃園縣中正嶺公園,24.883099180824576,121.27500386283734
H,桃園縣,民眾服務,51,觀光遊憩設施,桃園縣大溪河濱公園,24.89253608369748,121.28334235353628
H,桃園縣,民眾服務,51,觀光遊憩設施,桃園縣公園,25.021475515217315,121.30093361592333
H,桃園縣,民眾服務,51,觀光遊憩設施,桃園縣蓮花池景觀公園,25.038346954592598,121.08385086486784
H,桃園縣,民眾服務,51,觀光遊憩設施,桃園縣公園,24.952307862232793,121.23592850194771
H,桃園縣,民眾服務,51,觀光遊憩設施,桃園縣蘆竹鄉兒三環保公園,25.02406579488194,121.25643469881699
H,桃園縣,民眾服務,51,觀光遊憩設施,桃園縣龍安公園,24.93252555085776,121.25862751793514
H,桃園縣,民眾服務,51,觀光遊憩設施,桃園縣建國公園,24.987409749744277,121.317224918782
H,桃園縣,民眾服務,51,觀光遊憩設施,桃園縣快樂公園,25.019520831344582,121.31624069767777
H,桃園縣,民眾服務,51,觀光遊憩設施,桃園縣和盛公園,24.95411437380202,121.29671321525309
H,桃園縣,民眾服務,51,觀光遊憩設施,桃園縣公園,25.01853196943021,121.22487669189057
H,桃園縣,民眾服務,51,觀光遊憩設施,桃園縣宋屋公園,24.945197336976822,121.20444310886853
H,桃園縣,民眾服務,51,觀光遊憩設施,桃園縣公園,25.004275211607823,121.20700705021329
H,桃園縣,民眾服務,51,觀光遊憩設施,桃園縣大檜溪公園,25.013916376916978,121.31633342633087
H,桃園縣,民眾服務,51,觀光遊憩設施,桃園縣公園,25.04444423115732,121.37651289725298
H,桃園縣,民眾服務,51,觀光遊憩設施,桃園縣公園,25.021416999469277,121.21750634298687
H,桃園縣,民眾服務,51,觀光遊憩設施,桃園縣公園,24.93036565215405,121.22182904963424
H,桃園縣,民眾服務,51,觀光遊憩設施,桃園縣新寶公園,24.939134572489728,121.21427704823371
H,桃園縣,民眾服務,51,觀光遊憩設施,桃園縣大成公園,24.957641477715743,121.29504242896263
H,桃園縣,民眾服務,51,觀光遊憩設施,桃園縣公園,25.01630501154802,121.21226497670652
H,桃園縣,民眾服務,51,觀光遊憩設施,桃園縣富竹公園,25.03215440421094,121.2717934321854
H,桃園縣,民眾服務,51,觀光遊憩設施,桃園縣湖濱公園,24.88741914555872,121.1710122069316
H,桃園縣,民眾服務,51,觀光遊憩設施,桃園縣華勛公園,24.946386642768257,121.26220283312817
H,桃園縣,民眾服務,51,觀光遊憩設施,桃園縣忠勇公園,24.96403693449318,121.30477947847349
H,桃園縣,民眾服務,51,觀光遊憩設施,桃園縣民俗文化公園,24.911459339226425,121.20750013188682
H,桃園縣,民眾服務,51,觀光遊憩設施,桃園縣味全埔心觀光牧場,24.925723707328007,121.1765268507485
H,桃園縣,民眾服務,51,觀光遊憩設施,桃園縣玉山公園,24.978642255039688,121.30238561909907
H,桃園縣,民眾服務,51,觀光遊憩設施,桃園縣環保公園,25.0476195097259,121.35740997525444
H,桃園縣,民眾服務,51,觀光遊憩設施,桃園縣長庚護理之家桃園長青院區養生文化村公園,25.016103807975654,121.36605671353358
H,桃園縣,民眾服務,51,觀光遊憩設施,桃園縣公園,25.01948569137658,121.22040836781174
H,桃園縣,民眾服務,51,觀光遊憩設施,桃園縣康荷公園,24.915240715370164,121.21165841066295
H,桃園縣,民眾服務,51,觀光遊憩設施,桃園縣中山公園,24.985277915843515,121.25111527735856
H,桃園縣,民眾服務,51,觀光遊憩設施,桃園縣公園,25.049495878961263,121.36051143643606
H,桃園縣,民眾服務,51,觀光遊憩設施,桃園縣思源公園,24.97301502455478,121.29860512319473
H,桃園縣,民眾服務,51,觀光遊憩設施,桃園縣公鄰19公園,25.050526796446377,121.36301266814307
H,桃園縣,民眾服務,51,觀光遊憩設施,桃園縣馬祖社區公園,24.935172698124422,121.23804755143789
H,桃園縣,民眾服務,51,觀光遊憩設施,桃園縣廣仁公園,24.939486370869382,121.20697343538323
H,桃園縣,民眾服務,51,觀光遊憩設施,桃園縣公園,25.001673223997162,121.28178764937064
H,桃園縣,民眾服務,51,觀光遊憩設施,桃園縣莊敬公園,25.023849873147494,121.2982288005715
H,桃園縣,民眾服務,51,觀光遊憩設施,桃園縣拉拉山旅遊服務中心,24.67972769055111,121.38402222268701
H,桃園縣,民眾服務,51,觀光遊憩設施,桃園縣公園,24.92660247911149,121.06656522943537
H,桃園縣,民眾服務,51,觀光遊憩設施,桃園縣壽山岩公園,25.004257080418455,121.36587821379838
H,桃園縣,民眾服務,51,觀光遊憩設施,桃園縣長庚護理之家桃園長青院區養生文化村公園,25.016255627280266,121.36679077542848
H,桃園縣,民眾服務,51,觀光遊憩設施,桃園縣青溪公園,25.000726026765122,121.31608057485603
H,桃園縣,民眾服務,51,觀光遊憩設施,桃園縣大湳公園,24.96171994520171,121.29487431944817
H,桃園縣,民眾服務,51,觀光遊憩設施,桃園縣自強公園,24.967883072736225,121.25955288083004
H,桃園縣,民眾服務,51,觀光遊憩設施,桃園縣莊敬公園廣場,24.90441325033579,121.21485519467959
H,桃園縣,民眾服務,51,觀光遊憩設施,桃園縣公園,24.940911558520995,121.21041656933042
H,桃園縣,民眾服務,51,觀光遊憩設施,桃園縣中正公園,24.95914144804335,121.22694659539775
H,桃園縣,民眾服務,51,觀光遊憩設施,桃園縣公園,25.022332943982985,121.25445054684265
H,桃園縣,民眾服務,51,觀光遊憩設施,桃園縣桃園市第一河濱公園,25.00117335756419,121.31968677031968
H,桃園縣,民眾服務,51,觀光遊憩設施,桃園縣公園,25.01043973333468,121.31280728642935
H,桃園縣,民眾服務,51,觀光遊憩設施,桃園縣公園,25.021321531354268,121.22437223727681
H,桃園縣,民眾服務,51,觀光遊憩設施,臺灣桃園國際機場旅客服務中心第一航廈,25.053715005270465,121.21569499997071
H,桃園縣,民眾服務,51,觀光遊憩設施,臺灣桃園國際機場旅客服務中心第二航廈,25.053790997755492,121.2157799999602
H,桃園縣,民眾服務,51,觀光遊憩設施,中正航空科學館,25.070452005944468,121.22366399997505
H,桃園縣,民眾服務,51,觀光遊憩設施,廟口夜市,25.064833999439777,121.19674099996655
H,桃園縣,民眾服務,51,觀光遊憩設施,桃園縣兒五兒童遊樂場,24.93586360454472,121.090877004508
H,桃園縣,民眾服務,51,觀光遊憩設施,桃園縣青塘園,25.00567779471042,121.20585996693443
H,桃園縣,民眾服務,51,觀光遊憩設施,桃園縣公園,25.049773321823633,121.2999397497018
H,桃園縣,民眾服務,51,觀光遊憩設施,桃園縣濱海遊憩公園,25.044894733325552,121.07609556491111
H,桃園縣,民眾服務,51,觀光遊憩設施,桃園縣大華公園,25.051039827796007,121.36640484736097
H,桃園縣,民眾服務,51,觀光遊憩設施,桃園縣公園,24.914004560741784,121.2816263482218
H,桃園縣,民眾服務,51,觀光遊憩設施,桃園縣公園,24.95678859392224,121.1756270324625
H,桃園縣,民眾服務,51,觀光遊憩設施,蘆竹五福宮,25.05353700885486,121.29451699996716
H,桃園縣,民眾服務,51,觀光遊憩設施,臥龍崗森林樂園,25.083144001479916,121.33881599994909
H,桃園縣,民眾服務,51,觀光遊憩設施,尋夢谷森林樂園,25.095919997359076,121.2776869999493
H,桃園縣,民眾服務,51,觀光遊憩設施,永漢高爾夫球場,25.090800010768966,121.28090099997581
H,桃園縣,民眾服務,51,觀光遊憩設施,統帥高爾夫球場,25.064440998576536,121.30631499994188
H,桃園縣,民眾服務,51,觀光遊憩設施,臺北高爾夫球場,25.060301003177617,121.32779099995498
H,桃園縣,民眾服務,51,觀光遊憩設施,福爾摩莎第一高爾夫球場,25.075654001132705,121.33094399994728
H,桃園縣,民眾服務,51,觀光遊憩設施,風力發電景觀,25.008667001991867,121.11069299998167
H,桃園縣,民眾服務,51,觀光遊憩設施,白沙岬燈塔,25.04097099656727,121.07616899998197
H,桃園縣,民眾服務,51,觀光遊憩設施,世界警察博物館,25.04565699898071,121.35248199993903
H,桃園縣,民眾服務,51,觀光遊憩設施,南僑化工榮恭館,24.982471998835006,121.3248319999388
H,桃園縣,民眾服務,51,觀光遊憩設施,台塑企業文物館,25.0355279963475,121.39008199992458
H,桃園縣,民眾服務,51,觀光遊憩設施,東方高爾夫球場,25.00591099666218,121.36440599992684
H,桃園縣,民眾服務,51,觀光遊憩設施,長庚高爾夫球餐廳,25.005033006242435,121.36457899995298
H,桃園縣,民眾服務,51,觀光遊憩設施,長庚高爾夫球場,25.026466997214953,121.38165899992235
H,桃園縣,民眾服務,51,觀光遊憩設施,桃園海洋生物教育館,25.04778200102193,121.3134319999464
H,桃園縣,民眾服務,51,觀光遊憩設施,憶聲電子文物館,24.98658300582965,121.23910999997102
H,桃園縣,民眾服務,51,觀光遊憩設施,中壢觀光夜市(新明夜市),24.959191000027797,121.21505699996034
H,桃園縣,民眾服務,51,觀光遊憩設施,桃園景福宮,24.996298008385267,121.30933299996543
H,桃園縣,民眾服務,51,觀光遊憩設施,桃園縣忠烈祠,25.00799600799652,121.32744299996469
H,桃園縣,民眾服務,51,觀光遊憩設施,可口可樂世界,24.97964099832171,121.32621499993611
H,桃園縣,民眾服務,51,觀光遊憩設施,中國傢俱博物館,24.993806999644722,121.30026199994833
H,桃園縣,民眾服務,51,觀光遊憩設施,桃園縣自然史教育館,24.995017005785545,121.31496999995868
H,桃園縣,民眾服務,51,觀光遊憩設施,台灣土地改革陳列館,24.991831999565594,121.29860599995077
H,桃園縣,民眾服務,51,觀光遊憩設施,桃園夜市,25.002999010443254,121.30665699997417
H,桃園縣,民眾服務,51,觀光遊憩設施,假日花市,24.996183000092508,121.32561099994031
H,桃園縣,民眾服務,51,觀光遊憩設施,亞洲高爾夫練習場,25.00393299826267,121.28561699995032
H,桃園縣,民眾服務,51,觀光遊憩設施,中正路商圈,24.99175000752376,121.31269299996104
H,桃園縣,民眾服務,51,觀光遊憩設施,桃園風景區管理所,25.00144700477719,121.32734699995697
H,桃園縣,民眾服務,51,觀光遊憩設施,黑松文物館,24.97873600913586,121.2364059999757
H,桃園縣,民眾服務,51,觀光遊憩設施,桃園縣政府文化局中壢藝術館,24.958253998379032,121.22759999995691
H,桃園縣,民眾服務,51,觀光遊憩設施,楊梅市觀光茶園,24.9130160021332,121.1356439999775
H,桃園縣,民眾服務,51,觀光遊憩設施,小人國主題樂園,24.83203100504739,121.18853499997132
H,桃園縣,民眾服務,51,觀光遊憩設施,龍潭聖蹟亭,24.863787000441285,121.20842499996219
H,桃園縣,民眾服務,51,觀光遊憩設施,龍潭鄉觀光茶園,24.831362000362077,121.19456299996283
H,桃園縣,民眾服務,51,觀光遊憩設施,茶舍水龍吟,24.86342500416394,121.19782999996701
H,桃園縣,民眾服務,51,觀光遊憩設施,萬利花市,24.95839599893065,121.21856699995627
H,桃園縣,民眾服務,51,觀光遊憩設施,鄉城高爾夫練習場,24.9690320056954,121.19889899997632
H,桃園縣,民眾服務,51,觀光遊憩設施,中原夜市,24.957056007297957,121.23980499996792
H,桃園縣,民眾服務,51,觀光遊憩設施,新屋范姜祖堂,24.974265994633846,121.10479299997483
H,桃園縣,民眾服務,51,觀光遊憩設施,永安雪森林濱海遊憩區,24.985442997141178,121.01641499999367
H,桃園縣,民眾服務,51,觀光遊憩設施,新屋綠色走廊,24.969298004467845,121.01237699998939
H,桃園縣,民眾服務,51,觀光遊憩設施,桃園縣觀音鄉觀光休閒農業園區,24.993967005877664,121.09544999998656
H,桃園縣,民眾服務,51,觀光遊憩設施,郭元益糕餅博物館楊梅館,24.928147007096364,121.16760799998062
H,桃園縣,民眾服務,51,觀光遊憩設施,桃園客家文化館,24.845472001638132,121.23447099995859
H,桃園縣,民眾服務,51,觀光遊憩設施,石門山溫泉會館,24.82428900061651,121.24094999995884
H,桃園縣,民眾服務,51,觀光遊憩設施,藍鷹高爾夫球場,24.839171997468696,121.17074499996228
H,桃園縣,民眾服務,51,觀光遊憩設施,龍潭高爾夫球場,24.842647010211536,121.22316799997616
H,桃園縣,民眾服務,51,觀光遊憩設施,桃園高爾夫球場,24.86959600848541,121.248198999974
H,桃園縣,民眾服務,51,觀光遊憩設施,龍潭觀光大池,24.861092002330267,121.21100399997114
H,桃園縣,民眾服務,51,觀光遊憩設施,九斗村休閒農場,24.960659004389086,121.12810999997507
H,桃園縣,民眾服務,51,觀光遊憩設施,老k牌彈簧床體驗館,24.953443999912153,121.14710999996791
H,桃園縣,民眾服務,51,觀光遊憩設施,味全埔心牧場,24.92576399625629,121.17592499996054
H,桃園縣,民眾服務,51,觀光遊憩設施,楊梅高爾夫球場,24.88491200191519,121.1261369999804
H,桃園縣,民眾服務,51,觀光遊憩設施,揚昇高爾夫球場北側出入口,24.88994200749121,121.14891999998021
H,桃園縣,民眾服務,51,觀光遊憩設施,揚昇高爾夫球場南側出入口,24.879401002467052,121.15646699997407
H,桃園縣,民眾服務,51,觀光遊憩設施,揚昇高爾夫球場,24.880355010328376,121.1571229999863
H,桃園縣,民眾服務,51,觀光遊憩設施,大溪鎮展示館,24.884156001675255,121.28572899995724
H,桃園縣,民眾服務,51,觀光遊憩設施,大溪中正公園,24.88319900433849,121.28516599995795
H,桃園縣,民眾服務,51,觀光遊憩設施,慈湖,24.84035000191784,121.29430299995069
H,桃園縣,民眾服務,51,觀光遊憩設施,龍溪花園,24.85245300500261,121.29262999995899
H,桃園縣,民眾服務,51,觀光遊憩設施,龍珠灣遊樂區,24.82000300366267,121.28732199996398
H,桃園縣,民眾服務,51,觀光遊憩設施,石門水庫風景區,24.811408010130762,121.24735299997663
H,桃園縣,民眾服務,51,觀光遊憩設施,鴻禧大溪高爾夫球場,24.88068500642146,121.32711799996576
H,桃園縣,民眾服務,51,觀光遊憩設施,楓香道,24.811832995561776,121.24710999994923
H,桃園縣,民眾服務,51,觀光遊憩設施,石門水庫自行車道,24.811832995561776,121.24710999994923
H,桃園縣,民眾服務,51,觀光遊憩設施,大霸、八角亭,24.811832995561776,121.24710999994923
H,桃園縣,民眾服務,51,觀光遊憩設施,大溪老街,24.884574007061715,121.28900799996879
H,桃園縣,民眾服務,51,觀光遊憩設施,石門水庫,24.81141000358365,121.24735699996114
H,桃園縣,民眾服務,51,觀光遊憩設施,大溪花海農場,24.842220010471536,121.29064699996995
H,桃園縣,民眾服務,51,觀光遊憩設施,小烏來風景特定區,24.794123998175387,121.37828999992925
H,桃園縣,民眾服務,51,觀光遊憩設施,拉拉山自然保護區,24.708746003309514,121.43738799994308
H,桃園縣,民眾服務,51,觀光遊憩設施,綜合觀光農園,24.832437004068193,121.33115399995323
H,桃園縣,民眾服務,51,觀光遊憩設施,石門水庫風景區,24.811408010130762,121.24735299997663
H,桃園縣,民眾服務,51,觀光遊憩設施,李騰芳古宅,24.890691006458663,121.29768099996487
H,桃園縣,民眾服務,51,觀光遊憩設施,大溪齋明寺,24.89121000493932,121.27579399996135
H,桃園縣,民眾服務,51,觀光遊憩設施,蓮座山觀音寺,24.88884599605072,121.28457699994306
H,桃園縣,民眾服務,51,觀光遊憩設施,綜合觀光果園,24.870116999699334,121.30898699994779
H,桃園縣,民眾服務,51,觀光遊憩設施,龍山寺,24.89494000262472,121.32389299995451
H,桃園縣,民眾服務,51,觀光遊憩設施,大溪藝文之家,24.882167008356618,121.28530499997134
H,桃園縣,民眾服務,51,觀光遊憩設施,武德殿,24.88086100739089,121.28585999996301
H,桃園縣,民眾服務,51,觀光遊憩設施,金蘭博物館,24.91966700000392,121.29219299994864
H,桃園縣,民眾服務,51,觀光遊憩設施,拉拉山收費站,24.679846999598876,121.3837219999349
H,桃園縣,民眾服務,51,觀光遊憩設施,三民蝙蝠洞入口處,24.838174997954596,121.34950199994007
H,桃園縣,民眾服務,51,觀光遊憩設施,三民蝙蝠洞,24.835762004653933,121.3541509999583
H,桃園縣,民眾服務,51,觀光遊憩設施,高義溫泉舊址,24.721898005656147,121.35382699995894
H,桃園縣,民眾服務,51,觀光遊憩設施,爺亨溫泉山莊,24.675190002223964,121.3750369999415
H,桃園縣,民眾服務,51,觀光遊憩設施,嘎拉賀溫泉(新興溫泉),24.631791999533295,121.40901399993214
H,桃園縣,民眾服務,51,觀光遊憩設施,四陵溫泉入口,24.644883005201365,121.43451199995202
H,桃園縣,民眾服務,51,觀光遊憩設施,四陵溫泉,24.639437004553063,121.43735599994731
H,桃園縣,民眾服務,51,觀光遊憩設施,拉拉山自然保護區入口處,24.703819010430298,121.42158099996367
H,桃園縣,民眾服務,51,觀光遊憩設施,拉拉山生態教育館,24.710627999887794,121.43331899992448
H,桃園縣,民眾服務,51,觀光遊憩設施,爺亨梯田,24.672991007624464,121.37296799995785
H,桃園縣,民眾服務,51,觀光遊憩設施,塔曼山登山口,24.698968002861754,121.42566299993729
H,桃園縣,民眾服務,51,觀光遊憩設施,嘎拉賀神木群A區(把加灣山區),24.6359509999197,121.38436499993799
H,桃園縣,民眾服務,51,觀光遊憩設施,嘎拉賀神木群B區(唐穗山區),24.610972004431584,121.4041029999461
H,桃園縣,民眾服務,51,觀光遊憩設施,嘎拉賀神木群C區(卡曼斯山區),24.61391999593142,121.4170429999166
H,桃園縣,民眾服務,51,觀光遊憩設施,小烏來瀑布,24.78171500022927,121.39897099993713
H,桃園縣,民眾服務,51,觀光遊憩設施,東眼山森林遊樂區,24.83666699727084,121.40546399992196
H,桃園縣,民眾服務,51,觀光遊憩設施,拉拉山自然保護區,24.708746003309514,121.43738799994308
H,桃園縣,民眾服務,51,觀光遊憩設施,角板山行館風景區,24.8173870021487,121.35105999994954
H,桃園縣,民眾服務,51,觀光遊憩設施,榮華大壩,24.737319007752948,121.35136199996265
H,桃園縣,民眾服務,51,觀光遊憩設施,小烏來瀑布風景區,24.791202004099624,121.37638299995372
H,桃園縣,民眾服務,52,停車場地,桃園縣公立停二停車場,24.882919550854623,121.28546814755191
H,桃園縣,民眾服務,52,停車場地,桃園縣塔臺路停車場,25.08021251099077,121.23591332519003
H,桃園縣,民眾服務,52,停車場地,桃園縣公園,25.036335070741334,121.13898321124007
H,桃園縣,民眾服務,52,停車場地,桃園縣停車場,24.96064247614577,121.30105898991705
H,桃園縣,民眾服務,52,停車場地,桃園縣停車場,24.984267588335836,121.10792112755958
H,桃園縣,民眾服務,52,停車場地,桃園縣小烏來停車場,24.791037337887374,121.37811127328467
H,桃園縣,民眾服務,52,停車場地,桃園縣停車場,24.931105834908234,121.25761328638825
H,桃園縣,民眾服務,52,停車場地,桃園縣兩蔣文化園區慈湖陵寢停車場,24.840334632966847,121.29321809091385
H,桃園縣,民眾服務,52,停車場地,桃園縣停車場,25.059465721650344,121.28429097894525
H,桃園縣,民眾服務,52,停車場地,桃園縣停車場,24.90857650241362,121.14646221982804
H,桃園縣,民眾服務,52,停車場地,桃園縣大園濱海遊憩區停車場,25.113824239735944,121.24171493364003
H,桃園縣,民眾服務,52,停車場地,桃園縣停車場,24.908409932376475,121.1789002085979
H,桃園縣,民眾服務,52,停車場地,桃園縣廣北停車場,24.956562431163018,121.20854039228435
H,桃園縣,民眾服務,52,停車場地,桃園縣停車場(4),25.00940037423006,121.21644403588542
H,桃園縣,民眾服務,52,停車場地,桃園縣停車場,24.90734970685033,121.16760500752714
H,桃園縣,民眾服務,52,停車場地,桃園縣停車場,24.945938916149636,121.08906198179352
H,桃園縣,民眾服務,52,停車場地,桃園縣南崁公一停車場,25.050713719448428,121.29273310472242
H,桃園縣,民眾服務,52,停車場地,桃園縣停車場,24.97700769741764,121.25814102586433
H,桃園縣,民眾服務,52,停車場地,桃園縣停車場,24.972089312333072,121.25538065743889
H,桃園縣,民眾服務,52,停車場地,桃園縣停車場,24.937867115683844,121.08201392148763
H,桃園縣,民眾服務,52,停車場地,桃園縣停車場,24.986551685917572,121.22889602734242
H,桃園縣,民眾服務,52,停車場地,桃園縣虎尾山公園停車場,25.003091570094263,121.32751923226618
H,桃園縣,民眾服務,52,停車場地,桃園縣第五汽機車停車場,25.01131329179099,121.22175838121528
H,桃園縣,民眾服務,52,停車場地,桃園縣拉拉山平面停車場,24.709485584798458,121.43195188480821
H,桃園縣,民眾服務,52,停車場地,桃園縣公有停車場,24.97497553001759,121.25093727736763
H,桃園縣,民眾服務,52,停車場地,桃園縣停車場,25.012125419386113,121.21313661370627
H,桃園縣,民眾服務,52,停車場地,桃園縣停車場,25.047109929435962,121.29593408641874
H,桃園縣,民眾服務,52,停車場地,桃園縣停車場,24.986030067475493,121.2360185301605
H,桃園縣,民眾服務,52,停車場地,桃園縣中壢市中央地下停車場,24.956432549154304,121.22654710993992
H,桃園縣,民眾服務,52,停車場地,桃園縣停車場,25.115379637999595,121.24229208514716
H,桃園縣,民眾服務,52,停車場地,桃園縣停車場,24.95977980602369,121.18271110901588
H,桃園縣,民眾服務,52,停車場地,桃園縣停車場,24.98548725137977,121.1076817015817
H,桃園縣,民眾服務,52,停車場地,桃園縣蘆竹濱海遊憩區停車場,25.116927741329267,121.27694252284806
H,桃園縣,民眾服務,52,停車場地,桃園縣大園鄉老街溪加蓋停車場,25.06470621055806,121.19571711049896
H,桃園縣,民眾服務,52,停車場地,桃園縣上臺地停車場,24.814676517662832,121.34957469656933
H,桃園縣,民眾服務,52,停車場地,桃園縣停車場,24.91113996559338,121.15245704751733
H,桃園縣,民眾服務,52,停車場地,桃園縣中壢市立體停車場(停四停車場),24.952181339186723,121.22667339791941
H,桃園縣,民眾服務,52,停車場地,桃園縣停車場,24.92824741023118,121.10623233067867
H,桃園縣,民眾服務,52,停車場地,桃園縣月眉停車場,24.889093500464977,121.2874422277956
H,桃園縣,民眾服務,52,停車場地,桃園縣停車場,25.002943528616015,121.32442758575249
H,桃園縣,民眾服務,52,停車場地,桃園縣停車場,25.013914008366974,121.21491244086864
H,桃園縣,民眾服務,52,停車場地,桃園縣停車場,24.907422003137203,121.12033383324614
H,桃園縣,民眾服務,52,停車場地,桃園縣停車場,24.945722170379074,121.20481564528431
H,桃園縣,民眾服務,52,停車場地,桃園縣新屋鄉第一立體停車場,24.972570206634405,121.10578761747554
H,桃園縣,民眾服務,52,停車場地,桃園縣停車場,24.960406234431385,121.18453512135876
H,桃園縣,民眾服務,52,停車場地,桃園縣大溪遊客中心停車場,24.849095948397917,121.28572489755337
H,桃園縣,民眾服務,52,停車場地,桃園縣今日停車場,24.99051534117726,121.314708855158
H,桃園縣,民眾服務,52,停車場地,桃園縣停車場,25.117001174010092,121.24464563660577
H,桃園縣,民眾服務,52,停車場地,桃園縣停車場,25.013224762683592,121.21584480236315
H,桃園縣,民眾服務,52,停車場地,桃園縣大潤發停車場,24.921311618670074,121.21387517596017
H,桃園縣,民眾服務,52,停車場地,桃園縣延平路立體停車場,24.955888533263458,121.22348822497528
H,桃園縣,民眾服務,52,停車場地,桃園縣停車場,25.067643288507828,121.19587224554087
H,桃園縣,民眾服務,52,停車場地,桃園縣仁愛停車場,24.818021328403958,121.3518255627274
H,桃園縣,民眾服務,52,停車場地,桃園縣龍潭鄉公有第一停車場,24.86367478495573,121.21562446644768
H,桃園縣,民眾服務,52,停車場地,桃園縣停車場,24.97646400607536,121.22748715716111
H,桃園縣,民眾服務,52,停車場地,桃園縣市場停車場,24.930436813008306,121.25291969602223
H,桃園縣,民眾服務,52,停車場地,桃園縣停車場,24.910646254414516,121.16097271080578
H,桃園縣,民眾服務,52,停車場地,桃園縣停車場,25.11685451838491,121.24615367061672
H,桃園縣,民眾服務,52,停車場地,桃園縣大忠公有停車場,24.958394192786656,121.30077112460604
H,桃園縣,民眾服務,52,停車場地,桃園縣停車場,25.083756079323056,121.25739823410468
H,桃園縣,民眾服務,52,停車場地,桃園縣停車場,24.98181207379434,121.24927259751504
H,桃園縣,民眾服務,52,停車場地,桃園縣公園,25.004032535914238,121.21465041052522
H,桃園縣,民眾服務,52,停車場地,桃園縣下巴陵停車場,24.678400089834142,121.38616106482853
H,桃園縣,民眾服務,52,停車場地,桃園縣公有湳仔溝停車場,24.824770176886705,121.28835714933396
H,桃園縣,民眾服務,52,停車場地,桃園縣第六停車場,25.007355066478787,121.21800741884246
H,桃園縣,民眾服務,52,停車場地,桃園縣停車場,24.968105931592337,121.26349915349553
H,桃園縣,民眾服務,52,停車場地,桃園縣桃園府前公有停車場(地下),24.992744075393112,121.30188472160361
H,桃園縣,民眾服務,52,停車場地,桃園縣停車場,24.958652596400437,121.24327984540007
H,桃園縣,民眾服務,52,停車場地,桃園縣東眼山國家遊樂區停車場,24.832916724770495,121.40927358942635
H,桃園縣,民眾服務,52,停車場地,桃園縣文化停車場,25.059827886676118,121.37071126883286
H,桃園縣,民眾服務,52,停車場地,桃園縣停車場,24.99622372476466,121.32659345584598
H,桃園縣,民眾服務,52,停車場地,桃園縣第七停車場,25.00558958620183,121.21617045564548
H,桃園縣,民眾服務,52,停車場地,桃園縣第一航廈停車場,25.08261523338542,121.23880835808133
H,桃園縣,民眾服務,52,停車場地,桃園縣停車場,25.00458684086518,121.2194330430605
H,桃園縣,民眾服務,52,停車場地,桃園縣停車場,24.880888946534164,121.28722414693023
H,桃園縣,民眾服務,52,停車場地,桃園縣停車場,24.91519569328647,121.15505015770283
H,桃園縣,民眾服務,52,停車場地,桃園縣觀音鄉公有停車場,25.038223951221575,121.08069156258823
H,桃園縣,民眾服務,52,停車場地,桃園縣停車場,24.99591107821079,121.30012256001717
H,桃園縣,民眾服務,52,停車場地,桃園縣東眼山國家遊樂區停車場,24.831980798448818,121.40897405012315
H,桃園縣,民眾服務,52,停車場地,桃園縣停車場,24.927390982765175,121.17534627901466
H,桃園縣,民眾服務,52,停車場地,桃園縣停車場,24.91012924334846,121.14762974845557
H,桃園縣,民眾服務,52,停車場地,桃園縣廣南停車場,24.94499956935452,121.20889914347481
H,桃園縣,民眾服務,52,停車場地,桃園縣停車場,24.972647888771625,121.23201941234882
H,桃園縣,民眾服務,52,停車場地,桃園縣公有停車場,25.060057185554165,121.36953685341012
H,桃園縣,民眾服務,52,停車場地,桃園縣噗噗停車場,24.962939181424552,121.21728685800383
H,桃園縣,民眾服務,52,停車場地,桃園縣停車場,24.965279199845156,121.22086335656532
H,桃園縣,民眾服務,52,停車場地,桃園縣龜山鄉立中山地下停車場,24.99176285145582,121.3376540904899
H,桃園縣,民眾服務,52,停車場地,桃園縣停車場,24.96255066524316,121.30606208219122
H,桃園縣,民眾服務,52,停車場地,桃園縣停車場,24.945126303082112,121.21672951201005
H,桃園縣,民眾服務,52,停車場地,桃園縣停車場,24.990216514531046,121.32687606883158
H,桃園縣,民眾服務,52,停車場地,桃園縣第二汽機車停車場,25.015176559472266,121.21957542352723
H,桃園縣,民眾服務,52,停車場地,桃園縣停車場,24.981758712606453,121.03984172205261
H,桃園縣,民眾服務,52,停車場地,桃園縣停車場,24.985247531043154,121.10851227243307
H,桃園縣,民眾服務,52,停車場地,桃園縣公立廣停一停車場,24.964638511051948,121.22471433214993
H,桃園縣,民眾服務,52,停車場地,桃園縣停車場,25.02398783569609,121.25767778594161
H,桃園縣,民眾服務,52,停車場地,桃園縣停車場,24.990563821979908,121.32670979357839
H,桃園縣,民眾服務,52,停車場地,桃園縣公有停車場,24.90688921667088,121.27980323762603
H,桃園縣,民眾服務,52,停車場地,桃園縣公有停車場,24.984737216839722,121.3159050502987
H,桃園縣,民眾服務,52,停車場地,桃園縣停車場,25.062292989371635,121.37081947862632
H,桃園縣,民眾服務,52,停車場地,桃園縣楊梅市第二停車場,24.909932186298196,121.14435182881189
H,桃園縣,民眾服務,52,停車場地,桃園縣大園濱海遊憩區停車場,25.113199658741635,121.23855119983274
H,桃園縣,民眾服務,52,停車場地,桃園縣公有停車場,25.046702856408018,121.29437876986206
H,桃園縣,民眾服務,52,停車場地,桃園縣社區停車場,24.958186181148797,121.30759780057414
H,桃園縣,民眾服務,52,停車場地,桃園縣運動公園停車場,24.86761171569244,121.2184580804785
H,桃園縣,民眾服務,52,停車場地,桃園縣停車場,24.9346945903602,121.09963890026394
H,桃園縣,民眾服務,52,停車場地,桃園縣停車場,24.96857432858494,121.19853610710524
H,桃園縣,民眾服務,52,停車場地,桃園縣停車場,24.96478277650809,121.22007796425414
H,桃園縣,民眾服務,52,停車場地,桃園縣社區停車場,24.960318569636986,121.30722143453778
H,桃園縣,民眾服務,52,停車場地,桃園縣橋頭停車場,24.884513120316335,121.28103166313295
H,桃園縣,民眾服務,52,停車場地,桃園縣停車場,25.06317249590408,121.19814452954583
H,桃園縣,民眾服務,52,停車場地,桃園縣公有停車場,24.907004773725035,121.27956523049474
H,桃園縣,民眾服務,52,停車場地,桃園縣西側停車場,25.075944926321466,121.23052437227085
H,桃園縣,民眾服務,52,停車場地,桃園縣停車場,25.066522083637576,121.20103524416028
H,桃園縣,民眾服務,52,停車場地,桃園縣公有雙峰停車場,25.01266638671612,121.31372470178563
H,桃園縣,民眾服務,52,停車場地,桃園縣停車場,25.011973710000696,121.21887944235293
H,桃園縣,民眾服務,52,停車場地,桃園縣停車場,24.90792544090453,121.15159360395518
H,桃園縣,民眾服務,52,停車場地,桃園縣停車場,24.981305063880672,121.3120993594577
H,桃園縣,民眾服務,52,停車場地,桃園縣停車場,24.91740328099529,121.2540836087743
H,桃園縣,民眾服務,52,停車場地,桃園縣東側停車場,25.07822019121555,121.23327517822723
H,桃園縣,民眾服務,52,停車場地,桃園縣停車場,24.996613514453703,121.34375061275593
H,桃園縣,民眾服務,52,停車場地,老溪街停車場,25.063698008163083,121.19533299997431
H,桃園縣,民眾服務,52,停車場地,連勝立體出國停車場一場,25.05748999989928,121.2124509999606
H,桃園縣,民眾服務,52,停車場地,連勝立體出國停車場三場,25.05735000940523,121.21472899997694
H,桃園縣,民眾服務,52,停車場地,航科館停車場,25.07080900969174,121.22489699997541
H,桃園縣,民眾服務,52,停車場地,臺灣桃園國際機場西側停車場,25.075866005276747,121.23034399997287
H,桃園縣,民眾服務,52,停車場地,臺灣桃園國際機場東側停車場,25.078070997741236,121.23304399995429
H,桃園縣,民眾服務,52,停車場地,出境停車場,25.08261399835256,121.23915599995284
H,桃園縣,民眾服務,52,停車場地,皇家停車場,25.088750003710256,121.25333499996246
H,桃園縣,民眾服務,52,停車場地,五福停車場,25.085245998848624,121.25591599995234
H,桃園縣,民眾服務,52,停車場地,入境停車場,25.080865008256925,121.23651799997083
H,桃園縣,民眾服務,52,停車場地,中興嘟嘟房停車場-中正旗艦站,25.09007800678173,121.25144599997255
H,桃園縣,民眾服務,52,停車場地,桃園縣停車場,24.96390182042044,121.21861860737691
H,桃園縣,民眾服務,52,停車場地,桃園縣宏昌公有停車場,24.98734326571233,121.29189141341146
H,桃園縣,民眾服務,52,停車場地,桃園縣僑愛停車場,24.921803378786034,121.293935250059
H,桃園縣,民眾服務,52,停車場地,桃園縣停車場,25.051682249248934,121.29070125326128
H,桃園縣,民眾服務,52,停車場地,五酒桶山步道口,25.070031997657118,121.28206699994158
H,桃園縣,民眾服務,52,停車場地,公一地下停車場,25.050824004575798,121.2933869999613
H,桃園縣,民眾服務,52,停車場地,臥龍崗育樂中心停車場,25.083765000470706,121.34203399993808
H,桃園縣,民眾服務,52,停車場地,大竹都計停一停車場,25.030775994425557,121.25195899994634
H,桃園縣,民眾服務,52,停車場地,大竹都計停五停車場,25.09210500453525,121.26825099996265
H,桃園縣,民眾服務,52,停車場地,Times(普客二四停車場)-佳瑪南崁停車場,25.050213005370637,121.29205699996558
H,桃園縣,民眾服務,52,停車場地,觀音停車場,25.03797199764968,121.08062999997586
H,桃園縣,民眾服務,52,停車場地,觀音海水浴場停車場,25.044868007803903,121.07596399998974
H,桃園縣,民眾服務,52,停車場地,觀音鄉公有停車場,25.03714599952027,121.08126699997773
H,桃園縣,民眾服務,52,停車場地,東方高爾夫球場停車場,25.005618004329598,121.36465999995454
H,桃園縣,民眾服務,52,停車場地,鄉城高爾夫練習場停車場,24.969050006910994,121.19890499997457
H,桃園縣,民眾服務,52,停車場地,中壢客運地下停車場,24.956445001925733,121.22617999995863
H,桃園縣,民眾服務,52,停車場地,大江國際購物中心停車場,25.000943998468628,121.22801699995526
H,桃園縣,民眾服務,52,停車場地,中壢市中正公園立體停車塔,24.958666010840243,121.22605399998021
H,桃園縣,民眾服務,52,停車場地,中美停車場,24.960038998080492,121.21997299996116
H,桃園縣,民眾服務,52,停車場地,公七停車場,24.95638199421198,121.2268809999445
H,桃園縣,民眾服務,52,停車場地,立體停車場,24.952076998252963,121.22665199995635
H,桃園縣,民眾服務,52,停車場地,中興嘟嘟房停車場-中壢中美站,24.95947500499553,121.22394999997009
H,桃園縣,民眾服務,52,停車場地,中台停車場,24.957243001573964,121.2271419999582
H,桃園縣,民眾服務,52,停車場地,中壢市公所原有辦工廳地面臨時停車場,24.95581600019817,121.22325199995832
H,桃園縣,民眾服務,52,停車場地,台灣聯通停車場-中壢長春,24.977955006996616,121.24770999997261
H,桃園縣,民眾服務,52,停車場地,桃園縣政府前地下公有停車場,24.993519003696875,121.30099799995638
H,桃園縣,民眾服務,52,停車場地,西門國小地下停車場,24.993312009951335,121.30454999997421
H,桃園縣,民眾服務,52,停車場地,西門國小地下停車場,24.993312009951335,121.30454999997421
H,桃園縣,民眾服務,52,停車場地,新民立體停車場,24.992941007695386,121.31075399996755
H,桃園縣,民眾服務,52,停車場地,國光客運桃園停車場,24.98712101148155,121.312689999975
H,桃園縣,民眾服務,52,停車場地,桃園縣文化局停車場,24.994349999334663,121.30027199995035
H,桃園縣,民眾服務,52,停車場地,虎頭山公園第一停車場,25.00288499600769,121.32767499993221
H,桃園縣,民眾服務,52,停車場地,虎頭山公園第二停車場,25.00267199571681,121.3282939999312
H,桃園縣,民眾服務,52,停車場地,文昌公園立體停車塔,24.992210998186554,121.30922299993986
H,桃園縣,民眾服務,52,停車場地,永和停車場,24.997091000827155,121.30971899995056
H,桃園縣,民眾服務,52,停車場地,桃園市公共造產新民立體停車場,24.990590003716434,121.31137999995616
H,桃園縣,民眾服務,52,停車場地,Times(普客二四停車場)-桃園縣政府前停車場,24.991709010930617,121.30082899997626
H,桃園縣,民眾服務,52,停車場地,台灣聯通停車場-桃園國際,24.992491002889494,121.28819499995812
H,桃園縣,民眾服務,52,停車場地,中興嘟嘟房停車場-桃園站,24.994948006188018,121.3060829999649
H,桃園縣,民眾服務,52,停車場地,中興嘟嘟房停車場-桃園民族站,24.995751005012593,121.30733999995705
H,桃園縣,民眾服務,52,停車場地,大湳停車場,24.958867006574522,121.29797199996062
H,桃園縣,民眾服務,52,停車場地,大忠國小地下停車場,24.960287002153684,121.30078899995421
H,桃園縣,民眾服務,52,停車場地,八得大楠停一公有停車場,24.958885004133013,121.29853599995641
H,桃園縣,民眾服務,52,停車場地,台灣聯通停車場-大湳場,24.960826006720048,121.294777999965
H,桃園縣,民眾服務,52,停車場地,中興嘟嘟房停車場-八德大忠站,24.96036400728352,121.30055399996736
H,桃園縣,民眾服務,52,停車場地,中興嘟嘟房停車場-桃園大湳(加盟)站,24.958888009308406,121.29853599997467
H,桃園縣,民眾服務,52,停車場地,市公所停車場,24.945591000067065,121.21800499996185
H,桃園縣,民眾服務,52,停車場地,平鎮市廣北停車場,24.95677200797655,121.20859599997881
H,桃園縣,民眾服務,52,停車場地,平鎮市廣南停車場,24.943436008858374,121.20752399997629
H,桃園縣,民眾服務,52,停車場地,永安停車場,24.985585995410233,121.01742599999561
H,桃園縣,民眾服務,52,停車場地,永安魚港北岸海濱遊憩區停車場,24.989397003360967,121.0154019999908
H,桃園縣,民眾服務,52,停車場地,永安魚港南岸海濱遊憩區停車場,24.988005994323874,121.01521799999257
H,桃園縣,民眾服務,52,停車場地,新屋鄉停一立體停車場,24.972602006448227,121.1059149999808
H,桃園縣,民眾服務,52,停車場地,新屋鄉第一公有零售市場附設停車場,24.975557002652994,121.08813099997963
H,桃園縣,民眾服務,52,停車場地,愛買吉安停車場,24.907225996171405,121.16795899996737
H,桃園縣,民眾服務,52,停車場地,光復街立體停車場,24.91188700089394,121.14673599997607
H,桃園縣,民眾服務,52,停車場地,矮坪子停車場,24.89938500138542,121.17674599997204
H,桃園縣,民眾服務,52,停車場地,龍園休閒營地停車場,24.872635998351832,121.16397199996425
H,桃園縣,民眾服務,52,停車場地,小人國主題樂園停車場,24.83190300767077,121.18791699997631
H,桃園縣,民眾服務,52,停車場地,龍潭TIS賽車場停車場,24.85300100372553,121.19887399996944
H,桃園縣,民眾服務,52,停車場地,水利署北區水資源局停車場,24.87763499814556,121.2119389999596
H,桃園縣,民眾服務,52,停車場地,台灣聯通停車場-龍潭場,24.865459994116122,121.21125599995285
H,桃園縣,民眾服務,52,停車場地,怡仁綜合醫院停車場,24.916845002907408,121.15461699997158
H,桃園縣,民眾服務,52,停車場地,台灣聯通停車場-楊梅場,24.907795007080978,121.15151199997824
H,桃園縣,民眾服務,52,停車場地,中興嘟嘟房停車場-楊梅站,24.908297009530088,121.15745399998066
H,桃園縣,民眾服務,52,停車場地,美腿山遊憩區停車場,24.798277006321864,121.31411299996117
H,桃園縣,民眾服務,52,停車場地,達觀山風景區停車場,24.679996999912692,121.38364399993603
H,桃園縣,民眾服務,52,停車場地,東眼山森林遊樂區大型停車場,24.832050008189622,121.40939099996042
H,桃園縣,民眾服務,52,停車場地,齋明寺停車場,24.88861799429186,121.27451699993955
H,桃園縣,民眾服務,52,停車場地,公園停車場,24.811147004026022,121.24890299996832
H,桃園縣,民眾服務,52,停車場地,阿姆坪停車場,24.814676007067547,121.30348399996385
H,桃園縣,民眾服務,52,停車場地,古道口停車場,24.8350190074606,121.28185199996774
H,桃園縣,民眾服務,52,停車場地,慈湖第一停車場,24.8400950080428,121.29281899996742
H,桃園縣,民眾服務,52,停車場地,頭寮陵寢停車場,24.849195006063514,121.28604599996527
H,桃園縣,民眾服務,52,停車場地,南苑停車場,24.814566002709782,121.24737099995893
H,桃園縣,民眾服務,52,停車場地,大溪都市計畫停二停車場,24.882604997084787,121.28559799994377
H,桃園縣,民眾服務,52,停車場地,埔頂都市計畫停四停車場,24.908879002951775,121.28317899995882
H,桃園縣,民眾服務,52,停車場地,東眼山森林遊樂區小型停車場,24.833250998579704,121.40919099992423
H,桃園縣,民眾服務,52,停車場地,桃園縣復興鄉停車場,24.814544002262224,121.34995399995138
H,桃園縣,民眾服務,52,停車場地,上巴陵停車場,24.7039740008849,121.4240829999336
H,桃園縣,民眾服務,52,停車場地,仁愛停車場,24.818306994902304,121.35315399992268
H,桃園縣,民眾服務,53,服務性設施,"My Phone台灣大哥大-桃園機場一航站直營服務中心",25.081576998616583,121.23784299995411
H,桃園縣,民眾服務,53,服務性設施,"My Phone台灣大哥大-桃園機場二航站直營服務中心",25.076243008149962,121.23078199997335
H,桃園縣,民眾服務,53,服務性設施,亞太行動寬頻電信-大園中華加盟服務中心,25.066254995921362,121.19781099995221
H,桃園縣,民眾服務,53,服務性設施,台灣省自來水大園服務所,25.06564700522622,121.19824699997365
H,桃園縣,民眾服務,53,服務性設施,中華電信-大園服務中心,25.06410500949655,121.19430599997985
H,桃園縣,民眾服務,53,服務性設施,威寶電信-大園中華特約服務中心,25.06632300073839,121.1976099999608
H,桃園縣,民眾服務,53,服務性設施,遠傳電信-臺灣桃園國際機場一期航站入境服務處,25.081576998616583,121.23784299995411
H,桃園縣,民眾服務,53,服務性設施,遠傳電信-臺灣桃園國際機場一期航站出境服務處,25.081576998616583,121.23784299995411
H,桃園縣,民眾服務,53,服務性設施,遠傳電信-臺灣桃園國際機場二期航站入境服務處,25.076243008149962,121.23078199997335
H,桃園縣,民眾服務,53,服務性設施,遠傳電信-臺灣桃園國際機場二期航站出境服務處,25.076243008149962,121.23078199997335
H,桃園縣,民眾服務,53,服務性設施,桃園縣大園鄉公所,25.06390399894597,121.19524599996326
H,桃園縣,民眾服務,53,服務性設施,桃園縣立圖書館大園分館,25.065705999151692,121.19342699996311
H,桃園縣,民眾服務,53,服務性設施,桃園縣大園鄉第一公有零售市場,25.063949001801475,121.19544399996211
H,桃園縣,民眾服務,53,服務性設施,桃園縣大園鄉立托兒所,25.063949001801475,121.19544399996211
H,桃園縣,民眾服務,53,服務性設施,桃園縣大園鄉清潔隊,25.063949001801475,121.19544399996211
H,桃園縣,民眾服務,53,服務性設施,亞太行動寬頻電信-蘆竹中正加盟服務中心,25.048171004237904,121.29175999995965
H,桃園縣,民眾服務,53,服務性設施,台灣省自來水平鎮給水廠,25.092195007437926,121.26907699996754
