縣市代號,縣市,大類別,小類別代號,小類別名稱,地標名稱,緯度,經度
I,嘉義市,交通運輸,11,火車站,嘉義市阿里山森林鐵路北門車站,23.48763759853744,120.4546364472887
I,嘉義市,交通運輸,11,火車站,嘉義市臺鐵嘉義車站,23.47914671016004,120.44110212121981
I,嘉義市,交通運輸,11,火車站,嘉義市臺鐵嘉北車站,23.499769592303004,120.44832418250097
I,嘉義市,交通運輸,11,火車站,北門火車站,23.487568006101753,120.45466900004534
I,嘉義市,交通運輸,11,火車站,嘉義火車站,23.47907900056825,120.44114600006388
I,嘉義市,交通運輸,12,客運站,嘉義市阿羅哈客運嘉義北站,23.492776813609606,120.39619054835484
I,嘉義市,交通運輸,12,客運站,嘉義市先期交通轉運站,23.479792988946976,120.44002254752229
I,嘉義市,交通運輸,12,客運站,嘉義市和欣客運嘉義交流道站,23.489090820248297,120.40663320077519
I,嘉義市,交通運輸,12,客運站,嘉義客運-總公司,23.505483002104352,120.45236200006075
I,嘉義市,交通運輸,12,客運站,國光客運-嘉義車站,23.47917299753238,120.44172400008263
I,嘉義市,交通運輸,12,客運站,統聯客運-北港路站(自營站),23.493289001184035,120.39547900007125
I,嘉義市,交通運輸,12,客運站,統聯客運-北港路站(自營站),23.493289001184035,120.39547900007125
I,嘉義市,交通運輸,12,客運站,和欣客運-嘉義交流道(代售),23.493171999739733,120.39540200007487
I,嘉義市,交通運輸,12,客運站,和欣客運-嘉義交流道(代售),23.493171999739733,120.39540200007487
I,嘉義市,交通運輸,12,客運站,統聯客運-嘉義站(自營站),23.48010099499176,120.44277500008668
I,嘉義市,交通運輸,12,客運站,嘉義客運-嘉義總站,23.47935900220288,120.44441100006175
I,嘉義市,交通運輸,12,客運站,阿羅哈客運-嘉義北站,23.49266099610485,120.39647100008996
I,嘉義市,交通運輸,12,客運站,阿羅哈客運-嘉義總站,23.47894300306564,120.44211400005112
I,嘉義市,交通運輸,12,客運站,日統客運-嘉義站(營業站),23.480583004603847,120.44376200004977
I,嘉義市,交通運輸,12,客運站,日統客運-嘉義站(營業站),23.480583004603847,120.44376200004977
I,嘉義市,交通運輸,12,客運站,和欣客運-嘉義總站,23.479311998045297,120.441838000078
I,嘉義市,交通運輸,18,主要道路建設,國1-嘉義交流道-南下,23.493725000492184,120.38931800006861
I,嘉義市,交通運輸,18,主要道路建設,國3-中埔交流道-北上,23.454301004404233,120.48731000004139
I,嘉義市,交通運輸,18,主要道路建設,國1-嘉義交流道-北上,23.497540001820234,120.39429100006798
I,嘉義市,公共建設,21,國小,嘉義市西區育人國民小學附設幼稚園,23.472506323396914,120.41553969469857
I,嘉義市,公共建設,21,國小,嘉義市西區大同國民小學,23.471334322047888,120.44573387039068
I,嘉義市,公共建設,21,國小,嘉義市西區北園國民小學,23.494938472552665,120.42578855824046
I,嘉義市,公共建設,21,國小,嘉義市西區僑平國民小學,23.484443046144957,120.43244316153098
I,嘉義市,公共建設,21,國小,嘉義市西區垂楊國民小學,23.471760675220594,120.43870557417756
I,嘉義市,公共建設,21,國小,嘉義市國立嘉義大學附設實驗國民小學,23.486333036408574,120.45600262984034
I,嘉義市,公共建設,21,國小,嘉義市西區志航國民小學補校,23.462460157993423,120.44636703452518
I,嘉義市,公共建設,21,國小,嘉義市東區民族國民小學,23.475711066129936,120.45519942233966
I,嘉義市,公共建設,21,國小,嘉義市西區育人國民小學,23.472497921987152,120.41571103890816
I,嘉義市,公共建設,21,國小,嘉義市西區興嘉國民小學,23.464552847134552,120.43816049805918
I,嘉義市,公共建設,21,國小,嘉義市西區大同國民小學附設幼稚園,23.471334322047888,120.44573387039068
I,嘉義市,公共建設,21,國小,嘉義市西區志航國民小學,23.46246959395157,120.44647760272868
I,嘉義市,公共建設,21,國小,嘉義市東區精忠國民小學附設幼稚園,23.49241963235612,120.47993993722791
I,嘉義市,公共建設,21,國小,嘉義市東區林森國民小學附設幼兒園,23.489439482974234,120.46649779859854
I,嘉義市,公共建設,21,國小,嘉義市東區文雅國民小學,23.484127917394883,120.48743727188572
I,嘉義市,公共建設,21,國小,嘉義市西區垂楊國民小學附設幼稚園,23.47177023922924,120.43885432586102
I,嘉義市,公共建設,21,國小,嘉義市西區志航國民小學附設幼稚園,23.46089163165233,120.44400803568153
I,嘉義市,公共建設,21,國小,嘉義市西區港坪國民小學,23.479058118017313,120.42420486055515
I,嘉義市,公共建設,21,國小,嘉義市西區北園國民小學附設幼稚園,23.494955851162512,120.4256044186752
I,嘉義市,公共建設,21,國小,嘉義市西區世賢國民小學,23.48903306778699,120.42828029302468
I,嘉義市,公共建設,21,國小,嘉義市東區蘭潭國民小學附設幼稚園,23.475260594189876,120.47123604986783
I,嘉義市,公共建設,21,國小,嘉義市博愛國民小學,23.49031734564381,120.44381591275577
I,嘉義市,公共建設,21,國小,嘉義市東區宣信國民小學附設幼稚園,23.47076039117065,120.4597353704988
I,嘉義市,公共建設,21,國小,嘉義市東區興安國民小學,23.459258301552843,120.45512992196605
I,嘉義市,公共建設,21,國小,嘉義市東區精忠國民小學,23.49239258582391,120.47995179196437
I,嘉義市,公共建設,21,國小,嘉義市東區蘭潭國民小學,23.475233637951625,120.47127433537108
I,嘉義市,公共建設,21,國小,嘉義市東區崇文國民小學,23.47311160335515,120.45294979931622
I,嘉義市,公共建設,21,國小,嘉義市東區宣信國民小學,23.47076004522759,120.45963552506996
I,嘉義市,公共建設,21,國小,嘉義市東區民族國民小學附設幼稚園,23.475739122917343,120.45547732234068
I,嘉義市,公共建設,21,國小,嘉義市嘉北國民小學,23.493465037001314,120.4555386632412
I,嘉義市,公共建設,21,國小,市立大業國中,23.462459999315072,120.45407900007105
I,嘉義市,公共建設,21,國小,市立北興國中,23.490449996571076,120.45447900007836
I,嘉義市,公共建設,21,國小,市立蘭潭國中,23.48224099774704,120.48139900007455
I,嘉義市,公共建設,21,國小,市立南興國中,23.46716000854854,120.46186900002598
I,嘉義市,公共建設,21,國小,市立嘉義國中,23.48694999887454,120.46469900007277
I,嘉義市,公共建設,21,國小,私立輔仁國中,23.460680002413344,120.45703900005327
I,嘉義市,公共建設,21,國小,市立蘭潭國小,23.475299005365333,120.47148900004409
I,嘉義市,公共建設,21,國小,市立民族國小,23.476040007608255,120.45522000003744
I,嘉義市,公共建設,21,國小,市立林森國小,23.489469009206644,120.46659900002578
I,嘉義市,公共建設,21,國小,市立林森國小,23.489469009206644,120.46659900002578
I,嘉義市,公共建設,21,國小,國立嘉義大學附小,23.48624900778768,120.45587900003771
I,嘉義市,公共建設,21,國小,市立精忠國小,23.492579998681197,120.48010900006527
I,嘉義市,公共建設,21,國小,市立崇文國小,23.47348999770298,120.45284900007995
I,嘉義市,公共建設,21,國小,市立宣信國小,23.470670999136825,120.45871900006694
I,嘉義市,公共建設,21,國小,市立嘉北國小,23.493510993791407,120.45509000009304
I,嘉義市,公共建設,21,國小,市立興安國小,23.45971900696352,120.45517000003305
I,嘉義市,公共建設,21,國小,市立林森國小分校,23.488764992384333,120.46225000009153
I,嘉義市,公共建設,21,國小,市立玉山國中,23.473846997355064,120.43144500008138
I,嘉義市,公共建設,21,國小,市立民生國中,23.463945995566323,120.44025800008986
I,嘉義市,公共建設,21,國小,市立北園國中,23.49516899766835,120.42663000007555
I,嘉義市,公共建設,21,國小,市立博愛國小,23.491588994729685,120.4440090000878
I,嘉義市,公共建設,21,國小,市立世賢國小,23.489299998819416,120.42788000007441
I,嘉義市,公共建設,21,國小,市立北園國小,23.494520009151657,120.42564900002881
I,嘉義市,公共建設,21,國小,市立志航國小,23.462159000668187,120.44502000006406
I,嘉義市,公共建設,21,國小,市立大同國小,23.472140006158945,120.44563000004601
I,嘉義市,公共建設,21,國小,市立育人國小,23.472749997907226,120.41614900008202
I,嘉義市,公共建設,21,國小,市立垂楊國小,23.472280005990303,120.43870900004124
I,嘉義市,公共建設,21,國小,市立興嘉國小,23.465249001325176,120.43795000006496
I,嘉義市,公共建設,21,國小,市立僑平國小,23.484148992204737,120.43241000009985
I,嘉義市,公共建設,21,國小,市立港坪國小(籌),23.481397003140692,120.42187800005256
I,嘉義市,公共建設,21,國小,國立嘉義啟智學校,23.480219998734015,120.42099900007187
I,嘉義市,公共建設,22,國中,嘉義市立嘉義國民中學,23.48725718285913,120.4647218389068
I,嘉義市,公共建設,22,國中,嘉義市立蘭潭國民中學,23.482537887634702,120.48174771047064
I,嘉義市,公共建設,22,國中,嘉義市立玉山國民中學,23.468362251289005,120.42543374932914
I,嘉義市,公共建設,22,國中,嘉義市私立輔仁高級中學,23.460634372469887,120.4561383274387
I,嘉義市,公共建設,22,國中,嘉義市立北園國民中學,23.494862015758155,120.42709691990741
I,嘉義市,公共建設,22,國中,嘉義市私立嘉華高級中學,23.4831000503323,120.47702779089533
I,嘉義市,公共建設,22,國中,嘉義市私立宏仁女子高級中學,23.505776006251942,120.44621554658146
I,嘉義市,公共建設,22,國中,嘉義市私立立仁高級中學,23.46231813097295,120.459942007512
I,嘉義市,公共建設,22,國中,嘉義市立嘉義國民中學補校,23.487266561053133,120.46482361839509
I,嘉義市,公共建設,22,國中,嘉義市立南興國民中學,23.467851944784762,120.46211313777137
I,嘉義市,公共建設,22,國中,嘉義市私立興華高級中學,23.489531128029395,120.46425740976079
I,嘉義市,公共建設,22,國中,嘉義市立北興國民中學,23.490544779199745,120.4545109206747
I,嘉義市,公共建設,22,國中,嘉義市立大業國民中學,23.462095789671345,120.45314496332666
I,嘉義市,公共建設,22,國中,嘉義市國立嘉義女子高級中學,23.472797094137174,120.45081904152445
I,嘉義市,公共建設,22,國中,嘉義市國立嘉義女子高級中學,23.47357209363866,120.45037336633085
I,嘉義市,公共建設,22,國中,嘉義市立民生國民中學,23.4646946615316,120.43993160452115
I,嘉義市,公共建設,22,國中,嘉義市國立嘉義高級中學,23.478642929755004,120.46480555330504
I,嘉義市,公共建設,22,國中,嘉義市國立嘉義高級中學進修學校,23.478787466887436,120.46481965440198
I,嘉義市,公共建設,22,國中,嘉義市私立仁義高級中學,23.459726326741563,120.48662318358538
I,嘉義市,公共建設,23,高中,嘉義市國立嘉義高級工業職業學校,23.47240626411622,120.46568137868374
I,嘉義市,公共建設,23,高中,嘉義市私立大同高級商業職業學校,23.470324990074918,120.46440056373999
I,嘉義市,公共建設,23,高中,嘉義市國立嘉義高級工業職業學校,23.472315339643515,120.46549966892144
I,嘉義市,公共建設,23,高中,嘉義市國立嘉義高級商業職業學校,23.48225646382691,120.46263722564645
I,嘉義市,公共建設,23,高中,嘉義市國立華南高級商業職業學校,23.479019499449244,120.45879424920663
I,嘉義市,公共建設,23,高中,嘉義市國立嘉義高級商業職業學校補校,23.482310612933336,120.4626262375131
I,嘉義市,公共建設,23,高中,嘉義市省立嘉義高工汽車教學大樓,23.46910262688654,120.46606763359426
I,嘉義市,公共建設,23,高中,嘉義市國立嘉義高級家事職業學校補校,23.47260795990913,120.45870782992546
I,嘉義市,公共建設,23,高中,嘉義市國立嘉義高級家事職業學校,23.472598523557973,120.45859039993914
I,嘉義市,公共建設,23,高中,嘉義市私立東吳高級工業家事職業學校附設進修學校,23.46871604143976,120.46130891530483
I,嘉義市,公共建設,23,高中,私立興華高中,23.489481006497623,120.46480900003773
I,嘉義市,公共建設,23,高中,國立嘉義高中,23.476969994277482,120.46477000008441
I,嘉義市,公共建設,23,高中,私立輔仁高中,23.460680002413344,120.45703900005327
I,嘉義市,公共建設,23,高中,私立宏仁女中,23.506048998021623,120.44640000007969
I,嘉義市,公共建設,23,高中,私立興華高中,23.489481006497623,120.46480900003773
I,嘉義市,公共建設,23,高中,私立嘉華高中,23.483150000640414,120.47727900006068
I,嘉義市,公共建設,23,高中,私立仁義高中,23.45962899826728,120.48665000006862
I,嘉義市,公共建設,23,高中,私立仁義高中,23.45962899826728,120.48665000006862
I,嘉義市,公共建設,23,高中,國立嘉義高商,23.482449005502673,120.46281900004011
I,嘉義市,公共建設,23,高中,國立嘉義家職,23.47341099425095,120.45849000008626
I,嘉義市,公共建設,23,高中,私立立仁女子工商,23.4632029961099,120.45938000008525
I,嘉義市,公共建設,23,高中,國立華南高商,23.47902000279146,120.45901900005539
I,嘉義市,公共建設,23,高中,私立東吳工家,23.468821001417787,120.46034900006067
I,嘉義市,公共建設,23,高中,國立嘉義高工,23.472120995645763,120.46411900007915
I,嘉義市,公共建設,23,高中,私立大同高商,23.47024900046787,120.4646500000604
I,嘉義市,公共建設,23,高中,私立立仁高中,23.4632029961099,120.45938000008525
I,嘉義市,公共建設,23,高中,私立稚暉工家,23.45986200301089,120.4867790000451
I,嘉義市,公共建設,23,高中,市立玉山高中,23.47366700813929,120.43168100003744
I,嘉義市,公共建設,23,高中,國立嘉義女中,23.473598994879996,120.45033000008645
I,嘉義市,公共建設,24,專科,嘉義市崇仁醫護管理專科學校,23.478423667373168,120.48277699835165
I,嘉義市,公共建設,25,大學及研究所,嘉義市嘉義大學蘭潭校區,23.464296603758886,120.48150474561935
I,嘉義市,公共建設,25,大學及研究所,嘉義市國立嘉義大學蘭潭校區,23.46565808288839,120.48360886079135
I,嘉義市,公共建設,25,大學及研究所,嘉義市國立中正大學清江學習中心,23.46165595958867,120.44367667080134
I,嘉義市,公共建設,25,大學及研究所,嘉義市嘉義大學民生校區,23.464894478239955,120.44277528565443
I,嘉義市,公共建設,25,大學及研究所,嘉義市大同技術學院,23.46937371824368,120.46349110726928
I,嘉義市,公共建設,25,大學及研究所,嘉義市國立嘉義大學附設幼稚園,23.485944834803977,120.4560286974843
I,嘉義市,公共建設,25,大學及研究所,嘉義市南華大學嘉市校園,23.479705811917825,120.43838120926928
I,嘉義市,公共建設,25,大學及研究所,嘉義市嘉義大學林森校區,23.4875722266484,120.45919990203576
I,嘉義市,公共建設,25,大學及研究所,大同技術學院,23.46956999912487,120.4649600000664
I,嘉義市,公共建設,25,大學及研究所,國立嘉義大學蘭潭校區,23.463759004604427,120.4835300000404
I,嘉義市,公共建設,25,大學及研究所,國立嘉義大學蘭潭校區,23.463759004604427,120.4835300000404
I,嘉義市,公共建設,25,大學及研究所,國立嘉義大學林森校區,23.487580008011236,120.45951900003107
I,嘉義市,公共建設,25,大學及研究所,崇仁醫護管理專科學校嘉義校區,23.47907999703945,120.48258900007296
I,嘉義市,公共建設,25,大學及研究所,私立協同神學院,23.48002100342279,120.4664660000526
I,嘉義市,公共建設,25,大學及研究所,國立嘉義大學新民校區,23.46373900377442,120.44120000004753
I,嘉義市,公共建設,26,幼稚園、托兒所,嘉義市市立復國幼稚園,23.480588875397878,120.46087401620211
I,嘉義市,公共建設,26,幼稚園、托兒所,嘉義市立吳鳳幼稚園,23.480614695526942,120.45016699487296
I,嘉義市,公共建設,31,傳統市場,嘉義市永和市場,23.473726383914688,120.44043678211675
I,嘉義市,公共建設,31,傳統市場,嘉義市南田市場,23.471021491788907,120.45691705530966
I,嘉義市,公共建設,31,傳統市場,嘉義市共和市場,23.47866495122918,120.45551621790946
I,嘉義市,公共建設,31,傳統市場,嘉義市保安攤販集中場,23.493014536166907,120.43551789544843
I,嘉義市,公共建設,31,傳統市場,嘉義市蘭潭D.C.跳蚤市場,23.47431013152037,120.47321921031298
I,嘉義市,公共建設,31,傳統市場,嘉義市西市場,23.479115580144924,120.44757115726041
I,嘉義市,公共建設,31,傳統市場,嘉義市大業零售市場,23.462236345334638,120.45202852166838
I,嘉義市,公共建設,31,傳統市場,嘉義市魚市場,23.489548185837677,120.45099835086744
I,嘉義市,公共建設,31,傳統市場,嘉義市北興公有零售市場,23.4833085443973,120.44336169380276
I,嘉義市,公共建設,31,傳統市場,嘉義市果菜市場,23.489202292372852,120.45021558359596
I,嘉義市,公共建設,31,傳統市場,嘉義市新民玉市,23.45904137586372,120.43977241805847
I,嘉義市,公共建設,31,傳統市場,嘉義市肉品市場,23.507090335772904,120.43503591575833
I,嘉義市,公共建設,34,生活百貨量販,嘉義市遠東百貨嘉義店,23.472816978291025,120.44116402707687
I,嘉義市,公共建設,34,生活百貨量販,嘉義市頂好超市嘉義二店,23.470781287055136,120.4425802423005
I,嘉義市,公共建設,34,生活百貨量販,嘉義市全聯福利中心嘉義軍輝店,23.454290730057423,120.45740049429757
I,嘉義市,公共建設,34,生活百貨量販,嘉義市名佳美精緻生活館嘉義興業店,23.46786687321728,120.44068565039315
I,嘉義市,公共建設,34,生活百貨量販,嘉義市全聯福利中心嘉義忠孝店,23.492047675639817,120.45305574695239
I,嘉義市,公共建設,34,生活百貨量販,嘉義市全聯福利中心嘉義友愛店,23.487147920588658,120.43380023817144
I,嘉義市,公共建設,34,生活百貨量販,嘉義市名佳美精緻生活館嘉義國華店,23.480671795122934,120.44843986822677
I,嘉義市,公共建設,34,生活百貨量販,嘉義市小北百貨民權店,23.48374205420887,120.45877008353206
I,嘉義市,公共建設,34,生活百貨量販,嘉義市全聯福利中心嘉義竹圍店,23.4874872716865,120.42781997047187
I,嘉義市,公共建設,34,生活百貨量販,嘉義市全聯福利中心吳鳳店,23.461090062325834,120.45734334440597
I,嘉義市,公共建設,34,生活百貨量販,嘉義市寶雅生活館嘉義垂陽店,23.472995675503903,120.44315926191851
I,嘉義市,公共建設,34,生活百貨量販,嘉義市全聯福利中心嘉義仁愛店,23.47454527745513,120.442169926174
I,嘉義市,公共建設,34,生活百貨量販,嘉義市全聯福利中心嘉義興業店,23.467640929953177,120.43811903899892
I,嘉義市,公共建設,34,生活百貨量販,嘉義市頂好超市德明店,23.483122704537426,120.43189960509528
I,嘉義市,公共建設,34,生活百貨量販,嘉義市全聯福利中心嘉義東門店,23.478644161640823,120.4573263787811
I,嘉義市,公共建設,34,生活百貨量販,嘉義市特力屋嘉義店,23.50081025415438,120.44895039759649
I,嘉義市,公共建設,34,生活百貨量販,嘉義市家樂福北門店,23.489566702197312,120.45628013406554
I,嘉義市,公共建設,34,生活百貨量販,嘉義市全聯福利中心嘉義民國店,23.47559553613591,120.4609334666871
I,嘉義市,公共建設,34,生活百貨量販,嘉義市全聯福利中心嘉義大統店,23.472489482815405,120.42559012315762
I,嘉義市,公共建設,34,生活百貨量販,嘉義市名佳美精緻生活館嘉義中山店,23.479424570793014,120.44305004490982
I,嘉義市,公共建設,34,生活百貨量販,嘉義市全聯福利中心嘉興店,23.482240052188775,120.43500966510992
I,嘉義市,公共建設,34,生活百貨量販,嘉義市光南大批發嘉義店,23.47946186311284,120.44337979546137
I,嘉義市,公共建設,34,生活百貨量販,嘉義市大潤發嘉義店,23.478520046729265,120.43759132606984
I,嘉義市,公共建設,34,生活百貨量販,嘉義市頂好超市嘉義店,23.477298503737355,120.44445004086153
I,嘉義市,公共建設,34,生活百貨量販,嘉義市齊普生鮮超市博愛店,23.487123206807883,120.44449993328257
I,嘉義市,公共建設,34,生活百貨量販,嘉義市中央第一商場,23.479454973762046,120.44906558466002
I,嘉義市,公共建設,34,生活百貨量販,嘉義市主婦聯盟超市嘉義站,23.4752683515655,120.45255031633735
I,嘉義市,公共建設,34,生活百貨量販,嘉義市家樂福嘉義店,23.471372748329937,120.43133028281183
I,嘉義市,公共建設,42,一般公園,二二八和平紀念公園,23.476562995552634,120.46250600008287
I,嘉義市,公共建設,42,一般公園,二二八和平紀念公園,23.476562995552634,120.46250600008287
I,嘉義市,公共建設,42,一般公園,興業公園,23.47061900662024,120.45685500004006
I,嘉義市,公共建設,42,一般公園,宣信公園,23.46889700521381,120.46008700004626
I,嘉義市,公共建設,42,一般公園,嘉義中山公園,23.482981003779006,120.46480200004841
I,嘉義市,公共建設,42,一般公園,蘭潭公園,23.482601993497312,120.46848500009119
I,嘉義市,公共建設,42,一般公園,長春公園,23.474437992069532,120.46196600009506
I,嘉義市,公共建設,42,一般公園,中正公園,23.48137499826576,120.44770900007785
I,嘉義市,公共建設,42,一般公園,市立運動公園,23.47800999875902,120.42248000007514
I,嘉義市,公共建設,42,一般公園,興嘉公園,23.468305008173626,120.43512700003207
I,嘉義市,民眾服務,51,觀光遊憩設施,嘉義市崇文公園,23.470850876755467,120.45202525809486
I,嘉義市,民眾服務,51,觀光遊憩設施,嘉義市兒六公園,23.463590971397597,120.46244950600122
I,嘉義市,民眾服務,51,觀光遊憩設施,嘉義市友忠公園,23.47731324414934,120.43348784734181
I,嘉義市,民眾服務,51,觀光遊憩設施,嘉義市興嘉公園,23.468551375052925,120.43518542156289
I,嘉義市,民眾服務,51,觀光遊憩設施,嘉義市民生公園,23.468320500478445,120.44634454818045
I,嘉義市,民眾服務,51,觀光遊憩設施,嘉義市番仔溝公園,23.475177453431613,120.43466775628234
I,嘉義市,民眾服務,51,觀光遊憩設施,嘉義市南田公園,23.471062178333394,120.45563453973521
I,嘉義市,民眾服務,51,觀光遊憩設施,嘉義市運動公園,23.47701883291809,120.42215795385076
I,嘉義市,民眾服務,51,觀光遊憩設施,嘉義市啟明公園,23.478183842077904,120.46259792489843
I,嘉義市,民眾服務,51,觀光遊憩設施,嘉義市公園,23.46746107256189,120.44336259651868
I,嘉義市,民眾服務,51,觀光遊憩設施,嘉義市中央廣場,23.482033765821026,120.44934412523614
I,嘉義市,民眾服務,51,觀光遊憩設施,嘉義市劉厝公園,23.467777408447485,120.41627215555452
I,嘉義市,民眾服務,51,觀光遊憩設施,嘉義市二二八國家紀念公園,23.46545030001138,120.41455864180634
I,嘉義市,民眾服務,51,觀光遊憩設施,嘉義市霖園長青公園,23.475532985561095,120.4637403019076
I,嘉義市,民眾服務,51,觀光遊憩設施,嘉義市北社尾公園,23.49350988491357,120.42528172227495
I,嘉義市,民眾服務,51,觀光遊憩設施,嘉義市頂庄公園,23.497515987801695,120.45713457990568
I,嘉義市,民眾服務,51,觀光遊憩設施,嘉義市劉厝二號公園,23.464017665218353,120.4178019704876
I,嘉義市,民眾服務,51,觀光遊憩設施,嘉義市宣信公園,23.46860403211041,120.46025316407311
I,嘉義市,民眾服務,51,觀光遊憩設施,嘉義市政府苗圃,23.486387279857027,120.47712839194841
I,嘉義市,民眾服務,51,觀光遊憩設施,嘉義市南興公園,23.46611933614309,120.45722881437206
I,嘉義市,民眾服務,51,觀光遊憩設施,嘉義市劉厝三號公園,23.4612639323199,120.4154913179488
I,嘉義市,民眾服務,51,觀光遊憩設施,嘉義市嘉大植物園,23.47373759467501,120.48839564213735
I,嘉義市,民眾服務,51,觀光遊憩設施,嘉義市健康體能園地,23.478441094079106,120.45605751540481
I,嘉義市,民眾服務,51,觀光遊憩設施,嘉義市友忠公園,23.47673248684321,120.43270424532969
I,嘉義市,民眾服務,51,觀光遊憩設施,嘉義市長榮公園,23.484875946286344,120.45765233898592
I,嘉義市,民眾服務,51,觀光遊憩設施,嘉義市後瑚公園,23.50164801716646,120.45608664089214
I,嘉義市,民眾服務,51,觀光遊憩設施,嘉義市芳草公園,23.46660625529497,120.46486780488686
I,嘉義市,民眾服務,51,觀光遊憩設施,嘉義市公3公園,23.493484435585767,120.44567556027016
I,嘉義市,民眾服務,51,觀光遊憩設施,嘉義市無菸公園,23.470970698799352,120.46844490671779
I,嘉義市,民眾服務,51,觀光遊憩設施,嘉義市嘉義公園,23.483411695484826,120.46508685872752
I,嘉義市,民眾服務,51,觀光遊憩設施,嘉義市文化公園,23.47514550574604,120.45100216859365
I,嘉義市,民眾服務,51,觀光遊憩設施,嘉義市蘭潭風景特定區,23.47599582072193,120.47772049402707
I,嘉義市,民眾服務,51,觀光遊憩設施,嘉義市嘉義鐵道藝術村,23.482665369644938,120.44278777612874
I,嘉義市,民眾服務,51,觀光遊憩設施,嘉義市中正公園,23.481382005995012,120.4475480122005
I,嘉義市,民眾服務,51,觀光遊憩設施,嘉義市八掌溪親水公園,23.45843756348706,120.46322894172197
I,嘉義市,民眾服務,51,觀光遊憩設施,嘉義市民生公園,23.465361381814002,120.44456461913661
I,嘉義市,民眾服務,51,觀光遊憩設施,嘉義市三信觀賞樓,23.46860761164023,120.47720629730907
I,嘉義市,民眾服務,51,觀光遊憩設施,嘉義市嘉義創意文化園區,23.47647787490684,120.43970664215205
I,嘉義市,民眾服務,51,觀光遊憩設施,王祖母徐太夫人墓,23.481743994759377,120.4921710000834
I,嘉義市,民眾服務,51,觀光遊憩設施,阿里山鐵路北門驛,23.490657002440365,120.45462500006094
I,嘉義市,民眾服務,51,觀光遊憩設施,嘉義仁武宮,23.483215998662352,120.45336900007035
I,嘉義市,民眾服務,51,觀光遊憩設施,嘉義營林俱樂部(招待所),23.48378100373718,120.45539600005216
I,嘉義市,民眾服務,51,觀光遊憩設施,嘉義樹木茶園,23.508538003800897,120.45361700005279
I,嘉義市,民眾服務,51,觀光遊憩設施,八掌溪義渡,23.463115002675398,120.47091900004985
I,嘉義市,民眾服務,51,觀光遊憩設施,日本神社附屬館所(原嘉義神社附屬館所),23.4801610030047,120.46679700004974
I,嘉義市,民眾服務,51,觀光遊憩設施,嘉義蘇周連宗祠,23.47426999738828,120.45151600007493
I,嘉義市,民眾服務,51,觀光遊憩設施,嘉義市立博物館,23.487384996072453,120.4523580000847
I,嘉義市,民眾服務,51,觀光遊憩設施,耐斯數位玩國,23.496379006126354,120.45254000003659
I,嘉義市,民眾服務,51,觀光遊憩設施,耐斯數位玩國,23.496379006126354,120.45254000003659
I,嘉義市,民眾服務,51,觀光遊憩設施,耐斯數位玩國,23.496379006126354,120.45254000003659
I,嘉義市,民眾服務,51,觀光遊憩設施,嘉義夜市,23.47646100232585,120.44998300005417
I,嘉義市,民眾服務,51,觀光遊憩設施,中正路二通休閒商店街,23.479200997134985,120.45326200008093
I,嘉義市,民眾服務,51,觀光遊憩設施,假日花市,23.489652001929635,120.45123800006158
I,嘉義市,民眾服務,51,觀光遊憩設施,蘭潭風景特定區,23.476020003048564,120.47684100004821
I,嘉義市,民眾服務,51,觀光遊憩設施,嘉義樹木園,23.482967994487954,120.46781500008412
I,嘉義市,民眾服務,51,觀光遊憩設施,蘭潭風景區,23.476020003048564,120.47684100004821
I,嘉義市,民眾服務,51,觀光遊憩設施,嘉義植物園,23.48358600524043,120.46685100004652
I,嘉義市,民眾服務,51,觀光遊憩設施,嘉義公園（射日塔）,23.48122799766318,120.46899500007652
I,嘉義市,民眾服務,51,觀光遊憩設施,嘉樂福夜市,23.47326600587676,120.43208400004734
I,嘉義市,民眾服務,51,觀光遊憩設施,菸酒公賣局嘉義分局,23.477165998384386,120.44066900007823
I,嘉義市,民眾服務,51,觀光遊憩設施,石頭資料館,23.448304994254983,120.44055700009501
I,嘉義市,民眾服務,51,觀光遊憩設施,嘉義文化路夜市,23.47838699577693,120.44976000008316
I,嘉義市,民眾服務,52,停車場地,嘉義市停車場,23.46227508441378,120.4403387735485
I,嘉義市,民眾服務,52,停車場地,嘉義市友愛公有停車場,23.484886269832373,120.43318389116557
I,嘉義市,民眾服務,52,停車場地,嘉義市環保局停車場,23.464811332429445,120.46810328021859
I,嘉義市,民眾服務,52,停車場地,嘉義市立棒球場停車場,23.48087950304402,120.46397517669322
I,嘉義市,民眾服務,52,停車場地,嘉義市公有汽車停車場,23.47998184838947,120.4842971230651
I,嘉義市,民眾服務,52,停車場地,嘉義市北港路停車場,23.477920221638357,120.43326905538113
I,嘉義市,民眾服務,52,停車場地,嘉義市交通部公路總局嘉義區監理所停車場,23.499924718685325,120.45390639308972
I,嘉義市,民眾服務,52,停車場地,嘉義市蘭潭五號停車場,23.47482878688703,120.48879005566899
I,嘉義市,民眾服務,52,停車場地,嘉義基督教醫院第二停車場,23.49948699252975,120.4493920000973
I,嘉義市,民眾服務,52,停車場地,嘉義基督教醫院第一停車場,23.498674000157365,120.44955600006632
I,嘉義市,民眾服務,52,停車場地,東市場地下停車場,23.47886200246255,120.45346900005502
I,嘉義市,民眾服務,52,停車場地,民族國小停車場,23.47618099860089,120.45512100006798
I,嘉義市,民眾服務,52,停車場地,綜合體育場停車場,23.470242996663277,120.46132800008053
I,嘉義市,民眾服務,52,停車場地,蘭潭五號停車場,23.475035006238144,120.48859400004086
I,嘉義市,民眾服務,52,停車場地,先天玉虛宮停車場,23.47481399527409,120.50783300008072
I,嘉義市,民眾服務,52,停車場地,北門停車場,23.488047999208554,120.45369500007052
I,嘉義市,民眾服務,52,停車場地,友愛停車場,23.485121998271644,120.43334300007595
I,嘉義市,民眾服務,52,停車場地,北港路停車場,23.47757399923468,120.43366500007117
I,嘉義市,民眾服務,52,停車場地,拖吊停車場,23.462017000792315,120.43804300006225
I,嘉義市,民眾服務,52,停車場地,嘉義市中正公園地下停車場,23.48184699563465,120.44731700008974
I,嘉義市,民眾服務,52,停車場地,西市場地下停車場,23.479482004860444,120.44751900004682
I,嘉義市,民眾服務,52,停車場地,嘉義中信大飯店地下停車場,23.483302004020636,120.44868100004696
I,嘉義市,民眾服務,53,服務性設施,台灣自來水嘉義給水廠,23.483842004629523,120.47708600004633
I,嘉義市,民眾服務,53,服務性設施,台灣自來水嘉義服務所,23.483092000237118,120.45523900006431
I,嘉義市,民眾服務,53,服務性設施,亞太行動寬頻電信-嘉義吳鳳南加盟服務中心,23.46591999759015,120.45454100007852
I,嘉義市,民眾服務,53,服務性設施,亞太行動寬頻電信-嘉義縣,23.476689003907328,120.45827800004952
I,嘉義市,民眾服務,53,服務性設施,台灣自來水嘉義服務所,23.483092000237118,120.45523900006431
I,嘉義市,民眾服務,53,服務性設施,台灣自來水嘉義服務所,23.483092000237118,120.45523900006431
I,嘉義市,民眾服務,53,服務性設施,台灣自來水嘉義給水廠,23.483842004629523,120.47708600004633
I,嘉義市,民眾服務,53,服務性設施,台灣省自來水嘉義給水廠,23.48440799505901,120.47822600008011
I,嘉義市,民眾服務,53,服務性設施,台灣省自來水嘉義服務所,23.48281300650396,120.45533700004027
I,嘉義市,民眾服務,53,服務性設施,台灣省自來水第五區雲林嘉義管理處,23.482819000829522,120.45534000006644
I,嘉義市,民眾服務,53,服務性設施,嘉義市立圖書館,23.48722199200409,120.45253400010357
I,嘉義市,民眾服務,53,服務性設施,中華電信-嘉義民族特約服務中心,23.47706500245012,120.46032000005555
I,嘉義市,民眾服務,53,服務性設施,中華電信-光彩服務中心,23.478179995501414,120.45128000008553
I,嘉義市,民眾服務,53,服務性設施,中華電信-嘉義後庄特約服務中心,23.454398006076314,120.45971700004169
I,嘉義市,民眾服務,53,服務性設施,中華電信-嘉義後庄特約服務中心,23.454398006076314,120.45971700004169
I,嘉義市,民眾服務,53,服務性設施,中華電信-嘉義新生特約服務中心,23.49561300214976,120.45522200005892
I,嘉義市,民眾服務,53,服務性設施,威寶電信-嘉義吳鳳南特約服務中心,23.45476700163914,120.45957900005952
I,嘉義市,民眾服務,53,服務性設施,威寶電信-嘉義民族特約服務中心,23.47676399990624,120.45956700006127
I,嘉義市,民眾服務,53,服務性設施,台灣自來水第五區管理處,23.483092000237118,120.45523900006431
I,嘉義市,民眾服務,53,服務性設施,台灣自來水第五區管理處,23.483092000237118,120.45523900006431
I,嘉義市,民眾服務,53,服務性設施,台灣自來水第五區管理處,23.483092000237118,120.45523900006431
I,嘉義市,民眾服務,53,服務性設施,嘉義市東區區公所,23.47872099485555,120.45342900009176
I,嘉義市,民眾服務,53,服務性設施,台灣電力公司嘉義區營業處,23.474000996818024,120.45510900008095
I,嘉義市,民眾服務,53,服務性設施,"My Phone台灣大哥大-嘉義林森直營服務中心",23.483330004754272,120.44685300004383
I,嘉義市,民眾服務,53,服務性設施,"My Phone台灣大哥大-嘉義垂楊直營服務中心",23.473474994871093,120.4434780000901
I,嘉義市,民眾服務,53,服務性設施,亞太行動寬頻電信-嘉義興業西加盟服務中心,23.468097002930687,120.43951600005563
I,嘉義市,民眾服務,53,服務性設施,亞太行動寬頻電信-嘉義中興加盟服務中心,23.482451001346767,120.43364100006787
I,嘉義市,民眾服務,53,服務性設施,亞太行動寬頻電信-嘉義林森西加盟服務中心,23.48371799965905,120.44701800006945
I,嘉義市,民眾服務,53,服務性設施,亞太行動寬頻電信-嘉義民生北加盟服務中心,23.476528996347213,120.44665600008157
I,嘉義市,民眾服務,53,服務性設施,嘉義市立圖書館世賢分館,23.490152002379467,120.42867700005885
I,嘉義市,民眾服務,53,服務性設施,嘉義市立圖書館黃賓分館,23.47580600873922,120.44064700002751
I,嘉義市,民眾服務,53,服務性設施,中華電信-嘉義營運處,23.48176300131351,120.43046200006278
I,嘉義市,民眾服務,53,服務性設施,中華電信-嘉義興業特約服務中心,23.467467997424272,120.43530000008283
I,嘉義市,民眾服務,53,服務性設施,遠傳電信-嘉義門市,23.47610399464294,120.44647200009118
I,嘉義市,民眾服務,53,服務性設施,遠傳電信-嘉義中興門市,23.481947008332497,120.4315380000378
I,嘉義市,民眾服務,53,服務性設施,威寶電信-嘉義垂楊直營服務中心,23.47379499565683,120.4469810000883
I,嘉義市,民眾服務,53,服務性設施,威寶電信-嘉義民族二特約服務中心,23.475523996393438,120.4432150000868
I,嘉義市,民眾服務,53,服務性設施,威寶電信-嘉義興業西特約服務中心,23.468021996734773,120.43864600007932
I,嘉義市,民眾服務,53,服務性設施,威寶電信-嘉義林森西特約服務中心,23.48211899656214,120.44462300007994
I,嘉義市,民眾服務,53,服務性設施,嘉義市西區區公所,23.46449999692414,120.435379000077
I,嘉義市,民眾服務,54,電力資源,嘉義市台灣電力公司嘉義區營業處區處服務中心,23.474039999881082,120.45504965794707
I,嘉義市,民眾服務,57,行政機關,嘉義市鐵路局嘉義第二貨場,23.48796185598828,120.44926814420447
I,嘉義市,民眾服務,57,行政機關,嘉義市財政部臺灣省南區國稅局,23.481087772171097,120.45373825934557
I,嘉義市,民眾服務,57,行政機關,嘉義市政府地政處,23.481069296540824,120.45361890158999
I,嘉義市,民眾服務,57,行政機關,嘉義市交通部公路總局第五區養護工程處,23.486263753235153,120.45685171108936
I,嘉義市,民眾服務,57,行政機關,嘉義市行政院勞工委員會職業訓練局嘉義就業服務站,23.48413429392623,120.44958361118385
I,嘉義市,民眾服務,57,行政機關,嘉義市臺灣鐵路管理局嘉義機務段,23.47596389847839,120.43740246185911
I,嘉義市,民眾服務,57,行政機關,嘉義市臺灣省嘉南農田水利會嘉義區管理處,23.473812887561074,120.45465902575195
I,嘉義市,民眾服務,57,行政機關,嘉義市經濟部產業創新研發中心,23.467115151869795,120.42762592125719
I,嘉義市,民眾服務,57,行政機關,嘉義市經濟部標準檢驗局臺南分局嘉義辦事處,23.482503231432727,120.45053313463103
I,嘉義市,民眾服務,57,行政機關,嘉義市嘉義公園,23.483411695484826,120.46508685872752
I,嘉義市,民眾服務,57,行政機關,嘉義市東區戶政事務所,23.478694167362303,120.45354449563509
I,嘉義市,民眾服務,57,行政機關,嘉義市地政事務所,23.479478014513976,120.44792207110585
I,嘉義市,民眾服務,57,行政機關,嘉義市政府環境保護局,23.47888369701415,120.45351532530837
I,嘉義市,民眾服務,57,行政機關,嘉義市交通部公路總局嘉義區監理所,23.500150019255766,120.45377915982607
I,嘉義市,民眾服務,57,行政機關,嘉義市行政院農業委員會農業試驗所嘉義農業試驗分所,23.48570217841672,120.46945865211435
I,嘉義市,民眾服務,57,行政機關,嘉義市議會會館,23.46958386732052,120.41640418927715
I,嘉義市,民眾服務,57,行政機關,嘉義市財政部國有財產局臺灣南區辦事處嘉義分處,23.480865464686453,120.45214542090872
I,嘉義市,民眾服務,57,行政機關,嘉義市婦女暨青少年福利服務中心,23.484237904142326,120.43314303620146
I,嘉義市,民眾服務,57,行政機關,嘉義市經濟部水利署第五河川局,23.457834177372987,120.46107705203293
I,嘉義市,民眾服務,57,行政機關,嘉義市行政院勞工委員會職業訓練局臺南區就業服務中心嘉義就業服,23.46963499965876,120.45550432964644
I,嘉義市,民眾服務,57,行政機關,嘉義市行政院農業委員會農糧署南區分署嘉義辦事處,23.474102427928944,120.44206214983089
I,嘉義市,民眾服務,57,行政機關,嘉義市政中心,23.481150451649757,120.45358528241076
I,嘉義市,民眾服務,57,行政機關,嘉義市西區關懷中心,23.49490352379674,120.39740566643395
I,嘉義市,民眾服務,57,行政機關,嘉義市違規車輛拖吊保管場,23.462511417383794,120.43797435164377
I,嘉義市,民眾服務,57,行政機關,嘉義市嘉義公園管理所,23.48308111520552,120.46348559855828
I,嘉義市,民眾服務,57,行政機關,嘉義市嘉義後備指揮部,23.483022757161216,120.45447529367189
I,嘉義市,民眾服務,57,行政機關,嘉義市政府稅務局,23.481831178487276,120.45458102902089
I,嘉義市,民眾服務,57,行政機關,嘉義市臺灣嘉義地方法院檢查署,23.487719872482643,120.46272767308736
I,嘉義市,民眾服務,57,行政機關,嘉義市臺灣鐵路管理局嘉義工務段,23.483608531631212,120.44392530819864
I,嘉義市,民眾服務,57,行政機關,嘉義市青少年福利服務中心,23.474650296753968,120.46177036779196
I,嘉義市,民眾服務,57,行政機關,嘉義市嘉義氣象站,23.496109679725713,120.4324539169556
I,嘉義市,民眾服務,57,行政機關,嘉義市嘉義團管區,23.482588755312435,120.4543135896648
I,嘉義市,民眾服務,57,行政機關,嘉義市選舉委員會,23.490065764752224,120.45438659641096
I,嘉義市,民眾服務,57,行政機關,嘉義市東區區公所,23.479001017747645,120.45349624190443
I,嘉義市,民眾服務,57,行政機關,嘉義市嘉義憲兵隊,23.473461176753226,120.44202666893926
I,嘉義市,民眾服務,57,行政機關,嘉義市臺灣鐵路管理局嘉義工務段,23.48014701576801,120.44054185838661
I,嘉義市,民眾服務,57,行政機關,嘉義市議會,23.479386424426355,120.43247263153121
I,嘉義市,民眾服務,57,行政機關,嘉義市行政院農業委員會林業試驗所嘉義樹木園,23.48350672265889,120.46911010563987
I,嘉義市,民眾服務,57,行政機關,嘉義市國軍英雄館,23.47005765417516,120.44730639593409
I,嘉義市,民眾服務,57,行政機關,嘉義市臺灣嘉義地方法院嘉義簡易庭,23.485189085778682,120.44910344113882
I,嘉義市,民眾服務,57,行政機關,嘉義市審計室,23.455322371557138,120.43264305782863
I,嘉義市,民眾服務,57,行政機關,嘉義市政府民政處,23.48105983220139,120.4534946119101
I,嘉義市,民眾服務,57,行政機關,嘉義市西區區公所,23.464642304077852,120.43542621135076
I,嘉義市,民眾服務,57,行政機關,嘉義市財政部國有財產局臺灣南區辦事處嘉義分處,23.482278399284848,120.45853522872817
I,嘉義市,民眾服務,57,行政機關,嘉義市西區戶政事務所,23.464434678702453,120.43544373473628
I,嘉義市,民眾服務,57,行政機關,嘉義市警察局長竹派出所,23.482608991586705,120.48068900009797
I,嘉義市,民眾服務,57,行政機關,嘉義市警察局興安派出所,23.463890004144957,120.45575000004473
I,嘉義市,民眾服務,57,行政機關,嘉義市警察局新南派出所,23.4718900025227,120.45432900005324
I,嘉義市,民眾服務,57,行政機關,嘉義市警察局後湖派出所,23.49852900295543,120.45050000005583
I,嘉義市,民眾服務,57,行政機關,嘉義市警察局公園派出所,23.482820000250953,120.46308000006051
I,嘉義市,民眾服務,57,行政機關,嘉義市警察局北門派出所,23.48282000271414,120.4520700000593
I,嘉義市,民眾服務,57,行政機關,嘉義市警察局北門派出所,23.48282000271414,120.4520700000593
I,嘉義市,民眾服務,57,行政機關,嘉義市警察局南門派出所,23.476720993791833,120.45541900009027
I,嘉義市,民眾服務,57,行政機關,嘉義市消防局第二消防分隊,23.463890004144957,120.45575000004473
I,嘉義市,民眾服務,57,行政機關,嘉義市消防局東區消防分隊,23.48588899161227,120.46074900010079
I,嘉義市,民眾服務,57,行政機關,嘉義市消防局蘭潭消防分隊,23.472421000722274,120.4673490000619
I,嘉義市,民眾服務,57,行政機關,嘉義市立兒童館,23.4702199957318,120.4621200000858
I,嘉義市,民眾服務,57,行政機關,台灣嘉義監獄典獄長室,23.48501899870995,120.45932000006712
I,嘉義市,民眾服務,57,行政機關,嘉義市家庭教育服務中心,23.48246999719557,120.4644390000724
I,嘉義市,民眾服務,57,行政機關,嘉義市稅捐稽徵處,23.481730004460783,120.45422000004464
I,嘉義市,民眾服務,57,行政機關,勞工保險局嘉義連絡處,23.463550004345475,120.45518900005109
I,嘉義市,民眾服務,57,行政機關,勞工保險局嘉義連絡處,23.463550004345475,120.45518900005109
I,嘉義市,民眾服務,57,行政機關,嘉義市消防局後湖消防分隊,23.500559995233814,120.45244000008437
I,嘉義市,民眾服務,57,行政機關,嘉義市政府地政局,23.48129900189143,120.45351000006092
I,嘉義市,民眾服務,57,行政機關,嘉義市政府民政處,23.48129900189143,120.45351000006092
I,嘉義市,民眾服務,57,行政機關,調查局嘉義市調查站,23.484950002683984,120.4486190000547
I,嘉義市,民眾服務,57,行政機關,調查局嘉義市調查站,23.484950002683984,120.4486190000547
I,嘉義市,民眾服務,57,行政機關,嘉義市後備司令部,23.483029997601676,120.45465000007677
I,嘉義市,民眾服務,57,行政機關,國有財產局台灣南區辦事處嘉義分處,23.482269999226325,120.45818000006653
I,嘉義市,民眾服務,57,行政機關,嘉義區監理所,23.50038600238892,120.4541450000602
I,嘉義市,民眾服務,57,行政機關,臺灣土地銀行-嘉義分行,23.479664999614545,120.44979500006515
I,嘉義市,民眾服務,57,行政機關,臺灣土地銀行-嘉義分行,23.479664999614545,120.44979500006515
I,嘉義市,民眾服務,57,行政機關,公路總局第五區養護工程處嘉太工務所,23.48636200082028,120.45661100006066
I,嘉義市,民眾服務,57,行政機關,嘉義市教育網路中心,23.475296997315958,120.47148700007176
I,嘉義市,民眾服務,57,行政機關,教育部嘉義市聯絡處,23.478519999818463,120.46337800006097
I,嘉義市,民眾服務,57,行政機關,水利署第五河川局,23.457890004836905,120.461009000041
I,嘉義市,民眾服務,57,行政機關,嘉義市政府文化局,23.487679997841237,120.45252900008009
I,嘉義市,民眾服務,57,行政機關,嘉義市政府文化局,23.487679997841237,120.45252900008009
I,嘉義市,民眾服務,57,行政機關,嘉義市警察局第二分局,23.463890004144957,120.45575000004473
I,嘉義市,民眾服務,57,行政機關,嘉義市消防局,23.472421000722274,120.4673490000619
I,嘉義市,民眾服務,57,行政機關,嘉義市東區戶政事務所,23.47872099485555,120.45342900009176
I,嘉義市,民眾服務,57,行政機關,南區國稅局嘉義市分局,23.48129900189143,120.45351000006092
I,嘉義市,民眾服務,57,行政機關,林務局嘉義林區管理處,23.485499004047888,120.45316000005404
I,嘉義市,民眾服務,57,行政機關,嘉義市政府,23.48129900189143,120.45351000006092
I,嘉義市,民眾服務,57,行政機關,嘉義市環境保護局,23.47872099485555,120.45342900009176
I,嘉義市,民眾服務,57,行政機關,嘉義市選舉委員會,23.49011099771546,120.45437900007121
I,嘉義市,民眾服務,57,行政機關,嘉義市東區衛生所,23.476851003985523,120.4662900000449
I,嘉義市,民眾服務,57,行政機關,嘉義市東區衛生所,23.476851003985523,120.4662900000449
I,嘉義市,民眾服務,57,行政機關,嘉義市警察局,23.481408994364198,120.4545800000914
I,嘉義市,民眾服務,57,行政機關,台灣嘉義地方法院,23.488058997297543,120.46293900007198
I,嘉義市,民眾服務,57,行政機關,嘉義市立體育館,23.471324999287457,120.46109700007283
I,嘉義市,民眾服務,57,行政機關,嘉義縣公共汽車管理處,23.476703993659807,120.46552900008544
I,嘉義市,民眾服務,57,行政機關,嘉義市政府稅務局,23.48173000448881,120.45422200004295
I,嘉義市,民眾服務,57,行政機關,嘉義市政府警察局保安警察隊,23.48140600461517,120.45457500004751
I,嘉義市,民眾服務,57,行政機關,嘉義市政府警察局少年警察隊,23.48140600461517,120.45457500004751
I,嘉義市,民眾服務,57,行政機關,嘉義市政府警察局民防管制中心,23.48140600461517,120.45457500004751
I,嘉義市,民眾服務,57,行政機關,嘉義市政府警察局刑事警察大隊,23.48140600461517,120.45457500004751
I,嘉義市,民眾服務,57,行政機關,嘉義市政府警察局婦幼警察隊,23.48140600461517,120.45457500004751
I,嘉義市,民眾服務,57,行政機關,臺灣嘉義地方法院檢察署,23.482221996931443,120.45790100007687
I,嘉義市,民眾服務,57,行政機關,行政院農業委員會農業試驗所嘉義農業試驗分所,23.484350997249244,120.46796600007336
I,嘉義市,民眾服務,57,行政機關,交通部公路總局第五區養護工程處,23.48636200082028,120.45661100006066
I,嘉義市,民眾服務,57,行政機關,台灣中油股份有限公司人事處訓練所,23.467751996403535,120.45412300008135
I,嘉義市,民眾服務,57,行政機關,行政院國軍退除役官兵輔導委員會嘉義榮民服務處,23.479881009062062,120.4678470000284
I,嘉義市,民眾服務,57,行政機關,台灣中油股份有限公司油品行銷事業部嘉南營業處,23.468905003026737,120.45349100004893
I,嘉義市,民眾服務,57,行政機關,嘉義市東公有零售市場處,23.478744002372306,120.4544310000609
I,嘉義市,民眾服務,57,行政機關,嘉義市消防局第一消防大隊,23.483461007355608,120.4280890000398
I,嘉義市,民眾服務,57,行政機關,嘉義市消防局第一消防大隊,23.483461007355608,120.4280890000398
I,嘉義市,民眾服務,57,行政機關,嘉義憲兵隊,23.473389005718502,120.44212900004224
I,嘉義市,民眾服務,57,行政機關,嘉義市警察局長榮派出所,23.479168998391035,120.44310000007
I,嘉義市,民眾服務,57,行政機關,嘉義市警察局長榮派出所,23.479168998391035,120.44310000007
I,嘉義市,民眾服務,57,行政機關,嘉義市警察局竹園派出所,23.472929004677713,120.43229000004472
I,嘉義市,民眾服務,57,行政機關,嘉義市警察局北鎮派出所,23.47946900248188,120.43164900005429
I,嘉義市,民眾服務,57,行政機關,嘉義市警察局北興派出所,23.485049001863157,120.44224900006387
I,嘉義市,民眾服務,57,行政機關,嘉義市警察局北興派出所,23.485049001863157,120.44224900006387
I,嘉義市,民眾服務,57,行政機關,嘉義市消防局德安消防分隊,23.483461007355608,120.4280890000398
I,嘉義市,民眾服務,57,行政機關,嘉義市消防局德安消防分隊,23.483461007355608,120.4280890000398
I,嘉義市,民眾服務,57,行政機關,嘉義市消防局湖內消防分隊,23.45614899830516,120.4409090000716
I,嘉義市,民眾服務,57,行政機關,嘉義市警察局八掌派出所,23.473360998568673,120.44707100007784
I,嘉義市,民眾服務,57,行政機關,農業委員會林業試驗所中埔研究中心,23.489000005211224,120.44865000004118
I,嘉義市,民眾服務,57,行政機關,臺灣土地銀行-嘉興分行,23.482046997248425,120.43669700007598
I,嘉義市,民眾服務,57,行政機關,臺灣銀行-嘉南分行,23.47972899706644,120.42999100007893
I,嘉義市,民眾服務,57,行政機關,行政院農業委員會農糧署南區分署嘉義辦事處,23.474020994239428,120.44216400008901
I,嘉義市,民眾服務,57,行政機關,交通部臺灣鐵路管理局機務處彰化機務段嘉義機務分段,23.476060995181175,120.43692800009153
I,嘉義市,民眾服務,57,行政機關,合作金庫銀行股份有限公司-南嘉義分行,23.47542899510586,120.44200100009286
I,嘉義市,民眾服務,57,行政機關,合作金庫銀行股份有限公司-南嘉義分行,23.47542899510586,120.44200100009286
I,嘉義市,民眾服務,57,行政機關,內政部入出國及移民署專勤事務專勤事務第二大隊嘉義市專勤隊,23.47972899706644,120.42999100007893
I,嘉義市,民眾服務,57,行政機關,內政部入出國及移民署專勤事務服務事務大隊嘉義市服務站,23.47972899706644,120.42999100007893
I,嘉義市,民眾服務,57,行政機關,內政部土地重劃工程處南區第一開發隊,23.487117004741712,120.42795200005443
I,嘉義市,民眾服務,57,行政機關,內政部國土測繪中心南區第一測量隊,23.48748099053742,120.4279270034087
I,嘉義市,民眾服務,57,行政機關,合作金庫銀行股份有限公司-嘉義分行,23.48049900614734,120.44831400003712
I,嘉義市,民眾服務,57,行政機關,臺銀人壽保險股份有限公司嘉義分公司,23.469696992668375,120.44010700009537
I,嘉義市,民眾服務,57,行政機關,合作金庫銀行股份有限公司-北嘉義分行,23.483940005060084,120.43320400004278
I,嘉義市,民眾服務,57,行政機關,合作金庫銀行股份有限公司-北嘉義分行,23.483940005060084,120.43320400004278
I,嘉義市,民眾服務,57,行政機關,嘉義巿政府衛生局,23.479949997624875,120.43119000008143
I,嘉義市,民眾服務,57,行政機關,嘉義市警察局第一分局,23.47946900248188,120.43164900005429
I,嘉義市,民眾服務,57,行政機關,嘉義市嘉義地政事務所,23.479229005216094,120.44834000004711
I,嘉義市,民眾服務,57,行政機關,嘉義市西區戶政事務所,23.46449999692414,120.435379000077
I,嘉義市,民眾服務,57,行政機關,嘉義市審計室,23.454831006208988,120.43282900004458
I,嘉義市,民眾服務,57,行政機關,嘉義市西區衛生所,23.479949997624875,120.43119000008143
I,嘉義市,民眾服務,57,行政機關,嘉義市議會,23.479266002374573,120.43185300006134
I,嘉義市,民眾服務,57,行政機關,嘉義縣審計室,23.45506000770421,120.43398200003703
I,嘉義市,民眾服務,57,行政機關,臺灣糖業股份有限公司商品行銷事業部嘉義營業所,23.48787600816301,120.43060200003687
I,嘉義市,民眾服務,57,行政機關,交通部臺灣鐵路管理局嘉義工務段,23.480208997450454,120.44044400008286
I,嘉義市,民眾服務,57,行政機關,法務部行政執行署嘉義行政執行處,23.479383998966675,120.42946400007787
I,嘉義市,民眾服務,57,行政機關,交通部臺灣鐵路管理局嘉義機務段,23.476060994446225,120.43686900008987
I,嘉義市,民眾服務,57,行政機關,交通部中央氣象局嘉義氣象站,23.495974004721003,120.43259400004831
I,嘉義市,民眾服務,57,行政機關,台灣中油股份有限公司煉製研究所,23.46619700177897,120.44618100006244
I,嘉義市,民眾服務,57,行政機關,台灣中油股份有限公司煉製研究所,23.46619700177897,120.44618100006244
I,嘉義市,民眾服務,57,行政機關,交通部臺灣鐵路管理局嘉義電力段,23.481610999471165,120.44345300007252
I,嘉義市,民眾服務,57,行政機關,臺灣菸酒股份有限公司嘉義營業處,23.473118000345195,120.44470300006591
I,嘉義市,民眾服務,57,行政機關,嘉義市興嘉公有零售市場處,23.479226000620713,120.44833900006205
I,嘉義市,民眾服務,57,行政機關,交通部公路總局東西向快速公路南區工程處,23.484078001556643,120.42915000006472
I,嘉義市,民眾服務,57,行政機關,台灣中油股份有限公司溶劑化學品事業部,23.468573001569986,120.44893100006028
I,嘉義市,民眾服務,58,醫療保健,嘉義市陽明醫院,23.480526308345326,120.45327850169693
I,嘉義市,民眾服務,58,醫療保健,嘉義市西區衛生所,23.480004653547343,120.43114545940709
I,嘉義市,民眾服務,58,醫療保健,嘉義市財團法人嘉義基督教醫院,23.499378446519245,120.45006665189666
I,嘉義市,民眾服務,58,醫療保健,嘉義市天主教聖馬爾定醫院護理之家,23.468352121097976,120.46313599076265
I,嘉義市,民眾服務,58,醫療保健,嘉義市榮民醫院市區門診部,23.475045012647705,120.45323648292002
I,嘉義市,民眾服務,58,醫療保健,嘉義市財團法人嘉義基督教醫院第二院區,23.500899415112013,120.45118925604025
I,嘉義市,民眾服務,58,醫療保健,嘉義市嘉義基督教醫院第一門診中心,23.499797371731493,120.45107241134549
I,嘉義市,民眾服務,58,醫療保健,嘉義市聖馬爾定醫院民權院區,23.484275366117426,120.46153453375283
I,嘉義市,民眾服務,58,醫療保健,嘉義市聖馬爾定醫院,23.47550892852711,120.46725768113566
I,嘉義市,民眾服務,58,醫療保健,嘉義市太和醫院,23.471448507782615,120.44483378983047
I,嘉義市,民眾服務,58,醫療保健,嘉義市行政院衛生署嘉義醫院,23.481370305958116,120.4292629254395
I,嘉義市,民眾服務,58,醫療保健,嘉義市臺中榮民總醫院嘉義分院,23.46737803040881,120.42299770838946
I,嘉義市,民眾服務,58,醫療保健,財團法人天主教聖馬爾定醫院,23.47568000037271,120.46710000006142
I,嘉義市,民眾服務,58,醫療保健,財團法人天主教聖馬爾定醫院,23.47568000037271,120.46710000006142
I,嘉義市,民眾服務,58,醫療保健,財團法人嘉義基督教醫院,23.49946500500388,120.44910600004147
I,嘉義市,民眾服務,58,醫療保健,建興醫院,23.481842004338677,120.45523900004973
I,嘉義市,民眾服務,58,醫療保健,陽明醫院,23.48057099655025,120.45318900007972
I,嘉義市,民眾服務,58,醫療保健,財團法人嘉義基督教醫院保健院區,23.500593001808465,120.45126400006201
I,嘉義市,民眾服務,58,醫療保健,盧亞人醫院,23.48209499597679,120.44758300008534
I,嘉義市,民眾服務,58,醫療保健,大仁醫院,23.475600000591648,120.44420300006432
I,嘉義市,民眾服務,58,醫療保健,世華醫院,23.475691004555372,120.4420880000468
I,嘉義市,民眾服務,58,醫療保健,陳仁德醫院,23.480174003179478,120.44324400005311
I,嘉義市,民眾服務,58,醫療保健,祥太醫院,23.475984005438615,120.44045200004997
I,嘉義市,民眾服務,58,醫療保健,慶昇眼科醫院,23.480484003195038,120.4438500000581
I,嘉義市,民眾服務,58,醫療保健,行政院衛生署嘉義醫院,23.481013994045085,120.42900500009985
I,嘉義市,民眾服務,58,醫療保健,嘉義榮民醫院,23.467548995811136,120.42296600009176
I,嘉義市,民眾服務,59,加油站,中油加油站-嘉峰站,23.477513998475175,120.47082000007201
I,嘉義市,民眾服務,59,加油站,中油加油站-忠孝站,23.518149996314147,120.44098600008407
I,嘉義市,民眾服務,59,加油站,中油加油站-吳鳳路站(刷卡自助)(中油直營),23.46903300158966,120.45403300005746
I,嘉義市,民眾服務,59,加油站,中油加油站-吳鳳路站(刷卡自助)(中油直營),23.46903300158966,120.45403300005746
I,嘉義市,民眾服務,59,加油站,中油加油站-嘉峰站,23.477513998475175,120.47082000007201
I,嘉義市,民眾服務,59,加油站,中油加油站-新生路(嘉義市),23.494819000888207,120.4563270000586
I,嘉義市,民眾服務,59,加油站,中油加油站-新生路(嘉義市),23.494819000888207,120.4563270000586
I,嘉義市,民眾服務,59,加油站,中油加油站-中山路站(中油直營),23.482338999667032,120.45935700006264
I,嘉義市,民眾服務,59,加油站,中油加油站-中山路站(中油直營),23.482338999667032,120.45935700006264
I,嘉義市,民眾服務,59,加油站,福懋加油站-文化站(台塑),23.507805001192498,120.4364920000683
I,嘉義市,民眾服務,59,加油站,福懋加油站-嘉義站(台塑),23.502430004293178,120.449439000048
I,嘉義市,民眾服務,59,加油站,福懋加油站-嘉義站(台塑),23.502430004293178,120.449439000048
I,嘉義市,民眾服務,59,加油站,福懋加油站-欣隆站(台塑),23.491981992716724,120.47203100009168
I,嘉義市,民眾服務,59,加油站,福懋加油站-欣隆站(台塑),23.491981992716724,120.47203100009168
I,嘉義市,民眾服務,59,加油站,台塑加油站-威盛嘉義站(台塑),23.49058499597911,120.46207200008563
I,嘉義市,民眾服務,59,加油站,中油加油站-博愛路站(中油直營),23.490348008750065,120.45237800003369
I,嘉義市,民眾服務,59,加油站,中油加油站-博愛路站(中油直營),23.490348008750065,120.45237800003369
I,嘉義市,民眾服務,59,加油站,中油加油站-世賢路站,23.46058500349353,120.4340560000515
I,嘉義市,民眾服務,59,加油站,中油加油站-世賢路站,23.46058500349353,120.4340560000515
I,嘉義市,民眾服務,59,加油站,中油加油站-中興路(嘉義市),23.47634000204992,120.42837300005635
I,嘉義市,民眾服務,59,加油站,中油加油站-中興路站,23.476339005443762,120.42837000004943
I,嘉義市,民眾服務,59,加油站,中油加油站-文化路站(中油直營),23.474541000811342,120.44997400006262
I,嘉義市,民眾服務,59,加油站,中油加油站-北興站(中油直營),23.492053993962507,120.4333510000915
I,嘉義市,民眾服務,59,加油站,中油加油站-湖子內路站,23.453168998077206,120.44215000007974
I,嘉義市,民眾服務,59,加油站,中油加油站-湖子內路站,23.453168998077206,120.44215000007974
I,嘉義市,民眾服務,59,加油站,台灣優力加油站-世賢站(中油),23.485377999327653,120.42282800007366
I,嘉義市,民眾服務,59,加油站,中油加油站-民生站,23.45242799738183,120.4323920000797
I,嘉義市,民眾服務,59,加油站,中油加油站-民生站,23.45242799738183,120.4323920000797
I,嘉義市,民眾服務,59,加油站,中油加油站-信義路站(中油直營),23.468809997276054,120.42892900007911
I,嘉義市,民眾服務,59,加油站,山隆加油站-嘉義站(中油),23.490450000439278,120.39710100006828
I,嘉義市,民眾服務,59,加油站,中油加油站-中油嘉交站(中油直營),23.490731997635557,120.40367000008442
I,嘉義市,民眾服務,59,加油站,中油加油站-興嘉站(中油直營),23.46757300821257,120.43404800003655
I,嘉義市,民眾服務,59,加油站,中油加油站-福隆站,23.499165994907365,120.44107800008906
I,嘉義市,民眾服務,59,加油站,中油加油站-興達站,23.485065002647694,120.43591300006072
I,嘉義市,民眾服務,59,加油站,中油加油站-興達站,23.485065002647694,120.43591300006072
I,嘉義市,民眾服務,59,加油站,中油加油站-林森路站(中油直營),23.480586009227096,120.44376500002646
I,嘉義市,民眾服務,59,加油站,中油加油站-林森路站(中油直營),23.480586009227096,120.44376500002646
I,嘉義市,民眾服務,59,加油站,中油加油站-新民路站,23.47373900796997,120.43958400003203
I,嘉義市,民眾服務,59,加油站,中油加油站-港坪站,23.471931001181147,120.42111400006495
I,嘉義市,民眾服務,59,加油站,統一速邁樂加油站-嘉義一站加油站(中油),23.456239996930766,120.43599200008421
I,嘉義市,民眾服務,59,加油站,福懋加油站-大嘉站(台塑),23.48534600144027,120.42021400006539
I,嘉義市,民眾服務,59,加油站,福懋加油站-大嘉站(台塑),23.48534600144027,120.42021400006539
I,嘉義市,民眾服務,59,加油站,福懋加油站-新民站(台塑),23.45248500321357,120.43185800005894
I,嘉義市,民眾服務,59,加油站,福懋加油站-新民站(台塑),23.45248500321357,120.43185800005894
I,嘉義市,民眾服務,59,加油站,台亞加油站-嘉安站(台塑),23.485139005125014,120.41964700004755
I,嘉義市,民眾服務,59,加油站,台亞加油站-嘉安站(台塑),23.485139005125014,120.41964700004755
I,嘉義市,民眾服務,59,加油站,台亞加油站-嘉義交流道站(台塑),23.492402008635572,120.39774100003844
I,嘉義市,工商活動,71,百貨公司,耐斯百貨,23.496519998548596,120.45253000007396
I,嘉義市,工商活動,71,百貨公司,三商百貨-嘉義店,23.480281004275625,120.44415800005441
I,嘉義市,工商活動,71,百貨公司,新光三越-嘉義垂楊店,23.473278999775836,120.4411900000711
I,嘉義市,工商活動,71,百貨公司,新光三越-嘉義垂楊店,23.473278999775836,120.4411900000711
I,嘉義市,工商活動,71,百貨公司,遠東百貨-嘉義FE21,23.472953998434143,120.44110800007823
I,嘉義市,工商活動,72,金融機構,嘉義市陽信商業銀行嘉義分行,23.482318513558234,120.43175228809291
I,嘉義市,工商活動,72,金融機構,嘉義市第三信用合作社新興分社,23.48133383987409,120.43411972976268
I,嘉義市,工商活動,72,金融機構,嘉義市兆豐國際商業銀行嘉義分行,23.483661373762285,120.4486300850339
I,嘉義市,工商活動,72,金融機構,嘉義市第一商業銀行興嘉分行,23.467540019153383,120.43518189474638
I,嘉義市,工商活動,72,金融機構,嘉義市陽信商業銀行光華分行,23.478678629043873,120.4516904317283
I,嘉義市,工商活動,72,金融機構,嘉義市台北富邦商業銀行嘉義分行,23.47663947482441,120.44196043961195
I,嘉義市,工商活動,72,金融機構,嘉義市合作金庫商業銀行東嘉義分行,23.481875603775404,120.4466913143315
I,嘉義市,工商活動,72,金融機構,嘉義市第三信用合作社民生分社,23.46014778119472,120.44362524077316
I,嘉義市,工商活動,72,金融機構,嘉義市合作金庫商業銀行嘉義分行,23.480427551543542,120.44831557692856
I,嘉義市,工商活動,72,金融機構,嘉義市國泰世華商業銀行嘉泰分行,23.48111703323519,120.44922021036902
I,嘉義市,工商活動,72,金融機構,嘉義市彰化商業銀行北嘉義分行,23.484249430347994,120.4338302358965
I,嘉義市,工商活動,72,金融機構,嘉義市安泰商業銀行嘉義分行,23.476224131178032,120.44197001815559
I,嘉義市,工商活動,72,金融機構,嘉義市第三信用合作社新生分社,23.49431684267418,120.45639967798118
I,嘉義市,工商活動,72,金融機構,嘉義市京城商業銀行興業分行,23.469941503216486,120.44006021086864
I,嘉義市,工商活動,72,金融機構,嘉義市第三信用合作社中埔分社,23.453585626518837,120.45978274987212
I,嘉義市,工商活動,72,金融機構,嘉義市臺灣中小企業銀行南嘉義分行,23.469851378837017,120.4401095352251
I,嘉義市,工商活動,72,金融機構,嘉義市第三信用合作社新榮分社,23.475655043893816,120.44444028136964
I,嘉義市,工商活動,72,金融機構,嘉義市中華郵政嘉義玉山郵局(嘉義10支),23.47216726732005,120.42882677339684
I,嘉義市,工商活動,72,金融機構,嘉義市第一商業銀行新西分行,23.478786410898277,120.44641736904151
I,嘉義市,工商活動,72,金融機構,嘉義市萬泰商業銀行嘉義分行,23.47537521599853,120.4444698419275
I,嘉義市,工商活動,72,金融機構,嘉義市大眾商業銀行嘉義分行,23.478742694041564,120.4442805083089
I,嘉義市,工商活動,72,金融機構,嘉義市中華郵政嘉義民權路郵局(嘉義5支),23.481763024676127,120.44549939824336
I,嘉義市,工商活動,72,金融機構,嘉義市第三信用合作社興嘉分社,23.46853330661068,120.44019046918287
I,嘉義市,工商活動,72,金融機構,嘉義市臺灣銀行嘉北分行,23.497056523929558,120.45227726725108
I,嘉義市,工商活動,72,金融機構,嘉義市台新國際商業銀行嘉義分行,23.47351313565048,120.44393042841668
I,嘉義市,工商活動,72,金融機構,嘉義市中華郵政嘉義後湖郵局(嘉義15支),23.500785039359158,120.4546136826646
I,嘉義市,工商活動,72,金融機構,嘉義市彰化商業銀行東嘉義分行,23.49619528373649,120.45388161833789
I,嘉義市,工商活動,72,金融機構,嘉義市聯邦商業銀行嘉義分行,23.480182398340748,120.45048988545032
I,嘉義市,工商活動,72,金融機構,嘉義市第四信用合作社台林分社,23.49378499401425,120.45407952868158
I,嘉義市,工商活動,72,金融機構,嘉義市日盛國際商業銀行嘉義分行,23.483566788851917,120.44742045433424
I,嘉義市,工商活動,72,金融機構,嘉義市聯邦商業銀行東嘉義分行,23.479888062648342,120.45152782025106
I,嘉義市,工商活動,72,金融機構,嘉義市第三信用合作社營業部,23.477877060320132,120.44972019773728
I,嘉義市,工商活動,72,金融機構,嘉義市玉山商業銀行嘉義分行,23.480484820364964,120.44409993345704
I,嘉義市,工商活動,72,金融機構,嘉義市渣打國際商業銀行嘉義分行,23.47607917435026,120.452020306711
I,嘉義市,工商活動,72,金融機構,嘉義市第四信用合作社中正分社,23.479577712238633,120.45572979925568
I,嘉義市,工商活動,72,金融機構,嘉義市華南商業銀行嘉義分行,23.479884427412046,120.44793995867404
I,嘉義市,工商活動,72,金融機構,嘉義市國泰世華商業銀行嘉義分行,23.47463426670704,120.44687031358552
I,嘉義市,工商活動,72,金融機構,嘉義市華南商業銀行嘉南分行,23.47642784349504,120.44086003321304
I,嘉義市,工商活動,72,金融機構,嘉義市京城商業銀行嘉義分行,23.48028966496887,120.45018008974638
I,嘉義市,工商活動,72,金融機構,嘉義市遠東國際商業銀行嘉義分行,23.483310199418636,120.44890957593731
I,嘉義市,工商活動,72,金融機構,嘉義市中國信託商業銀行嘉義分行,23.480843606073748,120.44596041798314
I,嘉義市,工商活動,72,金融機構,嘉義市彰化商業銀行嘉義分行,23.479724242933045,120.44605613643063
I,嘉義市,工商活動,72,金融機構,嘉義市京城商業銀行博愛分行,23.483439909426586,120.4472897993104
I,嘉義市,工商活動,72,金融機構,嘉義市臺灣新光商業銀行嘉義分行,23.480435303072525,120.45051037482996
I,嘉義市,工商活動,72,金融機構,嘉義市玉山商業銀行東嘉義分行,23.474339347012435,120.45802922954306
I,嘉義市,工商活動,72,金融機構,嘉義市第三信用合作社忠孝分社,23.48000401641066,120.45369083793688
I,嘉義市,工商活動,72,金融機構,嘉義市第三信用合作社新南分社,23.46967417021366,120.4563802684263
I,嘉義市,工商活動,72,金融機構,嘉義市板信商業銀行軍輝分行,23.45488419423235,120.45928025066424
I,嘉義市,工商活動,72,金融機構,嘉義市臺灣銀行嘉義分行,23.479995351771684,120.44866490446344
I,嘉義市,工商活動,72,金融機構,嘉義市中華郵政嘉義忠孝郵局(嘉義7支),23.483212559875785,120.45452835692552
I,嘉義市,工商活動,72,金融機構,嘉義市花旗(台灣)商業銀行嘉義分行,23.474254698637306,120.45189764662005
I,嘉義市,工商活動,72,金融機構,嘉義市臺灣中小企業銀行嘉義分行,23.479200181581344,120.45106957823249
I,嘉義市,工商活動,72,金融機構,嘉義市第三信用合作社北興分社,23.48207194918702,120.4460394784566
I,嘉義市,工商活動,72,金融機構,嘉義市元大商業銀行嘉義分行,23.482297138475154,120.43581022179981
I,嘉義市,工商活動,72,金融機構,嘉義市永豐商業銀行嘉義分行,23.467929159817135,120.43792008755605
I,嘉義市,工商活動,72,金融機構,嘉義市第四信用合作社仁愛分社,23.47120557092298,120.44255007215645
I,嘉義市,工商活動,72,金融機構,嘉義市中華郵政嘉義彌陀郵局(嘉義18支),23.47420244170197,120.46282549847781
I,嘉義市,工商活動,72,金融機構,嘉義市兆豐國際商業銀行嘉興分行,23.484016777718555,120.45210988644777
I,嘉義市,工商活動,72,金融機構,嘉義市第一商業銀行嘉義分行,23.479747833430718,120.45016960930641
I,嘉義市,工商活動,72,金融機構,嘉義市第四信用合作社營業部,23.479377454976213,120.44502870553104
I,嘉義市,工商活動,72,金融機構,嘉義市臺灣銀行嘉南分行,23.48142138305269,120.43088191518325
I,嘉義市,工商活動,72,金融機構,嘉義市臺灣新光商業銀行北嘉義簡易型分行,23.47931201910004,120.429402961405
I,嘉義市,工商活動,72,金融機構,嘉義市板信商業銀行嘉義分行,23.47999685372423,120.44908976578238
I,嘉義市,工商活動,72,金融機構,嘉義市臺灣土地銀行嘉興分行,23.485432179439663,120.4412900333724
I,嘉義市,工商活動,72,金融機構,嘉義市中華郵政嘉義興業路郵局(嘉義16支),23.468942221535595,120.45364730654003
I,嘉義市,工商活動,72,金融機構,嘉義市第三信用合作社美源分社,23.490492455033255,120.46810995151864
I,嘉義市,工商活動,72,金融機構,郵局-嘉義文化路郵局,23.477868008674605,120.44995000002982
I,嘉義市,工商活動,72,金融機構,郵局-嘉義文化路郵局,23.477868008674605,120.44995000002982
I,嘉義市,工商活動,72,金融機構,郵局-嘉義中山路郵局,23.481904997143264,120.45778400007863
I,嘉義市,工商活動,72,金融機構,郵局-嘉義中山路郵局,23.481904997143264,120.45778400007863
I,嘉義市,工商活動,72,金融機構,郵局-嘉義忠孝郵局,23.48322999490569,120.45457800008532
I,嘉義市,工商活動,72,金融機構,郵局-嘉義東門郵局,23.479487996901028,120.45596400007962
I,嘉義市,工商活動,72,金融機構,郵局-嘉義東門郵局,23.479487996901028,120.45596400007962
I,嘉義市,工商活動,72,金融機構,郵局-嘉義興業路郵局,23.468905003026737,120.45349100004893
I,嘉義市,工商活動,72,金融機構,郵局-嘉義彌陀郵局,23.474148001030006,120.46284800006565
I,嘉義市,工商活動,72,金融機構,郵局-嘉義大學郵局,23.463760997768865,120.48353400007386
I,嘉義市,工商活動,72,金融機構,郵局-嘉義大學郵局,23.463760997768865,120.48353400007386
I,嘉義市,工商活動,72,金融機構,郵局-嘉義林森郵局,23.491882005253515,120.47048100003967
I,嘉義市,工商活動,72,金融機構,郵局-嘉義林森郵局,23.491882005253515,120.47048100003967
I,嘉義市,工商活動,72,金融機構,郵局-嘉義後湖郵局,23.501111994418448,120.45511400008827
I,嘉義市,工商活動,72,金融機構,嘉義市魚市場,23.489339998066413,120.45099900007352
I,嘉義市,工商活動,72,金融機構,郵局-嘉義站前郵局,23.478540002512105,120.44333900005311
I,嘉義市,工商活動,72,金融機構,郵局-嘉義站前郵局,23.478540002512105,120.44333900005311
I,嘉義市,工商活動,72,金融機構,郵局-嘉義民權路郵局,23.481762994736087,120.44556700008685
I,嘉義市,工商活動,72,金融機構,郵局-嘉義北社郵局,23.485404003512645,120.43859200005363
I,嘉義市,工商活動,72,金融機構,郵局-嘉義北社郵局,23.485404003512645,120.43859200005363
I,嘉義市,工商活動,72,金融機構,郵局-嘉義福全郵局,23.477020996155122,120.4351420000839
I,嘉義市,工商活動,72,金融機構,郵局-嘉義福全郵局,23.477020996155122,120.4351420000839
I,嘉義市,工商活動,72,金融機構,郵局-嘉義成功街郵局,23.47216499522847,120.4432390000856
I,嘉義市,工商活動,72,金融機構,郵局-嘉義成功街郵局,23.47216499522847,120.4432390000856
I,嘉義市,工商活動,72,金融機構,郵局-嘉義湖內郵局,23.458981999388342,120.44336200006971
I,嘉義市,工商活動,72,金融機構,郵局-嘉義湖內郵局,23.458981999388342,120.44336200006971
I,嘉義市,工商活動,72,金融機構,郵局-嘉義埤子頭郵局,23.488801009316088,120.44668300002374
I,嘉義市,工商活動,72,金融機構,郵局-嘉義埤子頭郵局,23.488801009316088,120.44668300002374
I,嘉義市,工商活動,72,金融機構,郵局-嘉義興嘉郵局,23.46477899886945,120.43599700007441
I,嘉義市,工商活動,72,金融機構,郵局-嘉義興嘉郵局,23.46477899886945,120.43599700007441
I,嘉義市,工商活動,72,金融機構,郵局-嘉義保安郵局,23.492958008104804,120.43496600003485
I,嘉義市,工商活動,72,金融機構,郵局-嘉義保安郵局,23.492958008104804,120.43496600003485
I,嘉義市,工商活動,72,金融機構,嘉義市農會信用部,23.488899009040264,120.40725600003618
I,嘉義市,工商活動,72,金融機構,嘉義縣農會,23.471939001518702,120.43156300006655
I,嘉義市,工商活動,72,金融機構,郵局-嘉義玉山郵局,23.472293002240203,120.42885800005604
I,嘉義市,工商活動,73,娛樂設施,嘉義市西區興嘉國民小學綜合體育館,23.462998463920243,120.43781469785979
I,嘉義市,工商活動,73,娛樂設施,嘉義市網球場,23.47246710146039,120.46236265037983
I,嘉義市,工商活動,73,娛樂設施,嘉義市游泳池,23.471818615876767,120.4628468960667
I,嘉義市,工商活動,73,娛樂設施,嘉義市慢壘委員會壘球場,23.463015115693775,120.43993379663799
I,嘉義市,工商活動,73,娛樂設施,嘉義市立體育場,23.47134317686797,120.46114456425876
I,嘉義市,工商活動,73,娛樂設施,嘉義市博愛國民小學友愛綜合球場,23.490980522170812,120.43737889493474
I,嘉義市,工商活動,73,娛樂設施,嘉義市立體育館,23.47347760652232,120.4621187226653
I,嘉義市,工商活動,73,娛樂設施,嘉義市立棒球場,23.481725406194165,120.46576131894953
I,嘉義市,工商活動,73,娛樂設施,嘉義市吳鳳游泳池,23.475906512784665,120.45428038528486
I,嘉義市,工商活動,74,飯店,嘉義市永鎮御花園商務汽車旅館,23.490973551447393,120.42802324969935
I,嘉義市,工商活動,74,飯店,嘉義市優仕大飯店,23.483164970057114,120.43110645112729
I,嘉義市,工商活動,74,飯店,嘉義市白雲雅驛旅館,23.482473925739242,120.48697669086914
I,嘉義市,工商活動,74,飯店,嘉義市嘉義商旅,23.473047780560606,120.43754795829261
I,嘉義市,工商活動,74,飯店,嘉義市香湖國際大飯店,23.479922587840456,120.43589668097643
I,嘉義市,工商活動,74,飯店,嘉義市冠閣商務大飯店,23.483700351837886,120.43430640790176
I,嘉義市,工商活動,74,飯店,嘉義市歐特屋旅社,23.483046237484796,120.4332156792945
I,嘉義市,工商活動,74,飯店,嘉義市香緹時尚大飯店,23.48228070376049,120.43128743820996
I,嘉義市,工商活動,74,飯店,嘉義市禾楓汽車旅館嘉義館,23.48753636749246,120.42889764952062
I,嘉義市,工商活動,74,飯店,嘉義市湖水岸人文休閒旅館,23.48111368494488,120.48797658584837
I,嘉義市,工商活動,74,飯店,嘉義市嘉冠大飯店,23.478233242985507,120.44322342525827
I,嘉義市,工商活動,74,飯店,嘉義市嘉禾玉山國際大飯店,23.47281488533199,120.43060265113364
I,嘉義市,工商活動,74,飯店,嘉義市湳嘉精緻大飯店,23.468139073337653,120.44357608301218
I,嘉義市,工商活動,74,飯店,嘉義市耐斯王子大飯店,23.49620275716673,120.4534380653321
I,嘉義市,工商活動,74,飯店,白雲雅驛旅館,23.4823800007271,120.48697700006164
I,嘉義市,工商活動,74,飯店,耐斯王子大飯店,23.496299006041188,120.45322500003778
I,嘉義市,工商活動,74,飯店,中和旅社,23.47990299875623,120.45082200006726
I,嘉義市,工商活動,74,飯店,中和旅社,23.47990299875623,120.45082200006726
I,嘉義市,工商活動,74,飯店,吉祥旅社,23.484486003078786,120.45481700005728
I,嘉義市,工商活動,74,飯店,吉祥旅社,23.484486003078786,120.45481700005728
I,嘉義市,工商活動,74,飯店,宏榮旅社,23.47986100392742,120.45163500004867
I,嘉義市,工商活動,74,飯店,宏榮旅社,23.47986100392742,120.45163500004867
I,嘉義市,工商活動,74,飯店,柏克山莊汽車旅館,23.481314999977307,120.48609900006416
I,嘉義市,工商活動,74,飯店,柏克山莊汽車旅館,23.481314999977307,120.48609900006416
I,嘉義市,工商活動,74,飯店,湖水岸人文休閒旅館,23.481068005945165,120.48798900004329
I,嘉義市,工商活動,74,飯店,華洲大飯店,23.47689099388859,120.45198000009532
I,嘉義市,工商活動,74,飯店,華洲大飯店,23.47689099388859,120.45198000009532
I,嘉義市,工商活動,74,飯店,廣美大飯店,23.50153199590522,120.44881400008435
I,嘉義市,工商活動,74,飯店,廣美大飯店,23.50153199590522,120.44881400008435
I,嘉義市,工商活動,74,飯店,麗景精品休閒旅館,23.49205000541591,120.4538170000463
I,嘉義市,工商活動,74,飯店,麗景精品休閒旅館,23.49205000541591,120.4538170000463
I,嘉義市,工商活動,74,飯店,嘉禾玉山國際大飯店,23.472908996020877,120.43086900008898
I,嘉義市,工商活動,74,飯店,香緹時尚大飯店,23.482702002582332,120.43122100006288
I,嘉義市,工商活動,74,飯店,御花園汽車旅館-嘉義館,23.491027996253308,120.42814600008897
I,嘉義市,工商活動,74,飯店,歐特屋旅社,23.483065003344464,120.43332300005176
I,嘉義市,工商活動,74,飯店,禾楓精緻汽車旅館-嘉義館,23.48759099816185,120.42896000007714
I,嘉義市,工商活動,74,飯店,五洲大旅社,23.47857299795954,120.44249700007998
I,嘉義市,工商活動,74,飯店,五洲大旅社,23.47857299795954,120.44249700007998
I,嘉義市,工商活動,74,飯店,文都大旅社,23.47766900325227,120.44473300005858
I,嘉義市,工商活動,74,飯店,文都大旅社,23.47766900325227,120.44473300005858
I,嘉義市,工商活動,74,飯店,比佛利花園汽車旅館,23.468843002196266,120.43600900005895
I,嘉義市,工商活動,74,飯店,比佛利花園汽車旅館,23.468843002196266,120.43600900005895
I,嘉義市,工商活動,74,飯店,王子大飯店,23.47653500818248,120.44322000002977
I,嘉義市,工商活動,74,飯店,王子大飯店,23.47653500818248,120.44322000002977
I,嘉義市,工商活動,74,飯店,永興大旅社,23.478582996041396,120.44271200008556
I,嘉義市,工商活動,74,飯店,永興大旅社,23.478582996041396,120.44271200008556
I,嘉義市,工商活動,74,飯店,白宮大飯店,23.478063007527933,120.44129500003599
I,嘉義市,工商活動,74,飯店,白宮大飯店,23.478063007527933,120.44129500003599
I,嘉義市,工商活動,74,飯店,兆品酒店,23.483381001156868,120.4487130000638
I,嘉義市,工商活動,74,飯店,兆品酒店,23.483381001156868,120.4487130000638
I,嘉義市,工商活動,74,飯店,波士頓大飯店,23.478456996381283,120.44266400008273
I,嘉義市,工商活動,74,飯店,波士頓大飯店,23.478456996381283,120.44266400008273
I,嘉義市,工商活動,74,飯店,金龍海悅大飯店,23.477251002301912,120.4465850000572
I,嘉義市,工商活動,74,飯店,金龍海悅大飯店,23.477251002301912,120.4465850000572
I,嘉義市,工商活動,74,飯店,皇爵大飯店,23.480015009104065,120.44412600003338
I,嘉義市,工商活動,74,飯店,皇爵大飯店,23.480015009104065,120.44412600003338
I,嘉義市,工商活動,74,飯店,真珠大飯店,23.47857000198419,120.4493010000566
I,嘉義市,工商活動,74,飯店,國堡大飯店,23.47818100573068,120.44141200004111
I,嘉義市,工商活動,74,飯店,國堡大飯店,23.47818100573068,120.44141200004111
I,嘉義市,工商活動,74,飯店,國園大飯店,23.47757999745089,120.44240300008272
I,嘉義市,工商活動,74,飯店,國園大飯店,23.47757999745089,120.44240300008272
I,嘉義市,工商活動,74,飯店,常春藤汽車旅館,23.487971992810277,120.42717500010573
I,嘉義市,工商活動,74,飯店,常春藤汽車旅館,23.487971992810277,120.42717500010573
I,嘉義市,工商活動,74,飯店,嘉義統一大飯店,23.478563997534643,120.44237000007732
I,嘉義市,工商活動,74,飯店,嘉義統一大飯店,23.478563997534643,120.44237000007732
I,嘉義市,工商活動,74,飯店,晶華旅社,23.4854279959981,120.43263900008462
I,嘉義市,工商活動,74,飯店,晶華旅社,23.4854279959981,120.43263900008462
I,嘉義市,工商活動,74,飯店,華宮旅社,23.482596002642108,120.44634700005335
I,嘉義市,工商活動,74,飯店,華宮旅社,23.482596002642108,120.44634700005335
I,嘉義市,工商活動,74,飯店,湳嘉精緻大飯店,23.468192991929644,120.44364700010553
I,嘉義市,工商活動,74,飯店,新高大旅社,23.47915100860073,120.4425340000366
I,嘉義市,工商活動,74,飯店,新高大旅社,23.47915100860073,120.4425340000366
I,嘉義市,工商活動,74,飯店,萬泰大飯店,23.47366899991775,120.44480800006343
I,嘉義市,工商活動,74,飯店,萬泰大飯店,23.47366899991775,120.44480800006343
I,嘉義市,工商活動,74,飯店,義興旅館,23.47854500069845,120.44216400006472
I,嘉義市,工商活動,74,飯店,義興旅館,23.47854500069845,120.44216400006472
I,嘉義市,工商活動,74,飯店,聖荷西商務休閒大飯店,23.482288994706177,120.43626500008773
I,嘉義市,工商活動,74,飯店,聖荷西商務休閒大飯店,23.482288994706177,120.43626500008773
I,嘉義市,工商活動,74,飯店,鼎川大飯店,23.48284000575597,120.43364900004295
I,嘉義市,工商活動,74,飯店,鼎川大飯店,23.48284000575597,120.43364900004295
I,嘉義市,工商活動,74,飯店,嘉冠大飯店,23.478241997868185,120.44328200007722
I,嘉義市,工商活動,74,飯店,嘉宮大旅社,23.475158003745836,120.44450800004792
I,嘉義市,工商活動,74,飯店,嘉宮大旅社,23.475158003745836,120.44450800004792
I,嘉義市,工商活動,74,飯店,嘉新大飯店,23.4784649957919,120.44242900008409
I,嘉義市,工商活動,74,飯店,嘉新大飯店,23.4784649957919,120.44242900008409
I,嘉義市,工商活動,74,飯店,榮宮大飯店,23.475912004852265,120.44330100004953
I,嘉義市,工商活動,74,飯店,榮宮大飯店,23.475912004852265,120.44330100004953
I,嘉義市,工商活動,74,飯店,銀河璇宮旅社,23.48325300916106,120.4330200000288
I,嘉義市,工商活動,74,飯店,銀河璇宮旅社,23.48325300916106,120.4330200000288
I,嘉義市,工商活動,74,飯店,歐悅精品汽車旅館-嘉義館,23.483041007513876,120.42708900003812
I,嘉義市,工商活動,74,飯店,歐悅精品汽車旅館-嘉義館,23.483041007513876,120.42708900003812
I,嘉義市,工商活動,74,飯店,諸羅山大飯店,23.467555002092585,120.43696400006343
I,嘉義市,工商活動,74,飯店,諸羅山大飯店,23.467555002092585,120.43696400006343
I,嘉義市,工商活動,76,工廠,嘉義市欣嘉石油氣股份有限公司,23.472659446159607,120.45793036976387
I,嘉義市,工商活動,76,工廠,嘉義市後湖工業區,23.504839043675688,120.44936544287121
I,嘉義市,工商活動,77,商店,嘉義市全家嘉義國楊店,23.473982483888342,120.44896007341822
I,嘉義市,工商活動,77,商店,嘉義市7-11八大門市,23.488833504579464,120.43049961405214
I,嘉義市,工商活動,77,商店,嘉義市7-11嘉永門市,23.470445936142237,120.44730771542244
I,嘉義市,工商活動,77,商店,嘉義市7-11嘉站門市,23.47928501455485,120.44190036282627
I,嘉義市,工商活動,77,商店,嘉義市7-11新嘉醫門市,23.480843716814125,120.42848006429831
I,嘉義市,工商活動,77,商店,嘉義市7-11新嘉家門市,23.47432035059867,120.45775912615086
I,嘉義市,工商活動,77,商店,嘉義市7-11嘉工門市,23.473598662850247,120.46318328797412
I,嘉義市,工商活動,77,商店,嘉義市7-11嘉洋門市,23.457700243674534,120.44350531737354
I,嘉義市,工商活動,77,商店,嘉義市全家嘉義興雅店,23.483085381989873,120.43404960174395
I,嘉義市,工商活動,77,商店,嘉義市全家嘉義自強店,23.464988778191863,120.42154961783945
I,嘉義市,工商活動,77,商店,嘉義市萊爾富嘉義啟園店,23.484045161830817,120.46308603201415
I,嘉義市,工商活動,77,商店,嘉義市7-11新嘉友門市,23.482146400015694,120.43408591474191
I,嘉義市,工商活動,77,商店,嘉義市7-11博元門市,23.471405787190754,120.43048339959668
I,嘉義市,工商活動,77,商店,嘉義市全家嘉義世賢店,23.46263900495048,120.448419872477
I,嘉義市,工商活動,77,商店,嘉義市全家嘉義湖瑞店,23.455759393942092,120.44366809803601
I,嘉義市,工商活動,77,商店,嘉義市7-11忠義門市,23.47982834172766,120.44739980831795
I,嘉義市,工商活動,77,商店,嘉義市全家嘉義新東義店,23.49092500328932,120.46784974946512
I,嘉義市,工商活動,77,商店,嘉義市7-11香湖門市,23.496545521009917,120.44312988027593
I,嘉義市,工商活動,77,商店,嘉義市7-11東嘉院門市,23.499995458972126,120.45091395479825
I,嘉義市,工商活動,77,商店,嘉義市7-11資砡門市,23.47056667690701,120.4184300730735
I,嘉義市,工商活動,77,商店,嘉義市7-11嘉安門市,23.473587931490744,120.44465059248381
I,嘉義市,工商活動,77,商店,嘉義市7-11新大業門市,23.463431238733726,120.4554475570627
I,嘉義市,工商活動,77,商店,嘉義市萊爾富嘉義國運店,23.479792988946976,120.44002254752229
I,嘉義市,工商活動,77,商店,嘉義市全家嘉義噴水店,23.479037517467916,120.45103598811075
I,嘉義市,工商活動,77,商店,嘉義市7-11新瑞鴻門市,23.476125472638948,120.44978032553163
I,嘉義市,工商活動,77,商店,嘉義市萊爾富嘉義新生店,23.495657894212183,120.45513998428305
I,嘉義市,工商活動,77,商店,嘉義市萊爾富嘉市吳鳳店,23.455191731918756,120.4594297299224
I,嘉義市,工商活動,77,商店,嘉義市全家嘉義玉山店,23.47110127659781,120.4213546067522
I,嘉義市,工商活動,77,商店,嘉義市7-11蘭潭門市,23.477199264983064,120.46776973079831
I,嘉義市,工商活動,77,商店,嘉義市7-11嘉府門市,23.483259600685315,120.45506660369202
I,嘉義市,工商活動,77,商店,嘉義市7-11嘉園門市,23.484349490859348,120.46470616436814
I,嘉義市,工商活動,77,商店,嘉義市7-11嘉義站門市,23.479083864062865,120.44120517574396
I,嘉義市,工商活動,77,商店,嘉義市7-11嘉雅門市,23.4773178396794,120.47343731852976
I,嘉義市,工商活動,77,商店,嘉義市全家嘉義光路店,23.45930719905683,120.44340168065615
I,嘉義市,工商活動,77,商店,嘉義市7-11嘉上門市,23.466039144875936,120.43216949978915
I,嘉義市,工商活動,77,商店,嘉義市全家嘉義日新店,23.47433543089779,120.46473678571111
I,嘉義市,工商活動,77,商店,嘉義市7-11嘉坪門市,23.47604672487185,120.42300014813871
I,嘉義市,工商活動,77,商店,嘉義市7-11軍暉門市,23.456001200426215,120.46373013896986
I,嘉義市,工商活動,77,商店,嘉義市7-11嘉英門市,23.516338712466663,120.44305842117734
I,嘉義市,工商活動,77,商店,嘉義市7-11嘉高門市,23.492419080377243,120.39708310701079
I,嘉義市,工商活動,77,商店,嘉義市7-11勇高門市,23.491575606123888,120.39846346920812
I,嘉義市,工商活動,77,商店,嘉義市7-11嘉榮門市,23.465011614359145,120.42283963453015
I,嘉義市,工商活動,77,商店,嘉義市全家嘉義北興店,23.484005816034585,120.44139002551366
I,嘉義市,工商活動,77,商店,嘉義市7-11垂楊門市,23.47292036086822,120.44230009975846
I,嘉義市,工商活動,77,商店,嘉義市全家嘉義興達店,23.486562506579872,120.43671233909959
I,嘉義市,工商活動,77,商店,嘉義市全家嘉義東雅店,23.483544633217548,120.4858104905127
I,嘉義市,工商活動,77,商店,嘉義市7-11嘉北門市,23.486428106642002,120.43700563211932
I,嘉義市,工商活動,77,商店,嘉義市7-11元福門市,23.488734549645248,120.46369475285151
I,嘉義市,工商活動,77,商店,嘉義市7-11台林門市,23.4955394569367,120.45483989575614
I,嘉義市,工商活動,77,商店,嘉義市7-11彌陀門市,23.468865785630676,120.4654646191887
I,嘉義市,工商活動,77,商店,嘉義市萊爾富嘉義站前店,23.478770520973523,120.44196028541965
I,嘉義市,工商活動,77,商店,嘉義市7-11新嘉商門市,23.48396535873058,120.46067036693319
I,嘉義市,工商活動,77,商店,嘉義市全家嘉義忠孝店,23.51620872614817,120.44206113829448
I,嘉義市,工商活動,77,商店,嘉義市7-11圓環門市,23.48045841650643,120.44938447387577
I,嘉義市,工商活動,77,商店,嘉義市全家嘉義宣信店,23.468379947775734,120.46073372322309
I,嘉義市,工商活動,77,商店,嘉義市全家嘉義南京店,23.465637391476545,120.43592412890312
I,嘉義市,工商活動,77,商店,嘉義市7-11旭豐門市,23.455564692870897,120.4576135566256
I,嘉義市,工商活動,77,商店,嘉義市7-11新港坪門市,23.471867706721174,120.42594032246865
I,嘉義市,工商活動,77,商店,嘉義市7-11保愛門市,23.491698916069637,120.43877685614206
I,嘉義市,工商活動,77,商店,嘉義市全家嘉義芳草店,23.46611716593625,120.467072205044
I,嘉義市,工商活動,77,商店,嘉義市萊爾富嘉義義昌店,23.47564665007604,120.4446184808542
I,嘉義市,工商活動,77,商店,嘉義市全家嘉義憶富店,23.482133084112885,120.44799814823043
I,嘉義市,工商活動,77,商店,嘉義市7-11新嘉院門市,23.49940547337748,120.45004989500791
I,嘉義市,工商活動,77,商店,嘉義市全家嘉義上新店,23.470504168427322,120.43833206004089
I,嘉義市,工商活動,77,商店,嘉義市全家嘉義保健店,23.50043131960958,120.45160242037893
I,嘉義市,工商活動,77,商店,嘉義市7-11光彩門市,23.478398235726313,120.44645031525172
I,嘉義市,工商活動,77,商店,嘉義市7-11湖子內門市,23.456525600700356,120.4407696460653
I,嘉義市,工商活動,77,商店,嘉義市全家嘉義蘭潭店,23.474293717260892,120.4737057977863
I,嘉義市,工商活動,77,商店,嘉義市7-11精城門市,23.49225675548181,120.47713853137365
I,嘉義市,工商活動,77,商店,嘉義市7-11新車店門市,23.465638375364453,120.43619624505149
I,嘉義市,工商活動,77,商店,嘉義市7-11嘉和門市,23.481682131446625,120.45586017763274
I,嘉義市,工商活動,77,商店,嘉義市7-11嘉達門市,23.485040952987482,120.42803024082151
I,嘉義市,工商活動,77,商店,嘉義市全家嘉義德慶店,23.481985420160033,120.43202978485901
I,嘉義市,工商活動,77,商店,嘉義市7-11嘉西門市,23.485360127288892,120.41911022710406
I,嘉義市,工商活動,77,商店,嘉義市7-11嘉賓門市,23.47255229189078,120.43787015937053
I,嘉義市,工商活動,77,商店,嘉義市7-11嘉文門市,23.48263519437293,120.48385899159845
I,嘉義市,工商活動,77,商店,嘉義市7-11嘉華門市,23.477388704786538,120.44188974124368
I,嘉義市,工商活動,77,商店,嘉義市7-11新嘉勝門市,23.484034441154265,120.4418196800088
I,嘉義市,工商活動,77,商店,嘉義市OK超商嘉大學苑門市,23.467597106536438,120.48287988963409
I,嘉義市,工商活動,77,商店,嘉義市全家嘉義億高店,23.47014944235948,120.44265043940199
I,嘉義市,工商活動,77,商店,嘉義市7-11新嘉基門市,23.500202534248793,120.45073979482193
I,嘉義市,工商活動,77,商店,嘉義市7-11嘉億門市,23.485502522856496,120.43326098393023
I,嘉義市,工商活動,77,商店,嘉義市7-11秋園門市,23.46815285768371,120.43986023733989
I,嘉義市,工商活動,77,商店,嘉義市OK超商嘉大蘭潭門市,23.46384268537043,120.48349552558736
I,嘉義市,工商活動,77,商店,嘉義市7-11世賢門市,23.46380085110924,120.44502435080183
I,嘉義市,工商活動,77,商店,嘉義市7-11立宣門市,23.464867937340387,120.4635367285132
I,嘉義市,工商活動,77,商店,嘉義市7-11嘉德門市,23.483687296905426,120.43072044928525
I,嘉義市,工商活動,77,商店,嘉義市全家嘉義博東店,23.490698087532326,120.45963848801095
I,嘉義市,工商活動,77,商店,嘉義市7-11嘉國門市,23.476962120237562,120.45920988038333
I,嘉義市,工商活動,77,商店,嘉義市萊爾富嘉義嘉義店,23.479083864062865,120.44120517574396
I,嘉義市,工商活動,77,商店,嘉義市全家嘉義台林店,23.49838558860541,120.45532948454263
I,嘉義市,工商活動,77,商店,嘉義市全家嘉義北園店,23.491823966207026,120.42846014961302
I,嘉義市,工商活動,77,商店,嘉義市全家嘉義向榮店,23.488619883845104,120.44639394215473
I,嘉義市,工商活動,77,商店,嘉義市萊爾富嘉義嘉業店,23.468128294375038,120.44308571468073
I,嘉義市,工商活動,77,商店,嘉義市萊爾富嘉義體育店,23.473701285842093,120.46151970033571
I,嘉義市,工商活動,77,商店,嘉義市萊爾富嘉義嘉文店,23.477994480729198,120.44972950007784
