縣市代號,縣市,大類別,小類別代號,小類別名稱,地標名稱,緯度,經度
J,新竹縣,交通運輸,11,火車站,新竹縣臺鐵新豐車站,24.86980141449867,120.99688116629987
J,新竹縣,交通運輸,11,火車站,新竹縣臺鐵內灣車站,24.70544602531585,121.18249444021617
J,新竹縣,交通運輸,11,火車站,新竹縣臺鐵橫山車站,24.72040827365124,121.11767996346775
J,新竹縣,交通運輸,11,火車站,新竹縣臺鐵上員車站,24.777891144085377,121.05581023985148
J,新竹縣,交通運輸,11,火車站,新竹縣臺鐵竹中車站,24.781368581051378,121.03295892732832
J,新竹縣,交通運輸,11,火車站,新竹縣臺鐵九讚頭車站,24.720416691247376,121.1360141727149
J,新竹縣,交通運輸,11,火車站,新竹縣臺鐵榮華車站,24.748377546843106,121.08318663010898
J,新竹縣,交通運輸,11,火車站,富貴火車站,24.715560010764708,121.16733499998396
J,新竹縣,交通運輸,11,火車站,新竹縣臺鐵湖口車站,24.90293819893204,121.04411075284037
J,新竹縣,交通運輸,11,火車站,新竹縣臺鐵合興車站,24.7166024767021,121.1545034902657
J,新竹縣,交通運輸,11,火車站,新竹縣臺鐵竹東車站,24.738343701367498,121.09476508096581
J,新竹縣,交通運輸,11,火車站,新豐火車站,24.869804999443275,120.9968099999918
J,新竹縣,交通運輸,11,火車站,湖口火車站,24.902875997945088,121.04405699998554
J,新竹縣,交通運輸,11,火車站,竹北火車站,24.839131000964308,121.00943899999253
J,新竹縣,交通運輸,11,火車站,竹北火車站,24.839131000964308,121.00943899999253
J,新竹縣,交通運輸,11,火車站,竹中火車站,24.78137000626526,121.03262399998921
J,新竹縣,交通運輸,11,火車站,竹東火車站,24.738193006209894,121.09473699998578
J,新竹縣,交通運輸,11,火車站,上員火車站,24.777953002434053,121.05553999998313
J,新竹縣,交通運輸,11,火車站,榮華火車站,24.748001003086877,121.08302399998914
J,新竹縣,交通運輸,11,火車站,九讚頭火車站,24.720603998590846,121.13623099996866
J,新竹縣,交通運輸,11,火車站,內灣火車站,24.705324007821297,121.18252999998307
J,新竹縣,交通運輸,11,火車站,合興火車站,24.71691200706836,121.15478799998242
J,新竹縣,交通運輸,11,火車站,富貴火車站,24.715560010764708,121.16733499998396
J,新竹縣,交通運輸,11,火車站,橫山火車站,24.72060100322911,121.11650899997922
J,新竹縣,交通運輸,12,客運站,新竹客運-湖口站,24.901234998727404,121.04345599998997
J,新竹縣,交通運輸,12,客運站,新竹客運-新埔站,24.827521007108476,121.08038399999032
J,新竹縣,交通運輸,12,客運站,新竹客運-關西站,24.791565008006188,121.17683899998296
J,新竹縣,交通運輸,12,客運站,統聯客運-芎林站(代售處),24.77042800591421,121.07705999999186
J,新竹縣,交通運輸,12,客運站,國光客運-竹東車站,24.72782699826097,121.09278299998199
J,新竹縣,交通運輸,12,客運站,新竹客運-下公館站,24.722399003240806,121.09616899998609
J,新竹縣,交通運輸,12,客運站,新竹客運-竹東總站,24.73973099736033,121.08572199997924
J,新竹縣,交通運輸,15,高鐵站,新竹縣台灣高鐵新竹車站,24.808154335099353,121.04010315079442
J,新竹縣,交通運輸,15,高鐵站,高鐵新竹站-出口1,24.807958994280614,121.03978599998734
J,新竹縣,交通運輸,15,高鐵站,高鐵新竹站-出口3,24.808450997274363,121.04058099998387
J,新竹縣,交通運輸,15,高鐵站,高鐵新竹站-出口4,24.807936009173805,121.040428999991
J,新竹縣,交通運輸,15,高鐵站,高鐵新竹站-出口2,24.808537997025464,121.03995499999239
J,新竹縣,交通運輸,17,碼頭,新竹縣坡頭漁港,24.926816555761302,120.97345379386122
J,新竹縣,交通運輸,17,碼頭,蚵殼漁港,24.937927995630105,120.98713499999525
J,新竹縣,交通運輸,17,碼頭,鳳港漁港,24.904400996406476,120.96613300000286
J,新竹縣,交通運輸,18,主要道路建設,新竹縣湖口交流道,24.875830216145687,121.0295485683111
J,新竹縣,交通運輸,18,主要道路建設,新竹縣新竹交流道,24.77471337657047,121.00399485686921
J,新竹縣,交通運輸,18,主要道路建設,新竹縣寶山交流道,24.75718836524755,121.00597557990854
J,新竹縣,交通運輸,18,主要道路建設,新竹縣竹北交流道,24.82381028613849,121.0173190838556
J,新竹縣,交通運輸,18,主要道路建設,新竹縣新竹系統交流道,24.75742378809529,120.98769749323056
J,新竹縣,交通運輸,18,主要道路建設,新竹縣芎林交流道,24.77573799194939,121.05930440517004
J,新竹縣,交通運輸,18,主要道路建設,新竹縣竹東端,24.723415013306386,121.1020844179696
J,新竹縣,交通運輸,18,主要道路建設,新竹縣關西交流道,24.80119340158209,121.17210436424095
J,新竹縣,交通運輸,18,主要道路建設,新竹縣竹林交流道,24.76642455606576,121.08098841446524
J,新竹縣,交通運輸,18,主要道路建設,新竹縣竹東交流道,24.747415831914697,121.08523666071736
J,新竹縣,交通運輸,18,主要道路建設,國1-湖口交流道-北上,24.87584400238917,121.0311989999882
J,新竹縣,交通運輸,18,主要道路建設,湖口服務區,24.859393996018635,121.0103059999917
J,新竹縣,交通運輸,18,主要道路建設,國1-湖口交流道-南下,24.875655009099958,121.02717499998967
J,新竹縣,交通運輸,18,主要道路建設,國1-竹北交流道-南下,24.822768003610406,121.01607599998863
J,新竹縣,交通運輸,18,主要道路建設,國1-竹北交流道-北上,24.824884997538557,121.01854999999593
J,新竹縣,交通運輸,18,主要道路建設,國3-關西交流道-南下,24.79934500613471,121.17433999997985
J,新竹縣,交通運輸,18,主要道路建設,關西服務區,24.80352001145913,121.19655799997949
J,新竹縣,交通運輸,18,主要道路建設,國3-關西交流道-北上,24.80093100217672,121.17357399996656
J,新竹縣,交通運輸,18,主要道路建設,國3-竹林交流道-北上,24.767581003972886,121.08256499998393
J,新竹縣,交通運輸,18,主要道路建設,國3-新竹系統交流道-東行,24.7562949936733,120.98994500000053
J,新竹縣,交通運輸,18,主要道路建設,國3-寶山交流道-北上,24.7562080100468,121.00974099999223
J,新竹縣,交通運輸,18,主要道路建設,寶山休息站,24.75555300036091,121.02549099998718
J,新竹縣,交通運輸,18,主要道路建設,國3-新竹系統交流道-南下,24.754652001137924,120.9844399999936
J,新竹縣,交通運輸,18,主要道路建設,國3-新竹系統交流道-西行,24.75843700598554,120.98525500000135
J,新竹縣,交通運輸,18,主要道路建設,國3-新竹系統交流道-北上,24.759441999478415,120.99168199999572
J,新竹縣,交通運輸,18,主要道路建設,國3-寶山交流道-南下,24.7573760059279,121.00320499999863
J,新竹縣,交通運輸,18,主要道路建設,國1-新竹交流道-南下,24.77487100407181,121.00323199999859
J,新竹縣,交通運輸,18,主要道路建設,台68-竹東交流道-西行,24.746770001031035,121.08629499998646
J,新竹縣,交通運輸,18,主要道路建設,台68-芎林交流道-西行,24.777172001833506,121.05910999998966
J,新竹縣,交通運輸,18,主要道路建設,國3-竹林交流道-南下,24.76532499377234,121.0792619999754
J,新竹縣,交通運輸,18,主要道路建設,台68-芎林交流道-東行,24.774297007232448,121.06048099998442
J,新竹縣,交通運輸,18,主要道路建設,台68-竹東交流道-西行,24.75518599698992,121.07618599998092
J,新竹縣,交通運輸,18,主要道路建設,台68-竹東端-西行,24.723184994335572,121.10207799997015
J,新竹縣,交通運輸,18,主要道路建設,台68-竹東端-西行,24.723278002502276,121.10216899998552
J,新竹縣,公共建設,21,國小,新竹縣橫山鄉沙坑國民小學,24.73945229403358,121.16124782878109
J,新竹縣,公共建設,21,國小,新竹縣關西鎮關西國民小學,24.79261624960333,121.17416875073597
J,新竹縣,公共建設,21,國小,新竹縣新豐鄉福龍國民小學,24.930414033413275,121.03597296010702
J,新竹縣,公共建設,21,國小,新竹縣五峰鄉五峰國民小學附設幼稚園,24.630975556627053,121.11849211174676
J,新竹縣,公共建設,21,國小,新竹縣北埔鄉大坪國民小學,24.675195772712193,121.05919268913382
J,新竹縣,公共建設,21,國小,新竹縣新埔鎮新埔國民小學,24.82861465688317,121.07944916849439
J,新竹縣,公共建設,21,國小,新竹縣寶山鄉新城國民小學附設幼稚園,24.733694462083076,120.96740797965126
J,新竹縣,公共建設,21,國小,新竹縣竹北市豐田國民小學,24.842149283633788,120.96431056982182
J,新竹縣,公共建設,21,國小,新竹縣尖石鄉石磊國民小學,24.65545752610544,121.32638617783886
J,新竹縣,公共建設,21,國小,新竹縣竹東鎮中山國民小學,24.733620504389155,121.09442174161946
J,新竹縣,公共建設,21,國小,新竹縣竹北市十興國民小學,24.823904180889034,121.0249063868254
J,新竹縣,公共建設,21,國小,新竹縣橫山鄉橫山國民小學,24.718454215122616,121.11502784609833
J,新竹縣,公共建設,21,國小,新竹縣芎林鄉芎林國民小學,24.774406780547345,121.0833536054265
J,新竹縣,公共建設,21,國小,新竹縣寶山鄉雙溪國民小學,24.766175629663515,120.9899693254674
J,新竹縣,公共建設,21,國小,新竹縣湖口鄉信勢國民小學,24.899570225364823,121.03878689846707
J,新竹縣,公共建設,21,國小,新竹縣北埔鄉北埔國民小學,24.700630501853535,121.05393599387183
J,新竹縣,公共建設,21,國小,新竹縣新豐鄉新豐國民小學,24.90085021533947,120.98818261763435
J,新竹縣,公共建設,21,國小,新竹縣寶山鄉寶山國民小學山湖分校,24.745275892913646,121.03938181694032
J,新竹縣,公共建設,21,國小,新竹縣橫山鄉大肚國民小學附設幼稚園,24.719420747526605,121.14041011387133
J,新竹縣,公共建設,21,國小,新竹縣關西鎮石光國民小學,24.81363623704637,121.1292947522029
J,新竹縣,公共建設,21,國小,新竹縣新埔鎮寶石國民小學,24.816639575449646,121.07871955540617
J,新竹縣,公共建設,21,國小,新竹縣新豐鄉瑞興國民小學,24.91134204673274,121.009705500497
J,新竹縣,公共建設,21,國小,新竹縣竹北市中正國民小學,24.836532949255723,121.01999299773746
J,新竹縣,公共建設,21,國小,新竹縣竹北市新社國民小學,24.843654666415148,120.99859219622617
J,新竹縣,公共建設,21,國小,新竹縣新埔鎮坊寮國民小學,24.837697350000944,121.05177448440165
J,新竹縣,公共建設,21,國小,新竹縣竹東鎮陸豐國民小學,24.766034966946233,121.07731651480422
J,新竹縣,公共建設,21,國小,新竹縣五峰鄉五峰國民小學,24.63104709894111,121.11757397018579
J,新竹縣,公共建設,21,國小,新竹縣竹北市鳳岡國民小學,24.8615592247823,120.96409791072789
J,新竹縣,公共建設,21,國小,新竹縣新埔鎮照門國民小學,24.847379871951,121.11759177518836
J,新竹縣,公共建設,21,國小,新竹縣立關西鎮玉山國民小學,24.75769806572438,121.20857540536333
J,新竹縣,公共建設,21,國小,新竹縣尖石鄉玉峰國民小學,24.660130713826543,121.30134159343334
J,新竹縣,公共建設,21,國小,新竹縣尖石鄉錦屏國民小學,24.68027540756547,121.24677593912786
J,新竹縣,公共建設,21,國小,新竹縣湖口鄉和興國民小學,24.927258271236436,121.03924888691024
J,新竹縣,公共建設,21,國小,新竹縣竹東鎮上智國民小學附設幼稚園,24.741206335211785,121.0847949894556
J,新竹縣,公共建設,21,國小,新竹縣關西鎮東安國民小學,24.79049981842142,121.18407720928315
J,新竹縣,公共建設,21,國小,新竹縣湖口鄉華興國民小學,24.87455753862769,121.02011436007835
J,新竹縣,公共建設,21,國小,新竹縣新豐鄉埔和國民小學,24.92091833671645,120.98184768169995
J,新竹縣,公共建設,21,國小,新竹縣五峰鄉桃山國民小學,24.575326528223965,121.10541845958073
J,新竹縣,公共建設,21,國小,新竹縣芎林鄉五龍國民小學,24.737144686629154,121.12353677265396
J,新竹縣,公共建設,21,國小,新竹縣五峰鄉花園國民小學竹林分校,24.625133827896907,121.14822134108134
J,新竹縣,公共建設,21,國小,新竹縣竹北市新港國民小學,24.850655332515384,120.95472448768842
J,新竹縣,公共建設,21,國小,新竹縣新豐鄉松林國民小學,24.86976791536384,120.99079781709715
J,新竹縣,公共建設,21,國小,新竹縣尖石鄉尖石國民小學,24.72876897332945,121.2262474239737
J,新竹縣,公共建設,21,國小,新竹縣寶山鄉寶山國民小學,24.74038935334591,121.02189337395428
J,新竹縣,公共建設,21,國小,新竹縣峨眉鄉峨眉國民小學,24.688956073848356,121.02010521911282
J,新竹縣,公共建設,21,國小,新竹縣湖口鄉新湖國民小學,24.905882816018504,121.0474934854994
J,新竹縣,公共建設,21,國小,新竹縣竹東鎮竹中國民小學,24.780468914420176,121.02989568311871
J,新竹縣,公共建設,21,國小,新竹縣寶山鄉寶山國民小學附設幼稚園,24.740181880120645,121.02186809818939
J,新竹縣,公共建設,21,國小,新竹縣新埔鎮新星國民小學,24.82958586022613,121.07400056626523
J,新竹縣,公共建設,21,國小,新竹縣竹北市六家國民小學,24.813804239626286,121.02589632955272
J,新竹縣,公共建設,21,國小,新竹縣關西鎮錦山國民小學,24.768584235534725,121.22513525794984
J,新竹縣,公共建設,21,國小,新竹縣尖石鄉秀巒國民小學田埔分校,24.641484460160324,121.27862344660727
J,新竹縣,公共建設,21,國小,新竹縣寶山鄉三峰國民小學,24.72128571010193,120.99689478263096
J,新竹縣,公共建設,21,國小,新竹縣竹東鎮瑞峰國民小學,24.661915919299467,121.12194461187215
J,新竹縣,公共建設,21,國小,新竹縣尖石鄉嘉興國民小學義興分校,24.689366420833306,121.17772606767468
J,新竹縣,公共建設,21,國小,新竹縣尖石鄉新光國民小學,24.579926356374465,121.3031481952517
J,新竹縣,公共建設,21,國小,新竹縣寶山鄉碧潭國民小學,24.74691982675928,121.10279314505237
J,新竹縣,公共建設,21,國小,新竹縣湖口鄉湖口國民小學,24.878391925280518,121.061010757064
J,新竹縣,公共建設,21,國小,新竹縣竹東鎮中山國民小學附設幼稚園,24.734018086619535,121.09490209095536
J,新竹縣,公共建設,21,國小,新竹縣尖石鄉新樂國民小學,24.731699577613078,121.250506297773
J,新竹縣,公共建設,21,國小,新竹縣關西鎮坪林國民小學,24.801090358546787,121.14040430969557
J,新竹縣,公共建設,21,國小,新竹縣竹北市東海國民小學,24.806002055747385,121.05057232628748
J,新竹縣,公共建設,21,國小,新竹縣竹東鎮大同國民小學,24.74076737763077,121.08904362378382
J,新竹縣,公共建設,21,國小,新竹縣寶山鄉碧潭國民小學補校,24.7463747998286,121.10376330057002
J,新竹縣,公共建設,21,國小,新竹縣橫山鄉內灣國民小學,24.704889577527894,121.18367876359186
J,新竹縣,公共建設,21,國小,新竹縣關西鎮南和國民小學,24.80917456600171,121.12058599663601
J,新竹縣,公共建設,21,國小,新竹縣新豐鄉福興國民小學,24.933262088836848,121.00918597990594
J,新竹縣,公共建設,21,國小,新竹縣竹東鎮二重國民小學,24.767806228926837,121.05729358529553
J,新竹縣,公共建設,21,國小,新竹縣竹東鎮竹東國民小學,24.734930097840422,121.08777104449885
J,新竹縣,公共建設,21,國小,新竹縣尖石鄉梅花國民小學,24.677991627602932,121.20852487004262
J,新竹縣,公共建設,21,國小,新竹縣北埔鄉北埔國民小學附設幼稚園,24.700792788670373,121.05330713460181
J,新竹縣,公共建設,21,國小,新竹縣新埔鎮北平國民小學,24.852506025530307,121.08646024956583
J,新竹縣,公共建設,21,國小,新竹縣尖石鄉新樂國民小學附設幼稚園,24.731880819736087,121.25064196318283
J,新竹縣,公共建設,21,國小,新竹縣竹東鎮上館國民小學,24.7257578797908,121.08769172642128
J,新竹縣,公共建設,21,國小,新竹縣五峰鄉花園國民小學,24.648340954881384,121.15138879874632
J,新竹縣,公共建設,21,國小,新竹縣竹北市竹仁國民小學,24.83662908535312,121.01276312425115
J,新竹縣,公共建設,21,國小,新竹縣五峰鄉花園國民小學附設幼稚園,24.648320816278034,121.15152469851792
J,新竹縣,公共建設,21,國小,新竹縣新埔鎮清水國民小學,24.86708027225386,121.13610777364308
J,新竹縣,公共建設,21,國小,新竹縣橫山鄉田寮國民小學,24.705432398138623,121.10550077762029
J,新竹縣,公共建設,21,國小,新竹縣新埔鎮文山國民小學,24.82544673217243,121.04760435280656
J,新竹縣,公共建設,21,國小,新竹縣橫山鄉大肚國民小學,24.719138452159406,121.14002033776903
J,新竹縣,公共建設,21,國小,新竹縣橫山鄉田寮國民小學附設幼稚園,24.705697268136785,121.10556766464715
J,新竹縣,公共建設,21,國小,新竹縣竹北市竹北國民小學,24.838243011502005,121.00231770011503
J,新竹縣,公共建設,21,國小,新竹縣竹東鎮大同國民小學附設幼稚園,24.740592714141457,121.08920982502482
J,新竹縣,公共建設,21,國小,新竹縣竹東鎮員崠國民小學附設幼稚園,24.713647239448413,121.09866433785729
J,新竹縣,公共建設,21,國小,新竹縣峨眉鄉峨眉國民小學附設幼稚園,24.68920933477757,121.0200587542861
J,新竹縣,公共建設,21,國小,新竹縣竹北市博愛國民小學,24.831310709011838,121.00583655833971
J,新竹縣,公共建設,21,國小,新竹縣尖石鄉秀巒國民小學,24.618103373385157,121.28591968963032
J,新竹縣,公共建設,21,國小,新竹縣新埔鎮照東國民小學,24.84512786510191,121.14168900937493
J,新竹縣,公共建設,21,國小,新竹縣關西鎮東光國民小學,24.77699143007117,121.1759670847743
J,新竹縣,公共建設,21,國小,新竹縣關西鎮太平國民小學,24.826564293781704,121.11961753398504
J,新竹縣,公共建設,21,國小,新竹縣湖口鄉中興國民小學,24.86660976704426,121.02835650446917
J,新竹縣,公共建設,21,國小,新竹縣竹東鎮上智國民小學,24.74129056483955,121.08491776482813
J,新竹縣,公共建設,21,國小,新竹縣竹北市光明國民小學,24.824061094978624,121.0102763899364
J,新竹縣,公共建設,21,國小,新竹縣新豐鄉山崎國民小學,24.87212747768458,120.99773228976191
J,新竹縣,公共建設,21,國小,新竹縣竹東鎮員崠國民小學,24.713807039717075,121.09838582131115
J,新竹縣,公共建設,21,國小,新竹縣竹東鎮竹東國民小學補校,24.73466735866619,121.08814897992397
J,新竹縣,公共建設,21,國小,新竹縣寶山鄉新城國民小學,24.733766871655916,120.96748155966449
J,新竹縣,公共建設,21,國小,新竹縣竹北市麻園國民小學,24.846635123533712,120.97708872973222
J,新竹縣,公共建設,21,國小,縣立新豐國小,24.900617997151574,120.9881799999977
J,新竹縣,公共建設,21,國小,縣立新豐國中,24.90214501042236,120.99094299999692
J,新竹縣,公共建設,21,國小,縣立忠孝國中,24.87931700615247,120.99926799999587
J,新竹縣,公共建設,21,國小,縣立精華國中,24.926168000937462,121.01871199998921
J,新竹縣,公共建設,21,國小,縣立山崎國小,24.87235900088087,120.99847499999223
J,新竹縣,公共建設,21,國小,縣立福興國小,24.932940007315654,121.00940599999366
J,新竹縣,公共建設,21,國小,縣立福龍國小,24.930137005956787,121.03585199998838
J,新竹縣,公共建設,21,國小,縣立埔和國小,24.920841003533685,120.98199000000142
J,新竹縣,公共建設,21,國小,縣立瑞興國小,24.911543011174466,121.00984999999537
J,新竹縣,公共建設,21,國小,縣立松林國小,24.868982010441126,120.99076199999567
J,新竹縣,公共建設,21,國小,縣立中正國中,24.87362199923953,121.01799199998779
J,新竹縣,公共建設,21,國小,縣立華興國小,24.874344002854617,121.02007999998838
J,新竹縣,公共建設,21,國小,縣立中興國小,24.866398010672192,121.02836199999635
J,新竹縣,公共建設,21,國小,縣立和興國小,24.927156994968783,121.0389109999843
J,新竹縣,公共建設,21,國小,縣立新湖國中,24.90343699931233,121.03587499998932
J,新竹縣,公共建設,21,國小,縣立新湖國小,24.905805009997607,121.047603999993
J,新竹縣,公共建設,21,國小,縣立信勢國小,24.899128995412706,121.03878799998655
J,新竹縣,公共建設,21,國小,縣立長安國小,24.887135994027577,121.09528599997634
J,新竹縣,公共建設,21,國小,縣立長安國小,24.887135994027577,121.09528599997634
J,新竹縣,公共建設,21,國小,縣立湖口國小,24.87830600750531,121.06062899998862
J,新竹縣,公共建設,21,國小,縣立新埔國中,24.82797599925714,121.07097299998682
J,新竹縣,公共建設,21,國小,縣立新星國小,24.82972599523612,121.07407099998454
J,新竹縣,公共建設,21,國小,縣立照門國中,24.848912000741215,121.11149499998265
J,新竹縣,公共建設,21,國小,縣立新埔國小,24.82805600785156,121.07931099999168
J,新竹縣,公共建設,21,國小,縣立清水國小,24.867241008574936,121.1360929999807
J,新竹縣,公共建設,21,國小,縣立寶石國小,24.81663200108413,121.07894899998178
J,新竹縣,公共建設,21,國小,縣立枋寮國小,24.837229003090748,121.05183399999247
J,新竹縣,公共建設,21,國小,縣立文山國小,24.825403000695044,121.04780199998451
J,新竹縣,公共建設,21,國小,縣立照東國小,24.844844996359413,121.14168799997373
J,新竹縣,公共建設,21,國小,縣立照門國小,24.847214004808922,121.1174489999767
J,新竹縣,公共建設,21,國小,縣立北平國小,24.852471008378686,121.08659099998609
J,新竹縣,公共建設,21,國小,縣立中正國小,24.836423999595347,121.02010399999347
J,新竹縣,公共建設,21,國小,縣立豐田國小,24.842245001603843,120.964246000003
J,新竹縣,公共建設,21,國小,縣立博愛國小,24.830828008077663,121.00569799999592
J,新竹縣,公共建設,21,國小,縣立六家國小,24.81367100682377,121.02549099999456
J,新竹縣,公共建設,21,國小,縣立仁愛國中,24.83223500819939,121.01500099999046
J,新竹縣,公共建設,21,國小,縣立鳳岡國中,24.863689005844932,120.96635400000197
J,新竹縣,公共建設,21,國小,縣立竹北國中,24.841506009944386,121.00030499999318
J,新竹縣,公共建設,21,國小,縣立六家國中,24.821107003653196,121.03211499999206
J,新竹縣,公共建設,21,國小,縣立博愛國中,24.830124008527307,121.00693399999814
J,新竹縣,公共建設,21,國小,縣立新港國小,24.850555006542503,120.95493600000087
J,新竹縣,公共建設,21,國小,縣立鳳岡國小,24.86146900567325,120.96382100000339
J,新竹縣,公共建設,21,國小,縣立東海國小,24.805807004129544,121.04997799999379
J,新竹縣,公共建設,21,國小,縣立光明國小,24.82441400145346,121.0099689999948
J,新竹縣,公共建設,21,國小,縣立新社國小,24.842835996845274,120.99812899999233
J,新竹縣,公共建設,21,國小,縣立麻園國小,24.846536004298397,120.97721199999901
J,新竹縣,公共建設,21,國小,縣立竹仁國小,24.836154003065925,121.01319799999517
J,新竹縣,公共建設,21,國小,縣立竹北國小,24.839044002267347,121.00310599999544
J,新竹縣,公共建設,21,國小,縣立富光國中,24.779887005846973,121.18090499997825
J,新竹縣,公共建設,21,國小,縣立關西國中,24.798766008086996,121.17324699998262
J,新竹縣,公共建設,21,國小,縣立東安國小,24.78981500386424,121.18371799997085
J,新竹縣,公共建設,21,國小,縣立關西國小,24.792021001649868,121.1748659999678
J,新竹縣,公共建設,21,國小,縣立石光國中,24.814791005561833,121.12980399998371
J,新竹縣,公共建設,21,國小,縣立石光國中,24.814791005561833,121.12980399998371
J,新竹縣,公共建設,21,國小,縣立錦山國小,24.76872199725787,121.225227999958
J,新竹縣,公共建設,21,國小,縣立坪林國小,24.800605999420906,121.1404409999761
J,新竹縣,公共建設,21,國小,縣立東光國小,24.77646201068551,121.17591599998609
J,新竹縣,公共建設,21,國小,縣立玉山國小,24.757551001620172,121.208675999969
J,新竹縣,公共建設,21,國小,縣立太平國小,24.82635601084011,121.1193689999919
J,新竹縣,公共建設,21,國小,縣立南和國小,24.808658997694486,121.12047899997792
J,新竹縣,公共建設,21,國小,縣立石光國小,24.813979004135696,121.1291989999822
J,新竹縣,公共建設,21,國小,縣立碧潭國小,24.746745002391357,121.10354099998365
J,新竹縣,公共建設,21,國小,縣立芎林國中,24.762092006201108,121.09130499998103
J,新竹縣,公共建設,21,國小,縣立五龍國小,24.737240001920615,121.12352399997961
J,新竹縣,公共建設,21,國小,縣立芎林國小,24.774196004458457,121.08275999998466
J,新竹縣,公共建設,21,國小,私立雅歌實驗小學,24.78955000537344,121.07099099999087
J,新竹縣,公共建設,21,國小,縣立寶山國中,24.764700003709116,120.99135299999436
J,新竹縣,公共建設,21,國小,縣立寶山國小山湖分校,24.74541199355105,121.03915999998551
J,新竹縣,公共建設,21,國小,縣立三峰國小,24.72114700222373,120.9964949999909
J,新竹縣,公共建設,21,國小,縣立雙溪國小,24.76618600325836,120.99014199999158
J,新竹縣,公共建設,21,國小,縣立寶山國小,24.740370007633224,121.02211099998863
J,新竹縣,公共建設,21,國小,縣立新城國小,24.73318699688093,120.9670200000023
J,新竹縣,公共建設,21,國小,縣立寶山國中莒光分部,24.736920998132515,121.02606199999188
J,新竹縣,公共建設,21,國小,私立上智國小,24.74124000838791,121.08463599998994
J,新竹縣,公共建設,21,國小,縣立自強國中,24.745158001468475,121.08556399998157
J,新竹縣,公共建設,21,國小,縣立員東國中,24.707305003633493,121.09800499998346
J,新竹縣,公共建設,21,國小,縣立竹東國中,24.735721006375634,121.08684199999006
J,新竹縣,公共建設,21,國小,縣立二重國中,24.764913006061498,121.05437999998898
J,新竹縣,公共建設,21,國小,縣立中山國小,24.73336200997494,121.09401299998976
J,新竹縣,公共建設,21,國小,縣立二重國小,24.76765700247716,121.05748899999226
J,新竹縣,公共建設,21,國小,縣立竹中國小,24.780459004142514,121.03003199999125
J,新竹縣,公共建設,21,國小,縣立員崠國小,24.713812005560026,121.09878899998371
J,新竹縣,公共建設,21,國小,縣立竹東國小,24.73535100863938,121.0877899999835
J,新竹縣,公共建設,21,國小,縣立大同國小,24.74035500621951,121.08857999998143
J,新竹縣,公共建設,21,國小,縣立上館國小,24.725921004720057,121.08810799998311
J,新竹縣,公共建設,21,國小,縣立東寧國中,24.722094996748165,121.09067199997472
J,新竹縣,公共建設,21,國小,縣立瑞峰國小,24.66167099951091,121.12199799998044
J,新竹縣,公共建設,21,國小,縣立陸豐國小,24.76634300703112,121.07729599998312
J,新竹縣,公共建設,21,國小,縣立橫山國中,24.718200998741196,121.14670699997575
J,新竹縣,公共建設,21,國小,縣立華山國中,24.717721006317227,121.10941499997934
J,新竹縣,公共建設,21,國小,縣立大肚國小,24.719075002787534,121.140121999976
J,新竹縣,公共建設,21,國小,縣立田寮國小,24.705363002596545,121.10570499997714
J,新竹縣,公共建設,21,國小,縣立內灣國小,24.704584996533875,121.18359299996708
J,新竹縣,公共建設,21,國小,縣立沙坑國小,24.739461004708218,121.16184499997411
J,新竹縣,公共建設,21,國小,縣立橫山國小,24.71846700806045,121.11490599998774
J,新竹縣,公共建設,21,國小,縣立北埔國小,24.70042900685963,121.05385999998867
J,新竹縣,公共建設,21,國小,縣立北埔國中,24.70450900792695,121.04744999999501
J,新竹縣,公共建設,21,國小,縣立大坪國小,24.674710005892205,121.05895999998805
J,新竹縣,公共建設,21,國小,縣立峨眉國中,24.690801009407505,121.01808299999736
J,新竹縣,公共建設,21,國小,縣立峨眉國小,24.68907600271821,121.02017899998819
J,新竹縣,公共建設,21,國小,縣立富興國小,24.68686499972422,120.98839900000137
J,新竹縣,公共建設,21,國小,縣立富興國小,24.68686499972422,120.98839900000137
J,新竹縣,公共建設,21,國小,縣立嘉興國小,24.70509101036246,121.21055499998117
J,新竹縣,公共建設,21,國小,縣立嘉興國小,24.70509101036246,121.21055499998117
J,新竹縣,公共建設,21,國小,縣立尖石國中,24.70710100222033,121.20232099997205
J,新竹縣,公共建設,21,國小,縣立玉峰國小,24.660064004554624,121.30147299995869
J,新竹縣,公共建設,21,國小,縣立新樂國小,24.731303005043795,121.25096199996527
J,新竹縣,公共建設,21,國小,縣立秀巒國小,24.618561010654894,121.28654899997879
J,新竹縣,公共建設,21,國小,縣立錦屏國小,24.680659007216004,121.24681899997437
J,新竹縣,公共建設,21,國小,縣立新光國小,24.579975997603672,121.30302799994689
J,新竹縣,公共建設,21,國小,縣立梅花國小,24.67764700537811,121.20860199997085
J,新竹縣,公共建設,21,國小,縣立尖石國小,24.728812998491517,121.22668899995988
J,新竹縣,公共建設,21,國小,縣立石磊國小,24.6554979999084,121.326298999942
J,新竹縣,公共建設,21,國小,縣立秀巒國小田埔分校,24.64141799669291,121.27873799994615
J,新竹縣,公共建設,21,國小,縣立嘉興國小義興分校,24.689333009694348,121.17819499998335
J,新竹縣,公共建設,21,國小,縣立花園國小竹林分校,24.624954998525237,121.14803199997428
J,新竹縣,公共建設,21,國小,縣立五峰國中,24.632509998571052,121.11892699997962
J,新竹縣,公共建設,21,國小,縣立五峰國小,24.630796001710134,121.11816499998383
J,新竹縣,公共建設,21,國小,縣立花園國小,24.648011005756544,121.15150199997576
J,新竹縣,公共建設,21,國小,縣立桃山國小,24.574915993226348,121.10605699997777
J,新竹縣,公共建設,22,國中,新竹縣法務部矯正署誠正中學,24.86632431380837,120.98040492930035
J,新竹縣,公共建設,22,國中,新竹縣立尖石國民中學,24.70711085951915,121.20239217224756
J,新竹縣,公共建設,22,國中,新竹縣立芎林國民中學,24.76227331776766,121.09123884145295
J,新竹縣,公共建設,22,國中,新竹縣立仁愛國民中學,24.83261453447105,121.0146765734266
J,新竹縣,公共建設,22,國中,新竹縣立員東國民中學,24.706210106439148,121.09841758702206
J,新竹縣,公共建設,22,國中,新竹縣立竹東國民中學,24.73597770787996,121.0869315024793
J,新竹縣,公共建設,22,國中,新竹縣立新埔國民中學,24.828942024753747,121.0710241851205
J,新竹縣,公共建設,22,國中,新竹縣立關西國民中學,24.798303351555923,121.17357535476434
J,新竹縣,公共建設,22,國中,新竹縣國立關西高級中學,24.789429991022693,121.18503242404562
J,新竹縣,公共建設,22,國中,新竹縣私立忠信高級中學,24.881964055167103,121.00286050896555
J,新竹縣,公共建設,22,國中,新竹縣立二重國民中學,24.76498400231637,121.05406950612338
J,新竹縣,公共建設,22,國中,新竹縣私立東泰高級中學,24.711321895675916,121.09873806764166
J,新竹縣,公共建設,22,國中,新竹縣立博愛國民中學,24.830192646847536,121.00666252905845
J,新竹縣,公共建設,22,國中,新竹縣立橫山國民中學,24.71858696652089,121.1459435869055
J,新竹縣,公共建設,22,國中,新竹縣立寶山國民中學莒光分部,24.736950264424284,121.02595053146915
J,新竹縣,公共建設,22,國中,新竹縣立忠孝國民中學,24.879204434737446,121.00024652988617
J,新竹縣,公共建設,22,國中,新竹縣立照門國民中學,24.84905899448258,121.1122681147095
J,新竹縣,公共建設,22,國中,新竹縣國立竹東高級中學,24.732498155294167,121.08769944682018
J,新竹縣,公共建設,22,國中,新竹縣立新湖國民中學,24.903026760701106,121.03578741716542
J,新竹縣,公共建設,22,國中,新竹縣立中正國民中學,24.873521561347562,121.01804268001885
J,新竹縣,公共建設,22,國中,新竹縣立竹北國民中學,24.84144328759224,121.00085570128437
J,新竹縣,公共建設,22,國中,新竹縣私立義民高級中學,24.838707844405594,121.00398892387705
J,新竹縣,公共建設,22,國中,新竹縣國立竹北高級中學,24.83654701039746,121.00403222916766
J,新竹縣,公共建設,22,國中,新竹縣立新豐國民中學,24.902663398306682,120.9912885521427
J,新竹縣,公共建設,22,國中,新竹縣立精華國民中學,24.926625456427864,121.0186299664318
J,新竹縣,公共建設,22,國中,新竹縣立峨嵋國民中學,24.691237869378917,121.01747680839283
J,新竹縣,公共建設,22,國中,新竹縣立竹東國民中學補校,24.73549781406207,121.08624194011321
J,新竹縣,公共建設,22,國中,新竹縣立華山國民中學,24.71820110728684,121.10915567402321
J,新竹縣,公共建設,22,國中,新竹縣立六家國民中學,24.821083482967545,121.03199456146749
J,新竹縣,公共建設,22,國中,新竹縣私立仰德高級中學,24.88142682939594,121.0051055531598
J,新竹縣,公共建設,22,國中,新竹縣立五峰國民中學,24.632566676597097,121.1186992261255
J,新竹縣,公共建設,22,國中,新竹縣立自強國民中學,24.745921927075283,121.0850165146276
J,新竹縣,公共建設,22,國中,新竹縣立北埔國民中學,24.704468198797482,121.0475304594207
J,新竹縣,公共建設,22,國中,新竹縣立富光國民中學,24.780308164720285,121.18060336066804
J,新竹縣,公共建設,22,國中,新竹縣立湖口高級中學,24.890344724504438,121.0527645678207
J,新竹縣,公共建設,22,國中,新竹縣國立竹東高級中學進修學校,24.731485649108148,121.08768629106359
J,新竹縣,公共建設,22,國中,新竹縣立鳳岡國民中學,24.86454671928577,120.96554834375871
J,新竹縣,公共建設,22,國中,新竹縣立寶山國民中學,24.764563450203635,120.99129280136953
J,新竹縣,公共建設,23,高中,新竹縣私立內思高級工業職業學校,24.82825198380686,121.08209825646756
J,新竹縣,公共建設,23,高中,私立忠信高中,24.8813990116103,121.00222799999172
J,新竹縣,公共建設,23,高中,私立仰德高中,24.88111700493553,121.00614599999265
J,新竹縣,公共建設,23,高中,縣立湖口中學,24.89076800462746,121.05379599998756
J,新竹縣,公共建設,23,高中,縣立湖口高中,24.888149997257404,121.05320099998595
J,新竹縣,公共建設,23,高中,縣立湖口高中附設國中部,24.888240002495255,121.05323099999039
J,新竹縣,公共建設,23,高中,私立內思高工,24.828256006642718,121.08198199998863
J,新竹縣,公共建設,23,高中,私立義民高中,24.837374006631507,121.00363199999379
J,新竹縣,公共建設,23,高中,私立義民高中附設國中部,24.837374006631507,121.00363199999379
J,新竹縣,公共建設,23,高中,國立竹北高中,24.836155001521607,121.0040759999984
J,新竹縣,公共建設,23,高中,私立番子坡中學,24.847892002130564,121.00564899999856
J,新竹縣,公共建設,23,高中,國立關西高中,24.790025011407742,121.18544799998601
J,新竹縣,公共建設,23,高中,國立竹東高中,24.732567003975202,121.08682799998219
J,新竹縣,公共建設,23,高中,私立東泰高中,24.711260006686445,121.09887499999013
J,新竹縣,公共建設,25,大學及研究所,新竹縣大華技術學院,24.77805861212139,121.08986227276846
J,新竹縣,公共建設,25,大學及研究所,新竹縣明新科技大學,24.86418402034023,120.9907610510902
J,新竹縣,公共建設,25,大學及研究所,新竹縣中國科技大學,24.91822471542023,121.0562677554092
J,新竹縣,公共建設,25,大學及研究所,新竹縣大華技術學院,24.77834580711559,121.0916546992852
J,新竹縣,公共建設,25,大學及研究所,新竹縣中華科技大學新竹校區,24.713558230032763,121.11448773900375
J,新竹縣,公共建設,25,大學及研究所,中國科技大學新竹校區,24.919098999005904,121.05620699998263
J,新竹縣,公共建設,25,大學及研究所,大華技術學院,24.777390998109492,121.08888299998225
J,新竹縣,公共建設,25,大學及研究所,中華技術學院新竹分部,24.714224006112474,121.11408199998543
J,新竹縣,公共建設,26,幼稚園、托兒所,新竹縣橫山鄉立托兒所福興班,24.73500799178488,121.16947639522108
J,新竹縣,公共建設,26,幼稚園、托兒所,新竹縣新豐鄉立托兒所重興分所,24.900016286797026,120.98761500616072
J,新竹縣,公共建設,26,幼稚園、托兒所,新竹縣立湖口鄉立示範托兒所,24.868160358205643,121.02761129755595
J,新竹縣,公共建設,26,幼稚園、托兒所,新竹縣立竹東鎮縣立竹東幼稚園,24.72209182505252,121.09085538097709
J,新竹縣,公共建設,26,幼稚園、托兒所,新竹縣竹東鎮立托兒所,24.72902033357154,121.0867146669179
J,新竹縣,公共建設,31,傳統市場,新竹縣關西鎮關西公有零售市場,24.7905274251785,121.17637062405555
J,新竹縣,公共建設,31,傳統市場,新竹縣新豐鄉新庄子公有零售市場,24.900263987814725,120.98652661720605
J,新竹縣,公共建設,31,傳統市場,新竹縣竹北仁義公有零售市場,24.83398854969356,121.01411333312699
J,新竹縣,公共建設,31,傳統市場,新竹縣芎林鄉果菜市場,24.786701302407117,121.06806684477887
J,新竹縣,公共建設,31,傳統市場,新竹縣湖口鳳凰市場,24.87133823266568,121.01314403366031
J,新竹縣,公共建設,31,傳統市場,新竹縣竹東鎮中央市場,24.737657342388246,121.09162873803449
J,新竹縣,公共建設,31,傳統市場,新竹縣新社公有零售市場,24.841131972381547,120.99881653597747
J,新竹縣,公共建設,31,傳統市場,新竹縣北埔鄉北埔公有零售市場,24.699181739092165,121.05648833274142
J,新竹縣,公共建設,31,傳統市場,新竹縣湖口鄉第一公有零售市場,24.902733749652786,121.046795126639
J,新竹縣,公共建設,31,傳統市場,新竹縣商華公有零售市場,24.7374186665799,121.08827352498326
J,新竹縣,公共建設,31,傳統市場,新竹縣芎林公有零售市場,24.775725548603717,121.07753756201669
J,新竹縣,公共建設,31,傳統市場,新竹縣新竹肉品市場,24.841695343110715,120.95257284311828
J,新竹縣,公共建設,31,傳統市場,新竹縣新埔鎮第一公有零售市場,24.8276765508389,121.07712561686428
J,新竹縣,公共建設,33,大型購物中心,新竹縣北聯社生鮮超市,24.872588318003427,120.9954103882029
J,新竹縣,公共建設,34,生活百貨量販,新竹縣全聯福利中心竹東店,24.735077358243387,121.09090959507843
J,新竹縣,公共建設,34,生活百貨量販,新竹縣全聯福利中心新豐店,24.871049087573546,120.9966282478921
J,新竹縣,公共建設,34,生活百貨量販,新竹縣家樂福竹北店,24.82646241526711,121.0089840445061
J,新竹縣,公共建設,34,生活百貨量販,新竹縣全聯福利中心勝利店,24.824985038525806,121.02548281537491
J,新竹縣,公共建設,34,生活百貨量販,新竹縣全聯福利中心湖口二店,24.90360317346947,121.04662738647048
J,新竹縣,公共建設,34,生活百貨量販,新竹縣全聯福利中心湖口文化店,24.87012842965437,121.01523798495623
J,新竹縣,公共建設,34,生活百貨量販,新竹縣全聯福利中心湖口店,24.90202105039669,121.04395426952658
J,新竹縣,公共建設,34,生活百貨量販,新竹縣全聯福利中心竹北二店,24.840099103689532,121.00188913175803
J,新竹縣,公共建設,34,生活百貨量販,新竹縣全聯福利中心竹北店,24.833016166714117,121.01206425959133
J,新竹縣,公共建設,42,一般公園,中興公園,24.876324000510518,120.99715599999827
J,新竹縣,公共建設,42,一般公園,新豐公園,24.878645999105714,120.9980429999971
J,新竹縣,公共建設,42,一般公園,中華公園,24.872352006761766,121.0136269999983
J,新竹縣,公共建設,42,一般公園,華興公園,24.872072007598856,121.01816599999178
J,新竹縣,公共建設,42,一般公園,中興公園,24.87459500764673,121.01436899999649
J,新竹縣,公共建設,42,一般公園,新埔鎮立運動公園,24.830610998867076,121.08366899998227
J,新竹縣,公共建設,42,一般公園,鳳山溪河濱運動公園,24.823223004838873,121.06932999998989
J,新竹縣,公共建設,42,一般公園,鎮運動公園,24.82914700755467,121.08169499998607
J,新竹縣,公共建設,42,一般公園,新埔公園,24.829940000466234,121.07241599998419
J,新竹縣,公共建設,42,一般公園,梅花公園,24.804544993838064,121.03586199999005
J,新竹縣,公共建設,42,一般公園,隘口社區公園,24.802006008021497,121.03986099998673
J,新竹縣,公共建設,42,一般公園,福興公園,24.822317001024327,121.01025999998885
J,新竹縣,公共建設,42,一般公園,文化公園,24.83181100664801,121.00719899999898
J,新竹縣,公共建設,42,一般公園,博愛公園,24.829704006881933,121.00803799999528
J,新竹縣,公共建設,42,一般公園,豆子埔公園,24.833302997990284,121.01583299998903
J,新竹縣,公共建設,42,一般公園,豆子埔公園,24.833302997990284,121.01583299998903
J,新竹縣,公共建設,42,一般公園,青山嶺佛教公園,24.789353004989746,121.20871999997438
J,新竹縣,公共建設,42,一般公園,鳳鳴公園,24.78814400471085,121.18443099997747
J,新竹縣,公共建設,42,一般公園,鳳林公園,24.779135011335253,121.07822399998926
J,新竹縣,公共建設,42,一般公園,育樂公園,24.737562007932098,121.09087499998512
J,新竹縣,公共建設,42,一般公園,大同公園,24.741599000698994,121.08993599997748
J,新竹縣,公共建設,42,一般公園,社區公園,24.7175639999127,121.11513399997567
J,新竹縣,公共建設,42,一般公園,秀巒公園,24.699664003931172,121.05958799998568
J,新竹縣,民眾服務,51,觀光遊憩設施,新竹縣公園,24.828902612575998,121.01143261426961
J,新竹縣,民眾服務,51,觀光遊憩設施,新竹縣水圳森林公園,24.8099809853349,121.03505162396354
J,新竹縣,民眾服務,51,觀光遊憩設施,新竹縣新豐松柏公園,24.872310126616355,120.99232728819797
J,新竹縣,民眾服務,51,觀光遊憩設施,新竹縣明德廣場,24.791888631514553,121.17676120590808
J,新竹縣,民眾服務,51,觀光遊憩設施,新竹縣六福村主題遊樂園,24.82113269995699,121.18185353030421
J,新竹縣,民眾服務,51,觀光遊憩設施,新竹縣公園,24.832798765490477,121.00945734311686
J,新竹縣,民眾服務,51,觀光遊憩設施,新竹縣山崎公園,24.87572261848196,120.9944187965933
J,新竹縣,民眾服務,51,觀光遊憩設施,新竹縣公園,24.83179958270543,121.00703745806437
J,新竹縣,民眾服務,51,觀光遊憩設施,新竹縣邦正公園,24.699095887727132,121.05573798127007
J,新竹縣,民眾服務,51,觀光遊憩設施,新竹縣小叮噹科學遊樂園區,24.869893044023843,120.97879021133842
J,新竹縣,民眾服務,51,觀光遊憩設施,新竹縣公園,24.832446648479586,121.00603777614693
J,新竹縣,民眾服務,51,觀光遊憩設施,新竹縣公園,24.790293999550542,121.07571805484064
J,新竹縣,民眾服務,51,觀光遊憩設施,新竹縣公園,24.8248518496307,121.01563008570707
J,新竹縣,民眾服務,51,觀光遊憩設施,新竹縣自強公園,24.817049098717384,121.02295805779464
J,新竹縣,民眾服務,51,觀光遊憩設施,新竹縣中興公園,24.876549430614315,120.99718334069223
J,新竹縣,民眾服務,51,觀光遊憩設施,新竹縣五龍社區公園,24.7353325269247,121.12008890500628
J,新竹縣,民眾服務,51,觀光遊憩設施,新竹縣金馬海族樂園,24.77356610847228,121.26369202431566
J,新竹縣,民眾服務,51,觀光遊憩設施,新竹縣無菸公園,24.869715955321272,121.0327550139829
J,新竹縣,民眾服務,51,觀光遊憩設施,新竹縣公園,24.735728630677855,121.0971227767892
J,新竹縣,民眾服務,51,觀光遊憩設施,新竹縣清泉溫泉,24.574661445375952,121.10531226040645
J,新竹縣,民眾服務,51,觀光遊憩設施,新竹縣北埔秀巒公園,24.699648652721695,121.06007327902928
J,新竹縣,民眾服務,51,觀光遊憩設施,新竹縣綠世界生態農場,24.70068578982924,121.07301206057906
J,新竹縣,民眾服務,51,觀光遊憩設施,新竹縣公園,24.7791027817696,121.07810086575302
J,新竹縣,民眾服務,51,觀光遊憩設施,新竹縣文米種子公園,24.832405044924602,121.01725870211567
J,新竹縣,民眾服務,51,觀光遊憩設施,新竹縣內灣親水公園,24.706237879652075,121.1771809733899
J,新竹縣,民眾服務,51,觀光遊憩設施,新竹縣鳴鳳公園,24.788008643955855,121.18454602531203
J,新竹縣,民眾服務,51,觀光遊憩設施,新竹縣公園,24.829517620685806,121.013469556149
J,新竹縣,民眾服務,51,觀光遊憩設施,新竹縣環境生態教育園區,24.912469937873357,121.0261814531444
J,新竹縣,民眾服務,51,觀光遊憩設施,新竹縣中興公園,24.870278580962054,121.03638776504795
J,新竹縣,民眾服務,51,觀光遊憩設施,新竹縣竹東河濱公園,24.73858718105149,121.09675909442902
J,新竹縣,民眾服務,51,觀光遊憩設施,新竹縣福興公園,24.822385738893935,121.01021915103837
J,新竹縣,民眾服務,51,觀光遊憩設施,新竹縣北勢溪河濱公園,24.899460134621812,121.04412221690751
J,新竹縣,民眾服務,51,觀光遊憩設施,新竹縣獅頭山國家風景區(獅山遊客中心),24.655038601549727,121.02436066018295
J,新竹縣,民眾服務,51,觀光遊憩設施,新竹縣長青公園,24.689455644900573,121.0216582939914
J,新竹縣,民眾服務,51,觀光遊憩設施,新竹縣公園,24.823816510760256,121.02822843584423
J,新竹縣,民眾服務,51,觀光遊憩設施,新竹縣中興公園,24.87440343416335,121.01434643779393
J,新竹縣,民眾服務,51,觀光遊憩設施,新竹縣司馬庫斯旅客服務中心,24.578665980427946,121.33414830866685
J,新竹縣,民眾服務,51,觀光遊憩設施,新竹縣新豐公園,24.878580988060417,120.9981870657859
J,新竹縣,民眾服務,51,觀光遊憩設施,新竹縣公園,24.88486504742215,121.02810122316723
J,新竹縣,民眾服務,51,觀光遊憩設施,新竹縣長春公園,24.6699304576998,121.05118310129036
J,新竹縣,民眾服務,51,觀光遊憩設施,新竹縣公園,24.897278543631693,121.04907177109527
J,新竹縣,民眾服務,51,觀光遊憩設施,新竹縣自強童玩公園,24.81971396924289,121.02349737297672
J,新竹縣,民眾服務,51,觀光遊憩設施,新竹縣無菸公園,24.87035541451324,121.03344838393318
J,新竹縣,民眾服務,51,觀光遊憩設施,新竹縣大同公園,24.74160889802854,121.08986039588261
J,新竹縣,民眾服務,51,觀光遊憩設施,新竹縣公園,24.824814123650608,121.01235280245709
J,新竹縣,民眾服務,51,觀光遊憩設施,新竹縣矮人祭場文物館,24.627529506758645,121.09261954249398
J,新竹縣,民眾服務,51,觀光遊憩設施,新竹縣萬瑞森林遊樂區,24.70236807094012,121.1315140645918
J,新竹縣,民眾服務,51,觀光遊憩設施,新竹縣公園,24.84152519725102,121.00240190170636
J,新竹縣,民眾服務,51,觀光遊憩設施,新竹縣斗星公園,24.827568982205737,121.00374495897769
J,新竹縣,民眾服務,51,觀光遊憩設施,新竹縣海豐鄉中崙社區三元公園,24.90095196032566,120.99808352274384
J,新竹縣,民眾服務,51,觀光遊憩設施,新竹縣鄧雨賢音樂文化紀念公園,24.773960956140886,121.08540031038685
J,新竹縣,民眾服務,51,觀光遊憩設施,新竹縣公園,24.72430306817962,121.04323185852265
J,新竹縣,民眾服務,51,觀光遊憩設施,新竹縣大湖口車站公園,24.876861658529144,121.05385320484976
J,新竹縣,民眾服務,51,觀光遊憩設施,新竹縣公園,24.821503857646068,121.02070561434685
J,新竹縣,民眾服務,51,觀光遊憩設施,新竹縣紅毛港遊憩區,24.908319524990347,120.97104165090309
J,新竹縣,民眾服務,51,觀光遊憩設施,新竹縣公園,24.87195305799256,120.99120403128659
J,新竹縣,民眾服務,51,觀光遊憩設施,新竹縣中華公園,24.87253387222294,121.0135906096918
J,新竹縣,民眾服務,51,觀光遊憩設施,新竹縣公園,24.826708189169363,121.00582695411619
J,新竹縣,民眾服務,51,觀光遊憩設施,新竹縣公園,24.830756918274997,121.01080890882152
J,新竹縣,民眾服務,51,觀光遊憩設施,新竹縣文忠星球公園,24.83081218849662,121.02032836461625
J,新竹縣,民眾服務,51,觀光遊憩設施,新竹縣公十六公園,24.828196869019386,121.00589820508415
J,新竹縣,民眾服務,51,觀光遊憩設施,新竹縣公園,24.827418811782117,121.01769902568114
J,新竹縣,民眾服務,51,觀光遊憩設施,新竹縣中正公園,24.776826699783147,121.09050641098187
J,新竹縣,民眾服務,51,觀光遊憩設施,新竹縣河濱公園,24.824263111234455,120.99860385162869
J,新竹縣,民眾服務,51,觀光遊憩設施,新竹縣成功光影公園,24.818095436183967,121.02593856162919
J,新竹縣,民眾服務,51,觀光遊憩設施,新竹縣育樂公園,24.737527404816337,121.09038141902317
J,新竹縣,民眾服務,51,觀光遊憩設施,新竹縣公園,24.87137248984521,121.03139853810805
J,新竹縣,民眾服務,51,觀光遊憩設施,新竹縣公園,24.91736812770843,120.99029679014014
J,新竹縣,民眾服務,51,觀光遊憩設施,新竹縣公園,24.876583420033782,120.99590501209201
J,新竹縣,民眾服務,51,觀光遊憩設施,新竹縣新埔鎮鳳山溪河濱運動公園,24.825746558722397,121.06745605795787
J,新竹縣,民眾服務,51,觀光遊憩設施,新竹縣公園,24.828500100574896,121.00312808738079
J,新竹縣,民眾服務,51,觀光遊憩設施,新竹縣華興公園,24.872033997253457,121.01784539205663
J,新竹縣,民眾服務,51,觀光遊憩設施,新竹縣中勢休閒公園,24.89922998291078,121.05321792870372
J,新竹縣,民眾服務,51,觀光遊憩設施,新竹縣公園,24.886298550415304,121.00104358302697
J,新竹縣,民眾服務,51,觀光遊憩設施,新竹縣育樂公園,24.73636085938009,121.08995662003812
J,新竹縣,民眾服務,51,觀光遊憩設施,新竹縣十二寮牛車館(旅遊服務中心),24.671320496232816,120.99439158590462
J,新竹縣,民眾服務,51,觀光遊憩設施,新竹縣社區公園,24.71774746641355,121.11526815850041
J,新竹縣,民眾服務,51,觀光遊憩設施,新竹縣公園,24.82532041652334,121.01133781778063
J,新竹縣,民眾服務,51,觀光遊憩設施,新竹縣北埔冷泉,24.662384743267882,121.07275127390709
J,新竹縣,民眾服務,51,觀光遊憩設施,新豐海水浴場,24.922586005986297,120.96956099999655
J,新竹縣,民眾服務,51,觀光遊憩設施,小叮噹科學遊樂區,24.870728997625527,120.98045199999531
J,新竹縣,民眾服務,51,觀光遊憩設施,新豐高爾夫球場,24.879543994084937,120.98187900000217
J,新竹縣,民眾服務,51,觀光遊憩設施,海梨觀光果園,24.907779004233834,121.04474699998549
J,新竹縣,民眾服務,51,觀光遊憩設施,湖口鄉觀光茶園,24.90783800299466,121.04791499998552
J,新竹縣,民眾服務,51,觀光遊憩設施,再興高爾夫球場,24.883538003542775,121.08678999998723
J,新竹縣,民眾服務,51,觀光遊憩設施,長安高爾夫球場,24.87631000999503,121.11352999998915
J,新竹縣,民眾服務,51,觀光遊憩設施,新埔上枋寮劉宅,24.83616500860746,121.05665699999182
J,新竹縣,民眾服務,51,觀光遊憩設施,新埔劉家祠,24.827464004330885,121.07743899998847
J,新竹縣,民眾服務,51,觀光遊憩設施,新埔潘宅,24.8274470024549,121.07606799998099
J,新竹縣,民眾服務,51,觀光遊憩設施,新埔褒忠亭,24.836790997152377,121.0545459999855
J,新竹縣,民眾服務,51,觀光遊憩設施,新埔鎮觀光果園,24.84475300645576,121.03928799998701
J,新竹縣,民眾服務,51,觀光遊憩設施,南園,24.86820800380363,121.10194699998684
J,新竹縣,民眾服務,51,觀光遊憩設施,枋寮褒忠亭義民廟,24.844038996052703,121.03636999998633
J,新竹縣,民眾服務,51,觀光遊憩設施,竹北采田福地,24.841573996915642,120.9982649999913
J,新竹縣,民眾服務,51,觀光遊憩設施,竹北問禮堂,24.81651500988379,121.02830599999601
J,新竹縣,民眾服務,51,觀光遊憩設施,新竹縣立美術館,24.830651002795,121.01209299998953
J,新竹縣,民眾服務,51,觀光遊憩設施,新竹縣立文化中心—美術館,24.82923400390104,121.01120199999626
J,新竹縣,民眾服務,51,觀光遊憩設施,關西鄭氏祠堂,24.79333299868929,121.17749499996243
J,新竹縣,民眾服務,51,觀光遊憩設施,海梨觀光果園,24.808421009232408,121.15228099997863
J,新竹縣,民眾服務,51,觀光遊憩設施,石光草莓觀光果園,24.804366997127236,121.15109099997309
J,新竹縣,民眾服務,51,觀光遊憩設施,馬武督休閒渡假農埸,24.76813000033625,121.2211169999619
J,新竹縣,民眾服務,51,觀光遊憩設施,南太平洋村,24.819907009414536,121.18126299998413
J,新竹縣,民眾服務,51,觀光遊憩設施,阿拉伯皇宮,24.821950005679202,121.18145099997561
J,新竹縣,民眾服務,51,觀光遊憩設施,六福村主題遊樂園售票處,24.82086800625384,121.18443899997132
J,新竹縣,民眾服務,51,觀光遊憩設施,六福村主題遊樂園入園廣場,24.820792996705986,121.18465399995769
J,新竹縣,民眾服務,51,觀光遊憩設施,錦仙森林世界公園(馬武督探索森林),24.769187006350048,121.27038299996732
J,新竹縣,民眾服務,51,觀光遊憩設施,六福村主題遊樂園,24.82523200270274,121.18095099997274
J,新竹縣,民眾服務,51,觀光遊憩設施,金鳥海族樂園,24.77433200841415,121.26371499996792
J,新竹縣,民眾服務,51,觀光遊憩設施,旭陽高爾夫球場,24.74786699929554,121.1837209999611
J,新竹縣,民眾服務,51,觀光遊憩設施,立益高爾夫球場,24.783090001691935,121.19553499996702
J,新竹縣,民眾服務,51,觀光遊憩設施,老爺關西高爾夫球場,24.75213699547979,121.19758899995553
J,新竹縣,民眾服務,51,觀光遊憩設施,山溪地高爾夫球場,24.76233400406369,121.21275799997433
J,新竹縣,民眾服務,51,觀光遊憩設施,瑞龍博物館,24.77553100044495,121.08675499998458
J,新竹縣,民眾服務,51,觀光遊憩設施,飛鳳山步道,24.764888007663256,121.10801099998089
J,新竹縣,民眾服務,51,觀光遊憩設施,寶山水庫,24.748438997477926,121.04155799999238
J,新竹縣,民眾服務,51,觀光遊憩設施,啟寶高爾夫球場,24.712148998477915,120.9445790000071
J,新竹縣,民眾服務,51,觀光遊憩設施,寶山高爾夫球場,24.733527999694317,120.96911399999681
J,新竹縣,民眾服務,51,觀光遊憩設施,鴻福高爾夫俱樂部,24.711412006278266,121.03242199999345
J,新竹縣,民眾服務,51,觀光遊憩設施,鴻福高爾夫球場,24.71121399934892,121.03241599999357
J,新竹縣,民眾服務,51,觀光遊憩設施,五指山柑橘觀光果園,24.743849006537186,121.09382999998361
J,新竹縣,民眾服務,51,觀光遊憩設施,大山背柑橘觀光果園,24.76906500365414,121.04490599998843
J,新竹縣,民眾服務,51,觀光遊憩設施,神秘國度森林渡假村(成豐夢幻世界),24.660832009570587,121.09829899999028
J,新竹縣,民眾服務,51,觀光遊憩設施,南坪古道,24.702660999350712,121.17975699996497
J,新竹縣,民眾服務,51,觀光遊憩設施,河岸溫泉,24.70556200056179,121.1754589999645
J,新竹縣,民眾服務,51,觀光遊憩設施,威尼斯內灣溫泉會館,24.701041005946504,121.18309699997532
J,新竹縣,民眾服務,51,觀光遊憩設施,豐鄉瀑布,24.69303000432393,121.1435339999825
J,新竹縣,民眾服務,51,觀光遊憩設施,內灣風景區,24.705858006437165,121.18123099997865
J,新竹縣,民眾服務,51,觀光遊憩設施,萬瑞森林遊樂區,24.70249100455724,121.13175199997818
J,新竹縣,民眾服務,51,觀光遊憩設施,北埔慈天宮,24.699852998493423,121.05712299998153
J,新竹縣,民眾服務,51,觀光遊憩設施,五指山風景區,24.64286899830095,121.08995399998297
J,新竹縣,民眾服務,51,觀光遊憩設施,北埔冷泉,24.66217700709921,121.07315399998568
J,新竹縣,民眾服務,51,觀光遊憩設施,北埔冷泉,24.663105000725768,121.07299799998378
J,新竹縣,民眾服務,51,觀光遊憩設施,金廣福公館,24.700750007849333,121.05781399998955
J,新竹縣,民眾服務,51,觀光遊憩設施,獅山旅遊服務中心,24.656150000051944,121.02250199999649
J,新竹縣,民眾服務,51,觀光遊憩設施,峨眉湖,24.679374994246928,120.98360099999435
J,新竹縣,民眾服務,51,觀光遊憩設施,宇老觀景台,24.667277007042433,121.28238999996938
J,新竹縣,民眾服務,51,觀光遊憩設施,小錦屏溫泉,24.65154700241538,121.20443999996333
J,新竹縣,民眾服務,51,觀光遊憩設施,暫時園溫泉區咖啡民宿,24.66390399711783,121.20606599996157
J,新竹縣,民眾服務,51,觀光遊憩設施,亞山溫泉民宿,24.669744000941346,121.20729399996885
J,新竹縣,民眾服務,51,觀光遊憩設施,錦屏美人湯館,24.671376001897247,121.20896799997124
J,新竹縣,民眾服務,51,觀光遊憩設施,朝日溫泉會館,24.6701879969405,121.2088719999536
J,新竹縣,民眾服務,51,觀光遊憩設施,石上湯屋,24.728605000523633,121.22232499996473
J,新竹縣,民眾服務,51,觀光遊憩設施,天然谷溫泉會館,24.687722002343236,121.2225749999659
J,新竹縣,民眾服務,51,觀光遊憩設施,秀巒野溪溫泉,24.62141899576063,121.2872159999428
J,新竹縣,民眾服務,51,觀光遊憩設施,司馬庫斯斷崖,24.569706003402416,121.34933799995162
J,新竹縣,民眾服務,51,觀光遊憩設施,司馬庫斯神木群,24.574187004263912,121.36673299995432
J,新竹縣,民眾服務,51,觀光遊憩設施,司馬庫斯古道步道口,24.578612009659395,121.34250699997405
J,新竹縣,民眾服務,51,觀光遊憩設施,青蛙谷,24.687364006200617,121.22722099997429
J,新竹縣,民眾服務,51,觀光遊憩設施,會來尖石渡假村,24.705299005298702,121.20923899996995
J,新竹縣,民眾服務,51,觀光遊憩設施,北角吊橋,24.701584994284445,121.19786499995705
J,新竹縣,民眾服務,51,觀光遊憩設施,鴛鴦谷瀑布,24.74969801017878,121.28386099997144
J,新竹縣,民眾服務,51,觀光遊憩設施,大霸尖山,24.45775100511425,121.25804499996643
J,新竹縣,民眾服務,51,觀光遊憩設施,池有山,24.431105998487993,121.28815899994886
J,新竹縣,民眾服務,51,觀光遊憩設施,尖石巨木群,24.584121002840757,121.32371099995181
J,新竹縣,民眾服務,51,觀光遊憩設施,桃山村休閒農場,24.567590001361584,121.09501999998665
J,新竹縣,民眾服務,51,觀光遊憩設施,雪霸休閒農場,24.526674004014804,121.1138109999808
J,新竹縣,民眾服務,51,觀光遊憩設施,賽夏族文物館,24.622628999622457,121.09931899997835
J,新竹縣,民眾服務,51,觀光遊憩設施,新竹清泉溫泉館,24.574396009750124,121.1051369999882
J,新竹縣,民眾服務,51,觀光遊憩設施,清泉溫泉,24.574702996607236,121.10518399997432
J,新竹縣,民眾服務,51,觀光遊憩設施,霞喀羅古道,24.561274007745958,121.16983199997885
J,新竹縣,民眾服務,51,觀光遊憩設施,古鹿古道,24.56559700755082,121.11063799998189
J,新竹縣,民眾服務,51,觀光遊憩設施,銀絲瀑布,24.635724008154565,121.13236199998761
J,新竹縣,民眾服務,51,觀光遊憩設施,賽夏族巴斯達隘祭場,24.62263100794711,121.09931999998265
J,新竹縣,民眾服務,51,觀光遊憩設施,清泉風景特定區,24.575064002092645,121.10400799998297
J,新竹縣,民眾服務,51,觀光遊憩設施,雪霸國家公園,24.520360005865346,121.1959999999742
J,新竹縣,民眾服務,52,停車場地,新竹縣義民高級中學停車場,24.837203517734153,121.00314654048239
J,新竹縣,民眾服務,52,停車場地,新竹縣停車場,24.818508269237146,121.0214104638882
J,新竹縣,民眾服務,52,停車場地,新竹縣停車場,24.91882806992227,121.04758928793005
J,新竹縣,民眾服務,52,停車場地,新竹縣竹北市公二停五地下停車場入口,24.830997849145774,121.01131183032535
J,新竹縣,民眾服務,52,停車場地,新竹縣竹北市公有停車場,24.839608925776638,121.00875730098934
J,新竹縣,民眾服務,52,停車場地,新竹縣停車場,24.737246222788034,121.08376692344996
J,新竹縣,民眾服務,52,停車場地,新竹縣停車場,24.885760168418404,121.07884802301297
J,新竹縣,民眾服務,52,停車場地,新竹縣停車場,24.884169003476718,121.02799768508913
J,新竹縣,民眾服務,52,停車場地,新竹縣信義公有停車場,24.737727354906585,121.09002341406327
J,新竹縣,民眾服務,52,停車場地,新竹縣停車場,24.77161106639008,121.0542036478837
J,新竹縣,民眾服務,52,停車場地,新竹縣停車場,24.84407491973915,120.99927616341584
J,新竹縣,民眾服務,52,停車場地,新竹縣停車場,24.84281781810129,120.9887573748786
J,新竹縣,民眾服務,52,停車場地,新竹縣停車場,24.722716208381296,121.04389954287018
J,新竹縣,民眾服務,52,停車場地,新竹縣中正東路公有停車場,24.835685452099685,121.011808725042
J,新竹縣,民眾服務,52,停車場地,新竹縣竹東鎮信義路公有停車場,24.73521500209308,121.09002154616397
J,新竹縣,民眾服務,52,停車場地,新竹縣竹北市公有停車場,24.836488464898604,121.01173517139408
J,新竹縣,民眾服務,52,停車場地,新竹縣停車場,24.92167939280854,121.05502433171893
J,新竹縣,民眾服務,52,停車場地,新竹縣停車場,24.828319212522214,121.08061423675844
J,新竹縣,民眾服務,52,停車場地,新竹縣中興立體停車場,24.901588940013426,121.04901350709949
J,新竹縣,民眾服務,52,停車場地,新竹縣信義公有停車場,24.739400246668982,121.0900552950988
J,新竹縣,民眾服務,52,停車場地,新竹縣竹東鎮仁愛公有停車場,24.734981126076843,121.09039922176684
J,新竹縣,民眾服務,52,停車場地,新竹縣停車場,24.885969741685468,121.026204013199
J,新竹縣,民眾服務,52,停車場地,新竹縣關西服務區停車場,24.800593990535962,121.19320963409369
J,新竹縣,民眾服務,52,停車場地,新竹縣橫山文物館停車場,24.704864757833064,121.17987066661853
J,新竹縣,民眾服務,52,停車場地,新竹縣公有停車場,24.82711244337881,121.01517860205895
J,新竹縣,民眾服務,52,停車場地,新竹縣停車場,24.67040788232685,121.05153357602795
J,新竹縣,民眾服務,52,停車場地,新竹縣停車場,24.827377436935095,121.00417721236111
J,新竹縣,民眾服務,52,停車場地,新竹縣停車場,24.705741399422475,121.17860826925507
J,新竹縣,民眾服務,52,停車場地,新竹縣停車場,24.772535450277825,121.05560493827157
J,新竹縣,民眾服務,52,停車場地,新竹縣停六停車場,24.81905454223526,121.02687216217402
J,新竹縣,民眾服務,52,停車場地,新竹縣停車場,24.73350054764369,121.09928933527848
J,新竹縣,民眾服務,52,停車場地,新竹縣停車場,24.70354797205029,121.05626417219898
J,新竹縣,民眾服務,52,停車場地,新竹縣停車場,24.88531699790823,121.08019745172112
J,新竹縣,民眾服務,52,停車場地,新竹縣停車場,24.89981235982903,121.04590191992898
J,新竹縣,民眾服務,52,停車場地,新竹縣停車場,24.90011863570633,121.0459915587257
J,新竹縣,民眾服務,52,停車場地,新竹縣停車場,24.808836651819355,121.0361697580528
J,新竹縣,民眾服務,52,停車場地,新竹縣停車場,24.692222441730607,121.21928270011237
J,新竹縣,民眾服務,52,停車場地,新竹縣停車場,24.893489549103553,121.06224967803878
J,新竹縣,民眾服務,52,停車場地,新竹縣伯公下停車場,24.707502624316174,121.1798292975323
J,新竹縣,民眾服務,52,停車場地,新竹縣停車場,24.82372861289124,121.0087280390656
J,新竹縣,民眾服務,52,停車場地,新竹縣關西鎮第二停車場,24.78919716994803,121.18415007552542
J,新竹縣,民眾服務,52,停車場地,新竹縣停車場,24.833435213614617,121.01345324992666
J,新竹縣,民眾服務,52,停車場地,新竹縣公有停車場,24.831965293178165,121.01159935299177
J,新竹縣,民眾服務,52,停車場地,新竹縣停車場,24.806866184885752,121.0394052691439
J,新竹縣,民眾服務,52,停車場地,新竹縣華興立體停車場,24.8388999798524,121.0016893039453
J,新竹縣,民眾服務,52,停車場地,新竹縣停車場,24.83460514712136,121.00872187589452
J,新竹縣,民眾服務,52,停車場地,新竹縣停車場,24.864678059070993,120.98909877243042
J,新竹縣,民眾服務,52,停車場地,新竹縣來伯停車場,24.704284400608064,121.18132988601893
J,新竹縣,民眾服務,52,停車場地,新竹縣湖口服務區北上停車場,24.861263425958885,121.01187576270725
J,新竹縣,民眾服務,52,停車場地,新竹縣信義公有停車場,24.738516835091637,121.09005465884908
J,新竹縣,民眾服務,52,停車場地,新竹縣停車場,24.772301337463393,121.05489497177544
J,新竹縣,民眾服務,52,停車場地,新竹縣停車場,24.832169574457303,121.00644802549813
J,新竹縣,民眾服務,52,停車場地,新竹縣竹北市公有停六停車場,24.83027795161305,121.01379832445251
J,新竹縣,民眾服務,52,停車場地,新竹縣寶山高爾夫俱樂部停車場,24.733783559552116,120.9692481462423
J,新竹縣,民眾服務,52,停車場地,新竹縣寶山休息站,24.755852027054182,121.02555326377404
J,新竹縣,民眾服務,52,停車場地,新竹縣新竹貨運公司停車場,24.866187317444727,120.98230957053498
J,新竹縣,民眾服務,52,停車場地,新竹縣湖口服務區南下停車場,24.85741236399658,121.00889466667944
J,新竹縣,民眾服務,52,停車場地,新竹縣簡易停車場,24.910832754220895,120.96720264712299
J,新竹縣,民眾服務,52,停車場地,新竹縣北崙公有收費停車場,24.83316804162019,121.0081700906142
J,新竹縣,民眾服務,52,停車場地,新竹縣停車場,24.824205145585292,121.01357140220367
J,新竹縣,民眾服務,52,停車場地,新竹縣停車場,24.792381579666046,121.17805549504175
J,新竹縣,民眾服務,52,停車場地,新竹縣停車場,24.7238654593904,121.04509127373818
J,新竹縣,民眾服務,52,停車場地,新竹縣停車場,24.820479008057966,121.01335919673042
J,新竹縣,民眾服務,52,停車場地,新竹縣停車場,24.910769846848055,120.97637680974088
J,新竹縣,民眾服務,52,停車場地,新竹縣高鐵新竹站停車場,24.809496916284534,121.04013732329327
J,新竹縣,民眾服務,52,停車場地,新竹縣停車場,24.701690994836717,121.05791473230927
J,新竹縣,民眾服務,52,停車場地,新竹縣停車場,24.820175066561855,121.02266396519539
J,新竹縣,民眾服務,52,停車場地,新竹縣停車場,24.83934854369774,121.00073185295697
J,新竹縣,民眾服務,52,停車場地,新竹縣芎林鄉停車場,24.77350158963585,121.08562631161374
J,新竹縣,民眾服務,52,停車場地,新竹縣停車場,24.823209070988156,121.01546562005049
J,新竹縣,民眾服務,52,停車場地,新竹縣公有停車場,24.828484948315342,121.01129547614981
J,新竹縣,民眾服務,52,停車場地,新竹縣新社公有零售市場停車場,24.840888225985484,120.99873400111224
J,新竹縣,民眾服務,52,停車場地,新竹縣老街第二停車場,24.87682960326748,121.05211466887464
J,新竹縣,民眾服務,52,停車場地,新竹縣停車場,24.844622866561114,121.00496526220076
J,新竹縣,民眾服務,52,停車場地,新竹縣停車場,24.917123931200777,120.99001157328229
J,新竹縣,民眾服務,52,停車場地,新竹縣停車場,24.833734620374862,121.01332517990625
J,新竹縣,民眾服務,52,停車場地,新竹縣運動公園停車場,24.822597917449723,121.0237178024344
J,新竹縣,民眾服務,52,停車場地,新竹縣立成停車場,24.704884751547283,121.18063888005182
J,新竹縣,民眾服務,52,停車場地,新竹縣大安醫院停車場,24.834391591934732,121.0080431066927
J,新竹縣,民眾服務,52,停車場地,紅毛港遊憩區停車場,24.909885993887407,120.97119699999917
J,新竹縣,民眾服務,52,停車場地,小叮噹科學遊樂區停車場,24.868677997996233,120.9793749999947
J,新竹縣,民眾服務,52,停車場地,天德堂停車場,24.867016996429243,120.97965500000366
J,新竹縣,民眾服務,52,停車場地,湖口公有停車場,24.901728996586687,121.04887899998977
J,新竹縣,民眾服務,52,停車場地,湖口第一停車場,24.903562002766332,121.04437799998739
J,新竹縣,民眾服務,52,停車場地,口湖都市計畫停車場,24.88886200704653,121.06395399999022
J,新竹縣,民眾服務,52,停車場地,義民廟停車場,24.84259500760178,121.03672699999036
J,新竹縣,民眾服務,52,停車場地,立體停車場,24.839085002827815,121.00153299999785
J,新竹縣,民眾服務,52,停車場地,停六停車場,24.830699010069228,121.01260899999416
J,新竹縣,民眾服務,52,停車場地,東元醫院停車場,24.824335004823954,121.01366499999577
J,新竹縣,民眾服務,52,停車場地,新竹縣體育場停車場,24.81971100476172,121.01896999999452
J,新竹縣,民眾服務,52,停車場地,公有停車場,24.821749997593795,121.02381499998903
J,新竹縣,民眾服務,52,停車場地,巴黎廣場(新竹縣立停車場),24.826068998597982,121.0088949999917
J,新竹縣,民眾服務,52,停車場地,六福村主題遊樂園停車場,24.821047997811768,121.18505099996355
J,新竹縣,民眾服務,52,停車場地,關西第二停車場,24.78910600883018,121.1839479999821
J,新竹縣,民眾服務,52,停車場地,公有停車場,24.801602004964852,121.1688539999795
J,新竹縣,民眾服務,52,停車場地,芎林停車場,24.773038999477233,121.08345099997987
J,新竹縣,民眾服務,52,停車場地,停二平面停車場,24.729976004202705,121.08850199998591
J,新竹縣,民眾服務,52,停車場地,信義路平面停車場,24.73868400296114,121.0901509999804
J,新竹縣,民眾服務,52,停車場地,信義路停車場,24.737915998064867,121.09020199998001
J,新竹縣,民眾服務,52,停車場地,仁愛路停車場,24.735431009569545,121.09057999998642
J,新竹縣,民眾服務,52,停車場地,騎龍古道停車場,24.68558999397461,121.13873899996389
J,新竹縣,民眾服務,52,停車場地,內灣停車場,24.705156996297017,121.17683899996416
J,新竹縣,民眾服務,52,停車場地,北埔鄉停車場,24.703508997171493,121.05614399998501
J,新竹縣,民眾服務,52,停車場地,五指山風景區停車場仙洞入口處,24.640196007763677,121.08801199999061
J,新竹縣,民眾服務,52,停車場地,五指山風景區停車場五指山登山口,24.642849004946008,121.08968199998124
J,新竹縣,民眾服務,52,停車場地,峨眉湖停車場,24.678941001149703,120.98032700000059
J,新竹縣,民眾服務,52,停車場地,獅山停車場水濂洞處,24.654470001604615,121.0258989999959
J,新竹縣,民眾服務,52,停車場地,清泉風景區停車場,24.572840009429157,121.1054599999843
J,新竹縣,民眾服務,53,服務性設施,亞太行動寬頻電信-新竹新豐加盟服務中心,24.865931004448957,120.99253799999794
J,新竹縣,民眾服務,53,服務性設施,中華電信-新豐服務中心,24.877045008058285,120.99293299999499
J,新竹縣,民眾服務,53,服務性設施,威寶電信-新豐新興特約服務中心,24.86491900611369,120.99196399999352
J,新竹縣,民眾服務,53,服務性設施,大眾電信-新豐專賣店,24.869958007985662,120.99625899999546
J,新竹縣,民眾服務,53,服務性設施,大眾電信(震旦通訊)-新豐站前店,24.870608008149937,120.99732699999895
J,新竹縣,民眾服務,53,服務性設施,新竹縣新豐鄉公所,24.900540011531614,120.98543899999841
J,新竹縣,民眾服務,53,服務性設施,新竹縣立圖書館新豐分館,24.9013120056964,120.98755799999745
J,新竹縣,民眾服務,53,服務性設施,新竹縣新豐鄉新庄子公有零售市場,24.900608995769634,120.98527000000206
J,新竹縣,民眾服務,53,服務性設施,新竹縣新豐鄉清潔隊,24.900608995769634,120.98527000000206
J,新竹縣,民眾服務,53,服務性設施,新竹縣新豐鄉立托兒所,24.900608995769634,120.98527000000206
J,新竹縣,民眾服務,53,服務性設施,亞太行動寬頻電信-湖口中山加盟服務中心,24.902029009638735,121.04406999998947
J,新竹縣,民眾服務,53,服務性設施,台灣省自來水湖口營運所,24.875131007044576,121.01295699999605
J,新竹縣,民眾服務,53,服務性設施,中華電信-湖口服務中心,24.90119799553178,121.04775199998356
J,新竹縣,民眾服務,53,服務性設施,大眾電信(震旦通訊)-湖口中正店,24.902327008190902,121.04534699998726
J,新竹縣,民眾服務,53,服務性設施,湖口老街,24.87645800708533,121.05606499999307
J,新竹縣,民眾服務,53,服務性設施,新竹縣湖口鄉公所,24.900610997548114,121.04682099998298
J,新竹縣,民眾服務,53,服務性設施,新竹縣立圖書館湖口分館,24.901626008461026,121.04408799999288
J,新竹縣,民眾服務,53,服務性設施,新竹縣湖口鄉立托兒所,24.901010010496254,121.04793899999132
J,新竹縣,民眾服務,53,服務性設施,新竹縣湖口鄉清潔隊,24.88145199942572,121.08471599997804
J,新竹縣,民眾服務,53,服務性設施,台灣省自來水新埔營運所,24.83000700721174,121.08034899998374
J,新竹縣,民眾服務,53,服務性設施,中華電信-新埔服務中心,24.827148011643693,121.08307199998708
J,新竹縣,民眾服務,53,服務性設施,新竹縣新埔鎮公所財政課,24.828039001965003,121.07127999998993
J,新竹縣,民眾服務,53,服務性設施,新竹縣新埔鎮公所財政課,24.828039001965003,121.07127999998993
J,新竹縣,民眾服務,53,服務性設施,新竹縣新埔鎮公所建設課,24.828039001965003,121.07127999998993
J,新竹縣,民眾服務,53,服務性設施,新竹縣新埔鎮公所建設課,24.828039001965003,121.07127999998993
J,新竹縣,民眾服務,53,服務性設施,新竹縣新埔鎮公所農業課,24.828039001965003,121.07127999998993
J,新竹縣,民眾服務,53,服務性設施,新竹縣新埔鎮公所農業課,24.828039001965003,121.07127999998993
J,新竹縣,民眾服務,53,服務性設施,新竹縣新埔鎮公所社會課,24.828039001965003,121.07127999998993
J,新竹縣,民眾服務,53,服務性設施,新竹縣新埔鎮公所社會課,24.828039001965003,121.07127999998993
J,新竹縣,民眾服務,53,服務性設施,新竹縣新埔鎮公所人事室,24.828039001965003,121.07127999998993
J,新竹縣,民眾服務,53,服務性設施,新竹縣新埔鎮公所人事室,24.828039001965003,121.07127999998993
J,新竹縣,民眾服務,53,服務性設施,新竹縣新埔鎮公所主計室,24.828039001965003,121.07127999998993
J,新竹縣,民眾服務,53,服務性設施,新竹縣新埔鎮公所主計室,24.828039001965003,121.07127999998993
J,新竹縣,民眾服務,53,服務性設施,新竹縣新埔鎮公所政風室,24.828039001965003,121.07127999998993
J,新竹縣,民眾服務,53,服務性設施,新竹縣新埔鎮公所政風室,24.828039001965003,121.07127999998993
J,新竹縣,民眾服務,53,服務性設施,新竹縣新埔鎮公所行政室,24.828039001965003,121.07127999998993
J,新竹縣,民眾服務,53,服務性設施,新竹縣新埔鎮公所行政室,24.828039001965003,121.07127999998993
J,新竹縣,民眾服務,53,服務性設施,新竹縣新埔鎮公所,24.827971996655776,121.07145099997767
J,新竹縣,民眾服務,53,服務性設施,新竹縣立圖書館新埔分館,24.827103996901318,121.07987099998064
J,新竹縣,民眾服務,53,服務性設施,新竹縣新埔鎮第一公有零售市場,24.828039001965003,121.07127999998993
J,新竹縣,民眾服務,53,服務性設施,新竹縣新埔鎮第一公有零售市場,24.828039001965003,121.07127999998993
J,新竹縣,民眾服務,53,服務性設施,新竹縣新埔鎮立托兒所,24.828039001965003,121.07127999998993
J,新竹縣,民眾服務,53,服務性設施,新竹縣新埔鎮立托兒所,24.828039001965003,121.07127999998993
J,新竹縣,民眾服務,53,服務性設施,新竹縣新埔鎮清潔隊,24.828039001965003,121.07127999998993
J,新竹縣,民眾服務,53,服務性設施,新竹縣新埔鎮清潔隊,24.828039001965003,121.07127999998993
J,新竹縣,民眾服務,53,服務性設施,亞太行動寬頻電信-竹北中正東加盟服務中心,24.83531399891292,121.01506799999711
J,新竹縣,民眾服務,53,服務性設施,亞太行動寬頻電信-竹北三民加盟服務中心,24.834944996467932,121.00867599999317
J,新竹縣,民眾服務,53,服務性設施,台灣自來水竹北營運所,24.827642008539193,121.01448299999045
J,新竹縣,民眾服務,53,服務性設施,台灣省自來水竹北營運所,24.828319006192746,121.01487599998916
J,新竹縣,民眾服務,53,服務性設施,中華電信-竹北中正西特約服務中心,24.83994699469872,121.00217599999174
J,新竹縣,民眾服務,53,服務性設施,中華電信-竹北中正特約服務中心,24.835052003796296,121.01456299999312
J,新竹縣,民眾服務,53,服務性設施,中華電信-竹北服務中心,24.82852500610365,121.01105999999308
J,新竹縣,民眾服務,53,服務性設施,威寶電信-竹北三民特約服務中心,24.834853994965187,121.00935899998976
J,新竹縣,民眾服務,53,服務性設施,威寶電信-竹北中正東特約服務中心,24.83495299851174,121.01514699998964
J,新竹縣,民眾服務,53,服務性設施,大眾電信-竹北專賣店,24.835396000067362,121.01431599998817
J,新竹縣,民眾服務,53,服務性設施,大眾電信-新竹竹北店,24.826493998178304,121.01020899999226
J,新竹縣,民眾服務,53,服務性設施,新竹縣竹北市公所,24.839660006074112,121.00440999999272
J,新竹縣,民眾服務,53,服務性設施,新竹縣立圖書館竹北分館,24.839771001988343,121.00370999999322
J,新竹縣,民眾服務,53,服務性設施,新竹縣竹北市清潔隊,24.83966600144279,121.00412599999802
J,新竹縣,民眾服務,53,服務性設施,新竹縣竹北市立托兒所,24.83966600144279,121.00412599999802
J,新竹縣,民眾服務,53,服務性設施,中華電信-關西服務中心,24.792623995349725,121.17593899996442
J,新竹縣,民眾服務,53,服務性設施,新竹縣關西鎮公所,24.792320005435204,121.17572199997109
J,新竹縣,民眾服務,53,服務性設施,新竹縣立圖書館關西分館,24.791854001659694,121.17328899997396
J,新竹縣,民眾服務,53,服務性設施,新竹縣立圖書館關西分館,24.791854001659694,121.17328899997396
J,新竹縣,民眾服務,53,服務性設施,新竹縣關西鎮清潔隊,24.792198997720877,121.17585899996762
J,新竹縣,民眾服務,53,服務性設施,新竹縣關西鎮關西公有零售市場,24.792198997720877,121.17585899996762
J,新竹縣,民眾服務,53,服務性設施,新竹縣關西鎮立托兒所,24.792198997720877,121.17585899996762
J,新竹縣,民眾服務,53,服務性設施,新竹縣芎林鄉公所,24.77320700438168,121.08200399998263
J,新竹縣,民眾服務,53,服務性設施,新竹縣芎林鄉公所,24.77320700438168,121.08200399998263
J,新竹縣,民眾服務,53,服務性設施,新竹縣立圖書館芎林分館,24.77451399411352,121.08237599997642
J,新竹縣,民眾服務,53,服務性設施,新竹縣立圖書館芎林分館,24.77451399411352,121.08237599997642
J,新竹縣,民眾服務,53,服務性設施,新竹縣芎林鄉立托兒所,24.773329008223968,121.08187899999079
J,新竹縣,民眾服務,53,服務性設施,新竹縣芎林鄉清潔隊,24.773329008223968,121.08187899999079
J,新竹縣,民眾服務,53,服務性設施,新竹縣寶山鄉公所,24.765589999801158,120.99113199999998
J,新竹縣,民眾服務,53,服務性設施,新竹縣立圖書館寶山分館,24.765307998081713,120.99253499999296
J,新竹縣,民眾服務,53,服務性設施,新竹縣寶山鄉清潔隊,24.765523010245396,120.99126799999581
J,新竹縣,民眾服務,53,服務性設施,新竹縣寶山鄉清潔隊,24.765523010245396,120.99126799999581
J,新竹縣,民眾服務,53,服務性設施,新竹縣寶山鄉立托兒所,24.765523010245396,120.99126799999581
J,新竹縣,民眾服務,53,服務性設施,新竹縣寶山鄉立托兒所,24.765523010245396,120.99126799999581
J,新竹縣,民眾服務,53,服務性設施,亞太行動寬頻電信-新竹竹東加盟服務中心,24.73654899767127,121.09227399997955
J,新竹縣,民眾服務,53,服務性設施,亞太行動寬頻電信-竹東長春加盟服務中心,24.743136004480977,121.08386599998555
J,新竹縣,民眾服務,53,服務性設施,台灣自來水竹東營運所,24.735228001469974,121.09158899998079
J,新竹縣,民眾服務,53,服務性設施,台灣省自來水竹東營運所,24.735722009516405,121.0912059999864
J,新竹縣,民眾服務,53,服務性設施,台灣省自來水寶山給水廠,24.754949002481652,121.03505899999405
J,新竹縣,民眾服務,53,服務性設施,中華電信-竹東服務中心,24.73609799869604,121.0922249999785
J,新竹縣,民眾服務,53,服務性設施,中華電信-竹東長春特約服務中心,24.742693007123652,121.0846859999889
J,新竹縣,民眾服務,53,服務性設施,威寶電信-竹東東寧特約服務中心,24.73842200254004,121.08684799998011
J,新竹縣,民眾服務,53,服務性設施,大眾電信-竹東專賣店,24.73861901025571,121.0885189999843
J,新竹縣,民眾服務,53,服務性設施,大眾電信(震旦通訊)-竹東東寧店,24.736931006478716,121.08852799998787
J,新竹縣,民眾服務,53,服務性設施,大眾電信(震旦通訊)-竹東長春店,24.743597001789684,121.08346099998687
J,新竹縣,民眾服務,53,服務性設施,新竹縣竹東鎮公所,24.73659099546019,121.09170399997488
J,新竹縣,民眾服務,53,服務性設施,新竹縣竹東鎮公所,24.73659099546019,121.09170399997488
J,新竹縣,民眾服務,53,服務性設施,新竹縣立圖書館竹東分館,24.73422500544741,121.08426099998299
J,新竹縣,民眾服務,53,服務性設施,新竹縣竹東鎮公用事業管理所,24.73659499726864,121.09170099997975
J,新竹縣,民眾服務,53,服務性設施,新竹縣竹東鎮公用事業管理所,24.73659499726864,121.09170099997975
J,新竹縣,民眾服務,53,服務性設施,新竹縣竹東鎮清潔隊,24.73659499726864,121.09170099997975
J,新竹縣,民眾服務,53,服務性設施,新竹縣竹東鎮清潔隊,24.73659499726864,121.09170099997975
J,新竹縣,民眾服務,53,服務性設施,新竹縣竹東鎮立體育場,24.73659499726864,121.09170099997975
J,新竹縣,民眾服務,53,服務性設施,新竹縣竹東鎮立體育場,24.73659499726864,121.09170099997975
J,新竹縣,民眾服務,53,服務性設施,新竹縣竹東鎮立托兒所,24.73659499726864,121.09170099997975
J,新竹縣,民眾服務,53,服務性設施,新竹縣竹東鎮立托兒所,24.73659499726864,121.09170099997975
J,新竹縣,民眾服務,53,服務性設施,新竹縣橫山鄉公所,24.71685599449242,121.1416879999625
J,新竹縣,民眾服務,53,服務性設施,新竹縣立圖書館橫山分館,24.715829001561406,121.14307199997985
J,新竹縣,民眾服務,53,服務性設施,新竹縣橫山鄉立托兒所,24.716881999087047,121.14157299997571
J,新竹縣,民眾服務,53,服務性設施,新竹縣橫山鄉清潔隊,24.71688199908038,121.14157499997035
J,新竹縣,民眾服務,53,服務性設施,中華電信-北埔服務中心,24.70028099887991,121.05499899998667
J,新竹縣,民眾服務,53,服務性設施,北埔老街,24.70020000814384,121.05737899999211
J,新竹縣,民眾服務,53,服務性設施,新竹縣北埔鄉公所,24.702075002809742,121.05648799999253
J,新竹縣,民眾服務,53,服務性設施,新竹縣立圖書館北埔分館,24.700384003536545,121.05537299998977
J,新竹縣,民眾服務,53,服務性設施,新竹縣北埔鄉清潔隊,24.701994996996106,121.05633299998543
J,新竹縣,民眾服務,53,服務性設施,新竹縣尖石鄉立托兒所,24.70088100872715,121.0592729999943
J,新竹縣,民眾服務,53,服務性設施,新竹縣峨眉鄉公所,24.689347008505404,121.01921999999364
J,新竹縣,民眾服務,53,服務性設施,新竹縣立圖書館峨眉分館,24.688808002671646,121.0195779999935
J,新竹縣,民眾服務,53,服務性設施,新竹縣立圖書館峨眉分館,24.688808002671646,121.0195779999935
J,新竹縣,民眾服務,53,服務性設施,新竹縣峨眉鄉立托兒所,24.686146998358225,121.01725499998912
J,新竹縣,民眾服務,53,服務性設施,新竹縣立圖書館尖石分館,24.704071996471228,121.20074599996121
J,新竹縣,民眾服務,53,服務性設施,新竹縣尖石鄉公所,24.705160004507164,121.20133699997413
J,新竹縣,民眾服務,53,服務性設施,新竹縣立圖書館五峰分館,24.634606006501457,121.1198559999835
J,新竹縣,民眾服務,53,服務性設施,新竹縣五峰鄉公所,24.633233007369537,121.11856199998417
J,新竹縣,民眾服務,53,服務性設施,新竹縣五峰鄉立托兒所,24.632055998834318,121.11963599997347
J,新竹縣,民眾服務,57,行政機關,新竹縣芎林鄉公所,24.773254208489753,121.08189892542465
J,新竹縣,民眾服務,57,行政機關,新竹縣新豐鄉公所,24.900810627299443,120.98532575663776
J,新竹縣,民眾服務,57,行政機關,新竹縣政府稅捐稽徵處總局,24.825091736147957,121.01460910747075
J,新竹縣,民眾服務,57,行政機關,新竹縣高速公路局北區工程處,24.80131898218861,121.1674159359272
J,新竹縣,民眾服務,57,行政機關,新竹縣湖口鄉戶政事務所,24.904642749014105,121.04394600171021
J,新竹縣,民眾服務,57,行政機關,新竹縣選舉委員會,24.827310381825146,121.01481640048638
J,新竹縣,民眾服務,57,行政機關,新竹縣糧食局倉庫,24.90439433285093,121.04580068249048
J,新竹縣,民眾服務,57,行政機關,新竹縣新豐鄉垃圾掩埋場,24.881362254925005,120.95469877311878
J,新竹縣,民眾服務,57,行政機關,新竹縣家庭教育中心,24.84093915163702,121.00118929975282
J,新竹縣,民眾服務,57,行政機關,新竹縣寶山鄉戶政事務所,24.76540700927149,120.99088540873147
J,新竹縣,民眾服務,57,行政機關,新竹縣交通部公路總局新竹區監理所,24.82233366215875,121.07802825133516
J,新竹縣,民眾服務,57,行政機關,新竹縣竹東鎮戶政事務所,24.737200059721406,121.08687905709115
J,新竹縣,民眾服務,57,行政機關,新竹縣新豐鄉民代表會,24.900731472811387,120.9851778560789
J,新竹縣,民眾服務,57,行政機關,新竹縣臺灣新竹地方法院竹東簡易庭,24.734984667300495,121.09323751739004
J,新竹縣,民眾服務,57,行政機關,新竹縣戒毒所,24.89552286592607,121.07083983923425
J,新竹縣,民眾服務,57,行政機關,新竹縣北埔鄉民代表會,24.702159999564024,121.05625808328736
J,新竹縣,民眾服務,57,行政機關,新竹縣政府警察局少年警察隊,24.82709830011087,121.01053807497728
J,新竹縣,民眾服務,57,行政機關,新竹縣新埔鎮戶政事務所,24.827316305342546,121.0743952378829
J,新竹縣,民眾服務,57,行政機關,新竹縣後備軍人服務中心,24.902742407934863,121.051551041349
J,新竹縣,民眾服務,57,行政機關,新竹縣財政部臺灣省北區國稅局新竹縣分局,24.827629784002344,121.01050408762569
J,新竹縣,民眾服務,57,行政機關,新竹縣竹北市民代表會,24.83941273082658,121.00427835746221
J,新竹縣,民眾服務,57,行政機關,新竹縣新湖地政事務所,24.904965698973385,121.04379864660973
J,新竹縣,民眾服務,57,行政機關,新竹縣北埔鄉公所,24.702082460917286,121.0563797202272
J,新竹縣,民眾服務,57,行政機關,新竹縣尖石鄉公所,24.70512319157453,121.20140992227276
J,新竹縣,民眾服務,57,行政機關,新竹縣芎林鄉戶政事務所,24.774747942631848,121.08115292629115
J,新竹縣,民眾服務,57,行政機關,新竹縣竹東鎮公所,24.736669823568974,121.09162062966972
J,新竹縣,民眾服務,57,行政機關,新竹縣政府地政局,24.826995618100366,121.01274625838877
J,新竹縣,民眾服務,57,行政機關,新竹縣竹東鎮垃圾掩埋場,24.732259540473496,121.07375695990977
J,新竹縣,民眾服務,57,行政機關,新竹縣橫山鄉垃圾掩埋場,24.726433724291184,121.175271190448
J,新竹縣,民眾服務,57,行政機關,新竹縣糧食局倉庫,24.701282032733776,121.05500869091033
J,新竹縣,民眾服務,57,行政機關,新竹縣政府警察局刑事警察隊,24.8272507526309,121.01114305021696
J,新竹縣,民眾服務,57,行政機關,新竹縣新埔鎮調解委員會,24.828445276621416,121.07162766266862
J,新竹縣,民眾服務,57,行政機關,新竹縣財政部臺灣省北區國稅局竹東稽徵所,24.736780289278556,121.09284358781197
J,新竹縣,民眾服務,57,行政機關,新竹縣峨眉鄉公所,24.688851874081482,121.01961273612497
J,新竹縣,民眾服務,57,行政機關,新竹縣政府,24.82683256223338,121.0130668855007
J,新竹縣,民眾服務,57,行政機關,新竹縣新埔鎮公所,24.82800165489186,121.0713333832916
J,新竹縣,民眾服務,57,行政機關,新竹縣關西鎮戶政事務所,24.79688257731496,121.17515006511066
J,新竹縣,民眾服務,57,行政機關,新竹縣竹東鎮清潔隊,24.73569665490016,121.09205848152136
J,新竹縣,民眾服務,57,行政機關,新竹縣縣議會,24.826105071799496,121.01405622759066
J,新竹縣,民眾服務,57,行政機關,新竹縣竹東地政事務所,24.73624988130493,121.0914195400095
J,新竹縣,民眾服務,57,行政機關,新竹縣新豐鄉污水處理場,24.884533575934626,120.9539198992523
J,新竹縣,民眾服務,57,行政機關,新竹縣尖石鄉戶政事務所,24.70581612831449,121.20269406440632
J,新竹縣,民眾服務,57,行政機關,新竹縣新豐安檢所,24.91000929246717,120.970980670468
J,新竹縣,民眾服務,57,行政機關,新竹縣教育研究發展暨網路中心,24.73350974661856,121.09378872917523
J,新竹縣,民眾服務,57,行政機關,新竹縣新竹林區管理處林務局竹東工作站,24.73493649544611,121.09373866995132
J,新竹縣,民眾服務,57,行政機關,新竹縣法務部調查局,24.827735332863778,121.0150641650412
J,新竹縣,民眾服務,57,行政機關,新竹縣身心障礙綜合福利服務中心,24.837018805295536,121.01819025543571
J,新竹縣,民眾服務,57,行政機關,新竹縣竹東鎮學生午餐供應中心,24.73348791584182,121.09545139996854
J,新竹縣,民眾服務,57,行政機關,新竹縣環境保護局湖口檢測站,24.91334458811067,121.02732142807942
J,新竹縣,民眾服務,57,行政機關,新竹縣新埔鎮民意代表會議事堂,24.82813277803268,121.0712654132947
J,新竹縣,民眾服務,57,行政機關,新竹縣衛生局,24.826021368701724,121.01510976226008
J,新竹縣,民眾服務,57,行政機關,新竹縣竹北市公所,24.839698391100228,121.0041617655793
J,新竹縣,民眾服務,57,行政機關,新竹縣新竹地院竹北簡易庭,24.827614037287034,121.01566421737206
J,新竹縣,民眾服務,57,行政機關,新竹縣政府警察局民防管制中心,24.826812952232082,121.0115139411852
J,新竹縣,民眾服務,57,行政機關,新竹縣山腳漁港安檢所,24.87369748321944,120.948022101967
J,新竹縣,民眾服務,57,行政機關,新竹縣坡頭漁港安檢所,24.92601148695561,120.97421704270072
J,新竹縣,民眾服務,57,行政機關,新竹縣寶山鄉公所,24.765469189639845,120.99124764808282
J,新竹縣,民眾服務,57,行政機關,新竹縣竹北地政事務所,24.833393991697168,121.01270685429749
J,新竹縣,民眾服務,57,行政機關,新竹縣竹北市清潔隊,24.83976713002288,121.00398282349471
J,新竹縣,民眾服務,57,行政機關,新竹縣環境保護局,24.828149338895816,121.0136258684607
J,新竹縣,民眾服務,57,行政機關,新竹縣關西鎮民代表會,24.79233735712866,121.1758061631834
J,新竹縣,民眾服務,57,行政機關,新竹縣新竹鄉橫山鄉戶政事務所,24.716466001566705,121.14148394005464
J,新竹縣,民眾服務,57,行政機關,新竹縣湖口鄉民代表會,24.900985718180664,121.04805698030509
J,新竹縣,民眾服務,57,行政機關,新竹縣內政部土地重劃工程局,24.900237508300076,121.0416104800927
J,新竹縣,民眾服務,57,行政機關,新竹縣寶山水庫管理中心,24.748191344093307,121.04125761262907
J,新竹縣,民眾服務,57,行政機關,新竹縣農委會桃園區農業改良場五峰工作站,24.61161000830783,121.15732027730957
J,新竹縣,民眾服務,57,行政機關,新竹縣經濟部水利署北區水資源局寶山第二水庫管理,24.71662807665796,121.0423524676586
J,新竹縣,民眾服務,57,行政機關,新竹縣文化局,24.82992576578756,121.01260584590412
J,新竹縣,民眾服務,57,行政機關,新竹縣鳳港安檢所,24.90402234453303,120.96825066391487
J,新竹縣,民眾服務,57,行政機關,新竹縣峨嵋鄉戶政事務所,24.6882104003022,121.02158852869356
J,新竹縣,民眾服務,57,行政機關,新竹縣觀光旅遊局,24.82675245128544,121.01319518993388
J,新竹縣,民眾服務,57,行政機關,新竹縣新埔鎮民代表會,24.82795438792418,121.07154376349867
J,新竹縣,民眾服務,57,行政機關,新竹縣橫山鄉民代表會,24.716797807973204,121.14157877956313
J,新竹縣,民眾服務,57,行政機關,新竹縣湖口鄉公所,24.90088837684843,121.04799980588885
J,新竹縣,民眾服務,57,行政機關,新竹縣竹北市戶政事務所,24.839325688199718,121.00423264396935
J,新竹縣,民眾服務,57,行政機關,新竹縣關西鎮公所,24.792455208672624,121.17576140756739
J,新竹縣,民眾服務,57,行政機關,新竹縣石門農田水利會湖口工作站,24.877567071627787,121.04801524787548
J,新竹縣,民眾服務,57,行政機關,新竹縣農委會農業試驗所關西工作站,24.756504136052015,121.18547211944336
J,新竹縣,民眾服務,57,行政機關,新竹縣寶山鄉清潔隊,24.765427181419863,120.99117671318801
J,新竹縣,民眾服務,57,行政機關,新竹縣五峰鄉公所,24.63216604249931,121.1197826242567
J,新竹縣,民眾服務,57,行政機關,新竹縣石門水庫管理局水文站玉峰分站,24.659654747186153,121.30117302836958
J,新竹縣,民眾服務,57,行政機關,新竹縣五峰鄉戶政事務所,24.631686741265156,121.11980837268683
J,新竹縣,民眾服務,57,行政機關,新竹縣新豐鄉戶政事務所,24.901120539312462,120.98732093621209
J,新竹縣,民眾服務,57,行政機關,新竹縣新豐鄉湖口鄉合建垃圾焚化場,24.912312813409695,121.02543384190805
J,新竹縣,民眾服務,57,行政機關,新竹縣新竹鄉橫山鄉公所,24.71685748802181,121.14152890157648
J,新竹縣,民眾服務,57,行政機關,新竹縣尖石鄉民代表會,24.70509576090874,121.20135102265291
J,新竹縣,民眾服務,57,行政機關,新竹縣湖口鄉垃圾處理廠,24.86622611578315,121.0527114356956
J,新竹縣,民眾服務,57,行政機關,新竹縣消防局新豐消防分隊,24.901430009392545,120.9871609999985
J,新竹縣,民眾服務,57,行政機關,新竹縣警察局山崎派出所,24.869920994319823,120.9961989999964
J,新竹縣,民眾服務,57,行政機關,新竹縣警察局新豐分駐所,24.900889009911584,120.98722999999994
J,新竹縣,民眾服務,57,行政機關,新竹縣警察局後湖派出所,24.932759995513866,121.01026699999109
J,新竹縣,民眾服務,57,行政機關,新竹縣新豐鄉衛生所,24.900257008245845,120.98711099999632
J,新竹縣,民眾服務,57,行政機關,新竹縣新豐鄉鄉民代表會,24.900540011531614,120.98543899999841
J,新竹縣,民眾服務,57,行政機關,新竹縣新豐鄉戶政事務所,24.88401399691731,120.99387199999674
J,新竹縣,民眾服務,57,行政機關,誠正中學,24.866498002608136,120.9803909999941
J,新竹縣,民眾服務,57,行政機關,新竹縣警察局湖口分駐所,24.901785995144063,121.04388199998517
J,新竹縣,民眾服務,57,行政機關,新竹縣警察局湖口分駐所,24.901785995144063,121.04388199998517
J,新竹縣,民眾服務,57,行政機關,新竹縣消防局湖口消防分隊,24.90470300491254,121.04356799998932
J,新竹縣,民眾服務,57,行政機關,新竹縣消防局新工消防分隊,24.87177500612814,121.01719599999657
J,新竹縣,民眾服務,57,行政機關,新竹縣警察局湖鏡派出所,24.877938000205425,121.0589659999881
J,新竹縣,民眾服務,57,行政機關,新竹縣警察局新工派出所,24.871666003348064,121.0170489999881
J,新竹縣,民眾服務,57,行政機關,新竹縣教育會,24.899128995412706,121.03878799998655
J,新竹縣,民眾服務,57,行政機關,職業訓練局新竹工業區就業服務中心,24.871997997672377,121.00991599999814
J,新竹縣,民眾服務,57,行政機關,臺灣土地銀行-湖口分行,24.90146000923654,121.04657399999472
J,新竹縣,民眾服務,57,行政機關,台灣土地銀行-新工分行,24.873786004076436,121.01112199998892
J,新竹縣,民眾服務,57,行政機關,新竹縣湖口鄉戶政事務所,24.901695007906543,121.04383199999569
J,新竹縣,民眾服務,57,行政機關,新竹縣湖口鄉鄉民代表會,24.901242998074327,121.04791999998817
J,新竹縣,民眾服務,57,行政機關,新竹縣湖口鄉衛生所,24.90097199989655,121.0479699999902
J,新竹縣,民眾服務,57,行政機關,新竹縣新湖地政事務所,24.904968007435585,121.04391599999344
J,新竹縣,民眾服務,57,行政機關,陸軍裝甲兵學校,24.89076900796751,121.08808299998715
J,新竹縣,民眾服務,57,行政機關,新竹縣湖口鄉第一公有零售市場處,24.902792996993966,121.04663999998608
J,新竹縣,民眾服務,57,行政機關,新竹縣消防局新埔消防分隊,24.827571999811838,121.0744649999804
J,新竹縣,民眾服務,57,行政機關,新竹縣警察局新埔派出所,24.827571999811838,121.0744649999804
J,新竹縣,民眾服務,57,行政機關,新竹縣警察局寶石派出所,24.816406010421755,121.07765799998927
J,新竹縣,民眾服務,57,行政機關,新竹縣警察局寶石派出所,24.816406010421755,121.07765799998927
J,新竹縣,民眾服務,57,行政機關,新竹縣警察局褒忠派出所,24.843159999825865,121.03593099998585
J,新竹縣,民眾服務,57,行政機關,新竹縣警察局照門派出所,24.846308997984146,121.119456999973
J,新竹縣,民眾服務,57,行政機關,新竹縣新埔鎮鎮民代表會,24.827944994988815,121.07164599997725
J,新竹縣,民眾服務,57,行政機關,新竹縣新埔鎮鎮民代表會,24.827944994988815,121.07164599997725
J,新竹縣,民眾服務,57,行政機關,新竹縣新埔鎮衛生所,24.827905005889257,121.07185399999224
J,新竹縣,民眾服務,57,行政機關,新竹縣警察局新埔分局,24.827571999811838,121.0744649999804
J,新竹縣,民眾服務,57,行政機關,新竹縣新埔鎮戶政事務所,24.827365002701487,121.07542299998407
J,新竹縣,民眾服務,57,行政機關,新竹區監理所,24.822344011300427,121.07822199998812
J,新竹縣,民眾服務,57,行政機關,新竹縣警察局六家派出所,24.826764994717024,121.00175999999709
J,新竹縣,民眾服務,57,行政機關,新竹縣警察局竹北派出所,24.838321004288353,121.00488699999869
J,新竹縣,民眾服務,57,行政機關,新竹縣消防局第一消防大隊部,24.821900004821586,121.01150399999106
J,新竹縣,民眾服務,57,行政機關,新竹縣消防局竹北消防分隊,24.821900004821586,121.01150399999106
J,新竹縣,民眾服務,57,行政機關,新竹縣警察局豐田派出所,24.842698000566273,120.96428200000165
J,新竹縣,民眾服務,57,行政機關,新竹縣警察局鳳岡派出所,24.86094599481938,120.96341300000172
J,新竹縣,民眾服務,57,行政機關,中央健康保險局北區分局,24.828079001185923,121.00485899999798
J,新竹縣,民眾服務,57,行政機關,新竹縣中小企業服務中心,24.82711999751577,121.01313199999247
J,新竹縣,民眾服務,57,行政機關,新竹縣立慢性病防治所,24.82613500523921,121.0151649999964
J,新竹縣,民眾服務,57,行政機關,台灣新竹地方法院竹北簡易庭,24.827396005585836,121.0159169999931
J,新竹縣,民眾服務,57,行政機關,農業委員會水產試驗所,24.846265994925734,121.00813299998921
J,新竹縣,民眾服務,57,行政機關,新竹縣政府民政處,24.82711999751577,121.01313199999247
J,新竹縣,民眾服務,57,行政機關,新竹縣政府地政局,24.82711999751577,121.01313199999247
J,新竹縣,民眾服務,57,行政機關,調查局新竹縣調查站,24.8276210023093,121.01510099999649
J,新竹縣,民眾服務,57,行政機關,內政部入出國及移民署專勤事務服務事務大隊新竹縣服務站,24.832912005908053,121.01643299999081
J,新竹縣,民眾服務,57,行政機關,內政部入出國及移民署專勤事務第一大新竹縣專勤隊,24.832912005908053,121.01643299999081
J,新竹縣,民眾服務,57,行政機關,臺灣土地銀行-竹北分行,24.83446500876958,121.01810499999442
J,新竹縣,民眾服務,57,行政機關,合作金庫銀行股份有限公司-竹北分行,24.828914005227904,121.00593499999319
J,新竹縣,民眾服務,57,行政機關,臺灣銀行-六家分行,24.819743997064656,121.02755699999287
J,新竹縣,民眾服務,57,行政機關,新竹縣警察局竹北分局,24.826493999284853,121.00161199999833
J,新竹縣,民眾服務,57,行政機關,新竹縣議會,24.825773008970057,121.0139129999969
J,新竹縣,民眾服務,57,行政機關,新竹縣環境保護局,24.828196005315963,121.01366499999837
J,新竹縣,民眾服務,57,行政機關,新竹縣政府衛生局,24.82613500523921,121.0151649999964
J,新竹縣,民眾服務,57,行政機關,新竹縣竹北市市民代表會,24.839660006074112,121.00440999999272
J,新竹縣,民眾服務,57,行政機關,新竹縣政府文化局,24.828000004568903,121.01029099999444
J,新竹縣,民眾服務,57,行政機關,新竹縣竹北市衛生所,24.83209699812688,121.00682899999302
J,新竹縣,民眾服務,57,行政機關,新竹縣警察局總局,24.82675399944507,121.01123599999052
J,新竹縣,民眾服務,57,行政機關,新竹縣竹北市戶政事務所,24.839616000458292,121.0045089999907
J,新竹縣,民眾服務,57,行政機關,新竹縣竹北地政事務所,24.83341299795572,121.01278899999129
J,新竹縣,民眾服務,57,行政機關,新竹縣政府,24.82711999751577,121.01313199999247
J,新竹縣,民眾服務,57,行政機關,北區國稅局新竹縣分局,24.827453000061983,121.01058199999345
J,新竹縣,民眾服務,57,行政機關,新竹縣選舉委員會,24.827348995255633,121.0149549999926
J,新竹縣,民眾服務,57,行政機關,新竹縣稅捐稽徵處,24.825197009623405,121.01465099999338
J,新竹縣,民眾服務,57,行政機關,新竹縣審計室,24.827668000274265,121.00503499999218
J,新竹縣,民眾服務,57,行政機關,新竹縣消防局,24.827857008649186,121.01151499999253
J,新竹縣,民眾服務,57,行政機關,新竹縣政府教育局家庭教育中心,24.833752007810283,121.01997499998942
J,新竹縣,民眾服務,57,行政機關,新竹市審計室,24.811044003866453,121.03527699998891
J,新竹縣,民眾服務,57,行政機關,交通部中央氣象局新竹氣象站,24.82816400519413,121.01420599999743
J,新竹縣,民眾服務,57,行政機關,交通部中央氣象局新竹氣象站,24.82816400519413,121.01420599999743
J,新竹縣,民眾服務,57,行政機關,新竹縣瓦斯管理處,24.82838900199393,121.01312799998853
J,新竹縣,民眾服務,57,行政機關,新竹縣瓦斯管理處,24.82838900199393,121.01312799998853
J,新竹縣,民眾服務,57,行政機關,新竹縣政府警察局保安警察隊,24.826936001978556,121.01125799999483
J,新竹縣,民眾服務,57,行政機關,新竹縣政府警察局少年警察隊,24.826936001978556,121.01125799999483
J,新竹縣,民眾服務,57,行政機關,新竹縣政府警察局民防管制中心,24.826936001978556,121.01125799999483
J,新竹縣,民眾服務,57,行政機關,新竹縣政府警察局刑事警察大隊,24.826936001978556,121.01125799999483
J,新竹縣,民眾服務,57,行政機關,交通部臺灣鐵路管理局中區供應廠,24.849607000809733,121.01357499999554
J,新竹縣,民眾服務,57,行政機關,新竹肉品市場股份有限公司,24.84164799959176,120.9526810000015
J,新竹縣,民眾服務,57,行政機關,新竹縣竹北市新社公有零售市場處,24.841078004104755,120.99875299999846
J,新竹縣,民眾服務,57,行政機關,新竹縣體育場,24.822334999103834,121.01907099999104
J,新竹縣,民眾服務,57,行政機關,新竹縣婦幼館,24.83383000687403,121.01990799999277
J,新竹縣,民眾服務,57,行政機關,新竹縣政府警察局交通警察隊,24.83383000687403,121.01990799999277
J,新竹縣,民眾服務,57,行政機關,新竹縣政府警察局婦幼警察隊,24.83383000687403,121.01990799999277
J,新竹縣,民眾服務,57,行政機關,新竹縣家畜疾病防治所,24.828498003479975,121.01541399999637
J,新竹縣,民眾服務,57,行政機關,新竹縣家畜疾病防治所,24.828498003479975,121.01541399999637
J,新竹縣,民眾服務,57,行政機關,新竹縣警察局南華派出所,24.763375004177988,121.17226799997509
J,新竹縣,民眾服務,57,行政機關,新竹縣警察局東安派出所,24.790722003367875,121.18090099997022
J,新竹縣,民眾服務,57,行政機關,農業委員會農業試驗所關西工作站,24.75604700194053,121.18456799997432
J,新竹縣,民眾服務,57,行政機關,新竹縣消防局關西消防分隊,24.795221009411826,121.17578999998416
J,新竹縣,民眾服務,57,行政機關,新竹縣警察局關西分駐所,24.789947002462096,121.1767579999744
J,新竹縣,民眾服務,57,行政機關,關西鎮農民活動中心,24.791684006288857,121.17697799997931
J,新竹縣,民眾服務,57,行政機關,新竹縣警察局錦山派出所,24.769548006527202,121.21653799997134
J,新竹縣,民眾服務,57,行政機關,新竹縣警察局坪林派出所,24.801602003748496,121.13805899997755
J,新竹縣,民眾服務,57,行政機關,新竹縣警察局玉山派出所,24.758272996649797,121.20830199995466
J,新竹縣,民眾服務,57,行政機關,新竹縣警察局石光派出所,24.81388900230486,121.12828899997801
J,新竹縣,民眾服務,57,行政機關,國公路警察局第六警察隊竹林分隊,24.806091006202923,121.1631579999779
J,新竹縣,民眾服務,57,行政機關,國防部後備司令部北部地區後備司令部後備903旅,24.82201700364509,121.10819099998272
J,新竹縣,民眾服務,57,行政機關,交通部臺灣區國道高速公路局北區工程處關西工務段,24.801287005319633,121.16878499997812
J,新竹縣,民眾服務,57,行政機關,新竹縣關西鎮戶政事務所,24.797773001211716,121.17334499996541
J,新竹縣,民眾服務,57,行政機關,新竹縣關西鎮鎮民代表會,24.792320005435204,121.17572199997109
J,新竹縣,民眾服務,57,行政機關,新竹縣關西鎮衛生所,24.79160101052937,121.17270199998167
J,新竹縣,民眾服務,57,行政機關,新竹縣消防局芎林消防分隊,24.77461001005386,121.08134299999406
J,新竹縣,民眾服務,57,行政機關,新竹縣警察局芎林分駐所,24.77469300753598,121.08106299998892
J,新竹縣,民眾服務,57,行政機關,新竹縣警察局秀湖派出所,24.733812997017967,121.11840999997295
J,新竹縣,民眾服務,57,行政機關,新竹縣芎林鄉鄉民代表會,24.77320700438168,121.08200399998263
J,新竹縣,民眾服務,57,行政機關,新竹縣芎林鄉鄉民代表會,24.77320700438168,121.08200399998263
J,新竹縣,民眾服務,57,行政機關,新竹縣芎林鄉衛生所,24.777361993689635,121.07787799998398
J,新竹縣,民眾服務,57,行政機關,新竹縣芎林鄉戶政事務所,24.774647008480454,121.0812689999843
J,新竹縣,民眾服務,57,行政機關,新竹縣消防局寶山消防分隊,24.765860011223058,120.99123199999595
J,新竹縣,民眾服務,57,行政機關,新竹縣警察局寶山分駐所,24.765390994681677,120.99098899999883
J,新竹縣,民眾服務,57,行政機關,新竹縣警察局新城派出所,24.73288900336333,120.966414000001
J,新竹縣,民眾服務,57,行政機關,新竹縣警察局楓橋派出所,24.73364400928443,121.02795999999431
J,新竹縣,民眾服務,57,行政機關,農業委員會農業試驗所關西工作站,24.722866001450925,120.98105800000116
J,新竹縣,民眾服務,57,行政機關,新竹縣寶山鄉鄉民代表會,24.764928003199746,120.99046199999998
J,新竹縣,民眾服務,57,行政機關,新竹縣寶山鄉衛生所,24.76679300159257,120.99495199999346
J,新竹縣,民眾服務,57,行政機關,新竹縣寶山鄉戶政事務所,24.76558700960714,120.99112999999804
J,新竹縣,民眾服務,57,行政機關,新竹縣消防局第二消防大隊部,24.735455996930344,121.09323299997877
J,新竹縣,民眾服務,57,行政機關,新竹縣消防局竹東消防分隊,24.735372003225386,121.09344199998684
J,新竹縣,民眾服務,57,行政機關,新竹縣消防局二重消防分隊,24.77282699702644,121.04902899998851
J,新竹縣,民眾服務,57,行政機關,新竹縣警察局竹東派出所,24.73689200340002,121.08675799998295
J,新竹縣,民眾服務,57,行政機關,新竹縣警察局二重埔派出所,24.766062998525737,121.05692499998321
J,新竹縣,民眾服務,57,行政機關,台灣新竹地方法院竹東簡易庭,24.73497000760434,121.0935099999837
J,新竹縣,民眾服務,57,行政機關,工業安全衛生技術服務團,24.776932998539202,121.04029499998443
J,新竹縣,民眾服務,57,行政機關,財團法人工業技術研究院,24.776932998539202,121.04029499998443
J,新竹縣,民眾服務,57,行政機關,水利署中區水資源局,24.72495000609368,121.09026499998123
J,新竹縣,民眾服務,57,行政機關,新竹縣警察局上坪派出所,24.660226002883753,121.12276699997987
J,新竹縣,民眾服務,57,行政機關,竹東鎮立火葬場,24.749565009418657,121.07631099999045
J,新竹縣,民眾服務,57,行政機關,北區國稅局竹東稽徵所,24.736506999753345,121.09290099997747
J,新竹縣,民眾服務,57,行政機關,臺灣土地銀行-工研院分行,24.77431899516107,121.04766399998914
J,新竹縣,民眾服務,57,行政機關,臺灣土地銀行-工研院分行,24.77431899516107,121.04766399998914
J,新竹縣,民眾服務,57,行政機關,合作金庫銀行股份有限公司-竹東分行,24.739097993746874,121.08779799997347
J,新竹縣,民眾服務,57,行政機關,新竹縣政府稅捐稽徵局竹東分局,24.735935993537293,121.09170099997853
J,新竹縣,民眾服務,57,行政機關,新竹縣政府稅捐稽徵局竹東分局,24.735935993537293,121.09170099997853
J,新竹縣,民眾服務,57,行政機關,臺灣土地銀行-竹東分行,24.736568998012157,121.08914099997664
J,新竹縣,民眾服務,57,行政機關,教育部新竹縣聯絡處,24.733461993831188,121.08735999997944
J,新竹縣,民眾服務,57,行政機關,新竹縣竹東鎮衛生所,24.73672200001787,121.09110799997966
J,新竹縣,民眾服務,57,行政機關,新竹縣竹東鎮鎮民代表會,24.73643200969976,121.0914679999852
J,新竹縣,民眾服務,57,行政機關,新竹縣竹東鎮鎮民代表會,24.73643200969976,121.0914679999852
J,新竹縣,民眾服務,57,行政機關,新竹縣警察局竹東分局,24.73689200340002,121.08675799998295
J,新竹縣,民眾服務,57,行政機關,新竹縣竹東鎮戶政事務所,24.737263010727933,121.08691899998489
J,新竹縣,民眾服務,57,行政機關,新竹縣竹東地政事務所,24.73621301078672,121.09169299998845
J,新竹縣,民眾服務,57,行政機關,新竹縣教育研究發展暨網路中心,24.73360500309798,121.09459499998066
J,新竹縣,民眾服務,57,行政機關,榮民工程股份有限公司北宜施工處,24.66183700706746,121.12155099998611
J,新竹縣,民眾服務,57,行政機關,台灣中油股份有限公司探採事業部鑽探工程處,24.723938001131618,121.09559899998084
J,新竹縣,民眾服務,57,行政機關,新竹縣消防局橫山消防分隊,24.717084008155336,121.14151099998706
J,新竹縣,民眾服務,57,行政機關,新竹縣警察局橫村派出所,24.718444000702068,121.11812599997775
J,新竹縣,民眾服務,57,行政機關,新竹縣警察局沙坑派出所,24.73669000970333,121.16298599998447
J,新竹縣,民眾服務,57,行政機關,新竹縣警察局橫山派出所,24.716282994131188,121.14161499997014
J,新竹縣,民眾服務,57,行政機關,新竹縣警察局內灣派出所,24.70368100590939,121.18431299997967
J,新竹縣,民眾服務,57,行政機關,新竹縣橫山鄉鄉民代表會,24.71685599449242,121.1416879999625
J,新竹縣,民眾服務,57,行政機關,新竹縣橫山鄉衛生所,24.71686599412681,121.14084899996709
J,新竹縣,民眾服務,57,行政機關,新竹縣警察局橫山分局,24.716282994131188,121.14161499997014
J,新竹縣,民眾服務,57,行政機關,新竹縣橫山鄉戶政事務所,24.71636499460867,121.14133399996543
J,新竹縣,民眾服務,57,行政機關,新竹縣消防局北埔消防分隊,24.698764006837685,121.05710199999419
J,新竹縣,民眾服務,57,行政機關,新竹縣警察局北埔分駐所,24.698965003516008,121.05717899998518
J,新竹縣,民眾服務,57,行政機關,新竹縣北埔鄉鄉民代表會,24.702075002809742,121.05648799999253
J,新竹縣,民眾服務,57,行政機關,新竹縣北埔鄉衛生所,24.70053900180251,121.05563299998592
J,新竹縣,民眾服務,57,行政機關,新竹縣北埔鄉戶政事務所,24.698864006867367,121.05709899998736
J,新竹縣,民眾服務,57,行政機關,新竹縣北埔鄉戶政事務所,24.698864006867367,121.05709899998736
J,新竹縣,民眾服務,57,行政機關,新竹縣北埔鄉北埔公有零售市場處,24.699080000252355,121.05622599999154
J,新竹縣,民眾服務,57,行政機關,新竹縣消防局峨眉消防分隊,24.688036000195165,121.02174099998805
J,新竹縣,民眾服務,57,行政機關,新竹縣警察局富興派出所,24.686883996890835,120.98790599999646
J,新竹縣,民眾服務,57,行政機關,新竹縣警察局富興派出所,24.686883996890835,120.98790599999646
J,新竹縣,民眾服務,57,行政機關,新竹縣警察局峨眉分駐所,24.68808301002024,121.02165099999452
J,新竹縣,民眾服務,57,行政機關,新竹縣峨眉鄉戶政事務所,24.688190998616722,121.02154299999341
J,新竹縣,民眾服務,57,行政機關,新竹縣峨眉鄉衛生所,24.68826399798529,121.02079099999494
J,新竹縣,民眾服務,57,行政機關,新竹縣峨眉鄉鄉民代表會,24.688714994807945,121.01939799999005
J,新竹縣,民眾服務,57,行政機關,新竹縣消防局尖石消防分隊,24.705485009375604,121.20200499998062
J,新竹縣,民眾服務,57,行政機關,新竹縣警察局嘉樂派出所,24.72772999880705,121.22649899995487
J,新竹縣,民眾服務,57,行政機關,新竹縣警察局水田派出所,24.732296004502405,121.25064699997074
J,新竹縣,民眾服務,57,行政機關,新竹縣警察局新光派出所,24.582864004347563,121.30351899995952
J,新竹縣,民眾服務,57,行政機關,新竹縣警察局泰平派出所,24.665797005569836,121.32316399995632
J,新竹縣,民眾服務,57,行政機關,新竹縣警察局宇老派出所,24.666873008131443,121.28218299996657
J,新竹縣,民眾服務,57,行政機關,新竹縣警察局秀巒派出所,24.616669002791514,121.2844109999619
J,新竹縣,民眾服務,57,行政機關,新竹縣警察局柿山派出所,24.680122995767384,121.24338899995327
J,新竹縣,民眾服務,57,行政機關,新竹縣警察局田埔派出所,24.63970100052179,121.27958299995595
J,新竹縣,民眾服務,57,行政機關,新竹縣警察局梅林派出所,24.678729996584092,121.2090879999604
J,新竹縣,民眾服務,57,行政機關,新竹縣警察局玉峰派出所,24.660246010014394,121.30041599997183
J,新竹縣,民眾服務,57,行政機關,新竹縣警察局尖石分駐所,24.705106009126375,121.19986199997932
J,新竹縣,民眾服務,57,行政機關,新竹縣警察局石磊派出所,24.65279700168106,121.32236999995084
J,新竹縣,民眾服務,57,行政機關,新竹縣警察局泰崗派出所,24.61239899964798,121.2978619999537
J,新竹縣,民眾服務,57,行政機關,新竹縣尖石鄉衛生所,24.7056450066959,121.20197799997331
J,新竹縣,民眾服務,57,行政機關,新竹縣尖石鄉戶政事務所,24.703932010372576,121.20026499998504
J,新竹縣,民眾服務,57,行政機關,新竹縣尖石鄉鄉民代表會,24.705284996859117,121.20141399996243
J,新竹縣,民眾服務,57,行政機關,新竹縣警察局羅山派出所,24.62479500325622,121.14796299997425
J,新竹縣,民眾服務,57,行政機關,新竹縣警察局茅圃派出所,24.615824003554582,121.10302699998012
J,新竹縣,民眾服務,57,行政機關,新竹縣警察局清泉派出所,24.57343800997402,121.10379199998422
J,新竹縣,民眾服務,57,行政機關,新竹縣消防局五峰消防分隊,24.575278996530635,121.10295699997792
J,新竹縣,民眾服務,57,行政機關,新竹縣警察局雲山派出所,24.52090999385138,121.12322299996723
J,新竹縣,民眾服務,57,行政機關,新竹縣警察局桃山派出所,24.599023006919435,121.10561299998525
J,新竹縣,民眾服務,57,行政機關,新竹縣警察局花園派出所,24.651893010978227,121.1514179999898
J,新竹縣,民眾服務,57,行政機關,新竹縣警察局大隘派出所,24.626384003012543,121.10100399997901
J,新竹縣,民眾服務,57,行政機關,新竹縣警察局五峰分駐所,24.629983005411454,121.11870699998185
J,新竹縣,民眾服務,57,行政機關,新竹縣五峰鄉戶政事務所,24.631633999201004,121.11997899997223
J,新竹縣,民眾服務,57,行政機關,新竹縣五峰鄉衛生所,24.62953099940162,121.11935899997904
J,新竹縣,民眾服務,57,行政機關,新竹縣五峰鄉鄉民代表會,24.63204000758537,121.11930399998485
J,新竹縣,民眾服務,57,行政機關,新竹縣五峰鄉鄉民代表會,24.63204000758537,121.11930399998485
J,新竹縣,民眾服務,58,醫療保健,新竹縣重慶中醫院,24.900144360836368,121.04140281967301
J,新竹縣,民眾服務,58,醫療保健,新竹縣行政院國軍退除役官兵輔導委員會竹東榮民醫院,24.722791267730933,121.09942973073446
J,新竹縣,民眾服務,58,醫療保健,新竹縣新竹鄉橫山鄉衛生所,24.71707689859199,121.14088048972182
J,新竹縣,民眾服務,58,醫療保健,新竹縣培璽醫院,24.7570921003363,121.18993664058223
J,新竹縣,民眾服務,58,醫療保健,新竹縣尖石鄉衛生所,24.7057143619757,121.20239441216647
J,新竹縣,民眾服務,58,醫療保健,新竹縣竹北市衛生所,24.831940527006513,121.00671945062678
J,新竹縣,民眾服務,58,醫療保健,新竹縣竹東鎮衛生所,24.735886618446226,121.09288247756875
J,新竹縣,民眾服務,58,醫療保健,新竹縣天主教仁慈醫療財團法人仁慈醫院,24.900531111828492,121.04543371939165
J,新竹縣,民眾服務,58,醫療保健,新竹縣東元綜合醫院,24.823606330639667,121.01409320186534
J,新竹縣,民眾服務,58,醫療保健,新竹縣峨眉鄉衛生所,24.688386042921366,121.0214145549788
J,新竹縣,民眾服務,58,醫療保健,新竹縣宏安中醫醫院,24.738306711057756,121.09086256205147
J,新竹縣,民眾服務,58,醫療保健,新竹縣大安醫院,24.83474419781947,121.00810441095017
J,新竹縣,民眾服務,58,醫療保健,新竹縣北埔鄉衛生所,24.700567126440784,121.05539856986589
J,新竹縣,民眾服務,58,醫療保健,新竹縣新仁醫院,24.835594159848167,121.00790979683745
J,新竹縣,民眾服務,58,醫療保健,新竹縣國立臺灣大學醫學院附設醫院竹東分院,24.7188756424619,121.09340460005464
J,新竹縣,民眾服務,58,醫療保健,新竹縣新豐鄉衛生所,24.899904090769265,120.98809451867415
J,新竹縣,民眾服務,58,醫療保健,新竹縣長春醫院,24.899492227900165,121.04716210157984
J,新竹縣,民眾服務,58,醫療保健,新竹縣五峰鄉衛生所,24.631831739883147,121.11933847397651
J,新竹縣,民眾服務,58,醫療保健,新竹縣關西鎮錦山衛生所,24.771616227245286,121.2311898534052
J,新竹縣,民眾服務,58,醫療保健,新竹縣寶山鄉衛生所,24.766871166395465,120.99484682155949
J,新竹縣,民眾服務,58,醫療保健,新竹縣芎林鄉衛生所,24.777427477629832,121.07777065777057
J,新竹縣,民眾服務,58,醫療保健,新竹縣竹信醫院,24.734246120035642,121.09093304277779
J,新竹縣,民眾服務,58,醫療保健,新竹縣關西鎮衛生所,24.791732978329204,121.172557178664
J,新竹縣,民眾服務,58,醫療保健,新竹縣湖口鄉衛生所,24.900927945133812,121.04786002820998
J,新竹縣,民眾服務,58,醫療保健,新竹縣林醫院,24.73685303627095,121.09124179719534
J,新竹縣,民眾服務,58,醫療保健,財團法人天主教湖口仁慈醫院,24.900467004957726,121.04565299999258
J,新竹縣,民眾服務,58,醫療保健,東元綜合醫院,24.823740008077525,121.0140369999949
J,新竹縣,民眾服務,58,醫療保健,新仁醫院,24.835593996902414,121.0079929999894
J,新竹縣,民眾服務,58,醫療保健,大安醫院,24.834904011006632,121.00817899999733
J,新竹縣,民眾服務,58,醫療保健,培靈關西醫院,24.756705999852606,121.19006699996461
J,新竹縣,民眾服務,58,醫療保健,竹信醫院,24.734338009495016,121.09130399998551
J,新竹縣,民眾服務,58,醫療保健,林醫院,24.736559011482907,121.09135499998472
J,新竹縣,民眾服務,58,醫療保健,宏安中醫醫院,24.73829299952599,121.09095099997668
J,新竹縣,民眾服務,58,醫療保健,竹東榮民醫院,24.722701005321436,121.09958099998674
J,新竹縣,民眾服務,58,醫療保健,行政院衛生署竹東醫院,24.71875299909857,121.09353599997675
J,新竹縣,民眾服務,59,加油站,中油加油站-新慰站,24.88251400349994,121.01108499999506
J,新竹縣,民眾服務,59,加油站,中油加油站-山崎站,24.877995001233074,120.9940249999914
J,新竹縣,民眾服務,59,加油站,中油加油站-新庄子站(中油直營),24.906985010772644,120.98294999999716
J,新竹縣,民眾服務,59,加油站,台塑加油站-紅樹林站(台塑),24.90099100466637,120.98276199999408
J,新竹縣,民眾服務,59,加油站,中油加油站-鳳崎站,24.86559099429548,120.99631999999107
J,新竹縣,民眾服務,59,加油站,中油加油站-和興站,24.910359002778822,121.05031299998737
J,新竹縣,民眾服務,59,加油站,中油加油站-君朋站,24.900662003067648,121.05365899999111
J,新竹縣,民眾服務,59,加油站,中油加油站-信勢站,24.897130996213075,121.03728099999088
J,新竹縣,民眾服務,59,加油站,中油加油站-新崎站,24.894305999818386,121.04148899999306
J,新竹縣,民眾服務,59,加油站,中油加油站-順興站(中油直營),24.880263995059668,121.03606499999104
J,新竹縣,民眾服務,59,加油站,中油加油站-湖口站(中油直營),24.87830000431355,121.05499999999152
J,新竹縣,民眾服務,59,加油站,中油加油站-聖豐站,24.874876000810026,121.01797299999222
J,新竹縣,民眾服務,59,加油站,中油加油站-長安站(中油直營),24.88541799702916,121.07838799998048
J,新竹縣,民眾服務,59,加油站,中油加油站-亞當翌站,24.88035000876701,121.06668099998654
J,新竹縣,民眾服務,59,加油站,台灣優力加油站-湖口站(中油),24.88054500532637,121.03512399999444
J,新竹縣,民眾服務,59,加油站,中油加油站-新湖口站(中油直營),24.896644005316887,121.04786799998944
J,新竹縣,民眾服務,59,加油站,中油加油站-新豐站(中油直營),24.87286401120672,121.000685999996
J,新竹縣,民眾服務,59,加油站,中油加油站-北海站,24.87562000631807,121.02251399999203
J,新竹縣,民眾服務,59,加油站,中油加油站-北海第二站,24.877719995354617,121.02551699999125
J,新竹縣,民眾服務,59,加油站,台亞加油站-湖口南下站(台塑),24.858917996611282,121.0096909999965
J,新竹縣,民眾服務,59,加油站,台亞加油站-湖口北上站(台塑),24.857924000358558,121.00941899999549
J,新竹縣,民眾服務,59,加油站,台塑加油站-波羅文站(台塑),24.890894007716323,121.02358399999471
J,新竹縣,民眾服務,59,加油站,台亞加油站-湖口站(台塑),24.87726100874776,121.0498489999954
J,新竹縣,民眾服務,59,加油站,中油加油站-北新站,24.827324008130187,121.0491909999868
J,新竹縣,民眾服務,59,加油站,中油加油站-長源站,24.848328005938804,121.02440699999659
J,新竹縣,民眾服務,59,加油站,中油加油站-新埔站(中油直營),24.827684001411484,121.0685679999807
J,新竹縣,民眾服務,59,加油站,中油加油站-枋寮站,24.844093997167246,121.03439099999261
J,新竹縣,民眾服務,59,加油站,統一速邁樂加油站-新埔加油站(中油),24.821473002825318,121.09565399998401
J,新竹縣,民眾服務,59,加油站,全國加油站-新埔站(台塑),24.824581996811613,121.08759599998261
J,新竹縣,民眾服務,59,加油站,台塑加油站-新關站(台塑),24.827189999598644,121.0477339999921
J,新竹縣,民眾服務,59,加油站,台塑加油站-大象站(台塑),24.831220996465625,121.03333399999187
J,新竹縣,民眾服務,59,加油站,中油加油站-台大加油站,24.824953006642936,121.0321989999883
J,新竹縣,民眾服務,59,加油站,中油加油站-民德站,24.855824000044016,120.96142200000111
J,新竹縣,民眾服務,59,加油站,中油加油站-巨盛站,24.84071200248096,120.98522099999309
J,新竹縣,民眾服務,59,加油站,中油加油站-亞當翌竹北站,24.858762995556802,120.9954400000005
J,新竹縣,民眾服務,59,加油站,中油加油站-六家站,24.813093001588843,121.0229899999876
J,新竹縣,民眾服務,59,加油站,中油加油站-中社站,24.84285700238735,120.9927999999934
J,新竹縣,民眾服務,59,加油站,中油加油站-協榮站,24.873434010627886,120.9541759999962
J,新竹縣,民眾服務,59,加油站,中油加油站-東元站,24.811005005025496,121.0433149999884
J,新竹縣,民眾服務,59,加油站,中油加油站-日清站,24.786113003892964,121.06554999999162
J,新竹縣,民眾服務,59,加油站,中油加油站-竹北站(中油直營),24.841425005404776,121.0052539999942
J,新竹縣,民眾服務,59,加油站,中油加油站-十興站,24.817000004593996,121.03221599999407
J,新竹縣,民眾服務,59,加油站,中油加油站-佑順站,24.8257090110665,120.99685299999499
J,新竹縣,民眾服務,59,加油站,中油加油站-府前站(刷卡自助)(中油直營),24.824070004403854,121.01498599998926
J,新竹縣,民眾服務,59,加油站,全國加油站-竹北交流道站(台塑),24.821529002848315,121.0244179999948
J,新竹縣,民眾服務,59,加油站,台塑加油站-東海站(台塑),24.792428010912904,121.05924899999171
J,新竹縣,民眾服務,59,加油站,中油加油站-石崗站,24.80683001142789,121.14446399998879
J,新竹縣,民眾服務,59,加油站,中油加油站-正新站,24.811938004373353,121.19942999997127
J,新竹縣,民眾服務,59,加油站,中油加油站-新昀站,24.755028000039157,121.17223099996498
J,新竹縣,民眾服務,59,加油站,中油加油站-關西站(中油直營),24.793325997588198,121.17981899996259
J,新竹縣,民眾服務,59,加油站,中油加油站-關西服務區站(中油直營),24.784295000250122,121.18075499996979
J,新竹縣,民眾服務,59,加油站,台塑加油站-正興站(台塑),24.780135009005352,121.17867099997855
J,新竹縣,民眾服務,59,加油站,中油加油站-福林站,24.749568006354913,121.09643999998669
J,新竹縣,民眾服務,59,加油站,中油加油站-芎林站(中油直營),24.777884002747005,121.07723599998566
J,新竹縣,民眾服務,59,加油站,中油加油站-信政站,24.753904996457912,121.09384699997399
J,新竹縣,民眾服務,59,加油站,台灣優力加油站-芎林二站(中油),24.775445007447292,121.07298599998438
J,新竹縣,民眾服務,59,加油站,台灣優力加油站-芎林一站(中油),24.775364999708888,121.07357799998148
J,新竹縣,民眾服務,59,加油站,中油加油站-開順站,24.774904999478224,121.07259999998458
J,新竹縣,民眾服務,59,加油站,中油加油站-正晟站,24.774594003778095,121.07180399999095
J,新竹縣,民眾服務,59,加油站,台塑加油站-竹林站(台塑),24.764708002479605,121.08573099998694
J,新竹縣,民眾服務,59,加油站,中油加油站-寶山站(中油直營),24.76271899722066,120.98653300000133
J,新竹縣,民眾服務,59,加油站,中油加油站-辰鴻站,24.77065900084575,121.00517899999073
J,新竹縣,民眾服務,59,加油站,中油加油站-員山站,24.78443399608965,121.04858799998387
J,新竹縣,民眾服務,59,加油站,統一速邁樂加油站-竹東站(中油),24.771926004625428,121.05046699998987
J,新竹縣,民眾服務,59,加油站,中油加油站-東林路站(中油直營),24.73718599899299,121.092250999983
J,新竹縣,民眾服務,59,加油站,中油加油站-竹東站(中油直營),24.722586997819818,121.09649999997902
J,新竹縣,民眾服務,59,加油站,北基加油站-工研院站(中油),24.778521008461446,121.0422209999896
J,新竹縣,民眾服務,59,加油站,中油加油站-良奇站,24.752742005988406,121.0747029999873
J,新竹縣,民眾服務,59,加油站,全國加油站-竹東站(台塑),24.778402003573436,121.0315119999872
J,新竹縣,民眾服務,59,加油站,台塑加油站-北興路站(台塑),24.737325001699094,121.09436099998473
J,新竹縣,民眾服務,59,加油站,中油加油站-橫山站(中油直營),24.72629300221099,121.12857699997298
J,新竹縣,民眾服務,59,加油站,福懋加油站-橫山站(台塑),24.72637699533887,121.12859399997159
J,新竹縣,民眾服務,59,加油站,中油加油站-北埔站(中油直營),24.70565600045792,121.062831999983
J,新竹縣,民眾服務,59,加油站,中油加油站-建岑站,24.68702799785474,121.02184099998907
J,新竹縣,民眾服務,59,加油站,中油加油站-峨眉站(中油直營),24.68752500511594,121.02555199999004
J,新竹縣,民眾服務,59,加油站,中油加油站-尖石站(中油直營),24.705971008109916,121.20268899997541
J,新竹縣,民眾服務,59,加油站,台亞加油站-五峰站(台塑),24.6286970012304,121.11856599997547
J,新竹縣,工商活動,72,金融機構,新竹縣新竹關西郵局,24.793411800990764,121.17616459148438
J,新竹縣,工商活動,72,金融機構,新竹縣新豐郵局,24.903231774473312,120.9868529764178
J,新竹縣,工商活動,72,金融機構,新竹縣湖口鳳凰郵局,24.862777173915823,121.02610233100677
J,新竹縣,工商活動,72,金融機構,新竹縣竹東長春郵局,24.738247471502564,121.08823009747586
J,新竹縣,工商活動,72,金融機構,新竹縣新埔郵局,24.8272511914921,121.08280151911404
J,新竹縣,工商活動,72,金融機構,新竹縣湖口新工郵局,24.870710657813646,121.01462261992019
J,新竹縣,工商活動,72,金融機構,新竹縣五峰郵局,24.631689916002223,121.1191879130074
J,新竹縣,工商活動,72,金融機構,新竹縣北埔郵局,24.700219050932205,121.0547826242089
J,新竹縣,工商活動,72,金融機構,新竹縣新埔遠東郵局,24.826336586205333,121.05405970590704
J,新竹縣,工商活動,72,金融機構,新竹縣新竹橫山內灣郵局,24.706492025065103,121.18075935566532
J,新竹縣,工商活動,72,金融機構,新竹縣新豐山崎郵局,24.86952732705616,120.99448772649893
J,新竹縣,工商活動,72,金融機構,新竹縣新竹寶山大崎郵局,24.772408390613666,121.001111761135
J,新竹縣,工商活動,72,金融機構,新竹縣寶山郵局,24.76491809963013,120.99027724441265
J,新竹縣,工商活動,72,金融機構,新竹縣竹北中山郵局,24.835591940361173,121.01919093832473
J,新竹縣,工商活動,72,金融機構,新竹縣新竹峨嵋郵局,24.68840786552434,121.02006715426234
J,新竹縣,工商活動,72,金融機構,新竹縣湖口長安郵局,24.888732887249617,121.09063706068868
J,新竹縣,工商活動,72,金融機構,新竹縣竹北郵局,24.839935072908872,121.00331290950655
J,新竹縣,工商活動,72,金融機構,新竹縣竹北六家郵局,24.82199265150564,121.03225578339757
J,新竹縣,工商活動,72,金融機構,新竹縣湖口鐵騎郵局,24.869114603377508,121.03567288321547
J,新竹縣,工商活動,72,金融機構,新竹縣新竹湖口德盛郵局,24.904381744608624,121.04273329361689
J,新竹縣,工商活動,72,金融機構,新竹縣竹北博愛郵局,24.836701797933337,121.00899931742606
J,新竹縣,工商活動,72,金融機構,新竹縣竹東郵局,24.736785611819993,121.09277389609441
J,新竹縣,工商活動,72,金融機構,新竹縣新埔中正郵局,24.827911975913967,121.0757930188799
J,新竹縣,工商活動,72,金融機構,新竹縣湖口郵局,24.900553873015316,121.04616716848119
J,新竹縣,工商活動,72,金融機構,新竹縣新竹橫山郵局,24.717761067637166,121.14008545717898
J,新竹縣,工商活動,72,金融機構,新竹縣竹北光明郵局,24.828814220671564,121.01104829442815
J,新竹縣,工商活動,72,金融機構,新竹縣竹東下公館郵局,24.723925880839538,121.09522075507616
J,新竹縣,工商活動,72,金融機構,新竹縣尖石郵局,24.70539007058554,121.20171071787424
J,新竹縣,工商活動,72,金融機構,新竹縣竹東二重埔郵局,24.76625739592089,121.05672321275303
J,新竹縣,工商活動,72,金融機構,新竹縣芎林郵局,24.772156029472193,121.08380372009735
J,新竹縣,工商活動,72,金融機構,郵局-新豐郵局,24.903218008138108,120.98693299999246
J,新竹縣,工商活動,72,金融機構,郵局-新豐山崎郵局,24.869497003488014,120.99458599999956
J,新竹縣,工商活動,72,金融機構,新豐辦事處,24.9037240017857,120.98499899999945
J,新竹縣,工商活動,72,金融機構,新豐鄉農會,24.905460006053815,120.9843679999953
J,新竹縣,工商活動,72,金融機構,郵局-湖口郵局,24.900473996524948,121.04622199998973
J,新竹縣,工商活動,72,金融機構,郵局-湖口鐵騎郵局,24.868906006840568,121.03522899999572
J,新竹縣,工商活動,72,金融機構,郵局-湖口鳳凰郵局,24.86280800336203,121.0263209999925
J,新竹縣,工商活動,72,金融機構,郵局-湖口新工郵局,24.870822009660326,121.01460099999657
J,新竹縣,工商活動,72,金融機構,郵局-湖口長安郵局,24.888701009934785,121.09013799998417
J,新竹縣,工商活動,72,金融機構,郵局-湖口德盛郵局,24.904246997838268,121.0427639999903
J,新竹縣,工商活動,72,金融機構,湖口鄉農會,24.90296799550931,121.0454759999838
J,新竹縣,工商活動,72,金融機構,郵局-新埔郵局,24.82733800321373,121.08296299998487
J,新竹縣,工商活動,72,金融機構,郵局-新埔中正郵局,24.827891000668874,121.0756859999835
J,新竹縣,工商活動,72,金融機構,郵局-新埔遠東郵局,24.82632101031978,121.0538469999916
J,新竹縣,工商活動,72,金融機構,新竹縣新埔鎮農會,24.828094010482122,121.07495199999283
J,新竹縣,工商活動,72,金融機構,郵局-竹北中山郵局,24.835440003956037,121.01895599999084
J,新竹縣,工商活動,72,金融機構,郵局-竹北光明郵局,24.82808300218072,121.01012999999223
J,新竹縣,工商活動,72,金融機構,郵局-竹北郵局,24.839780999235252,121.00317999999558
J,新竹縣,工商活動,72,金融機構,郵局-竹北六家郵局,24.822222002501483,121.03247299998795
J,新竹縣,工商活動,72,金融機構,郵局-竹北博愛郵局,24.836667997539713,121.00888199999375
J,新竹縣,工商活動,72,金融機構,新竹縣竹北市農會,24.838115005041868,121.00608699999738
J,新竹縣,工商活動,72,金融機構,郵局-關西郵局,24.79318600693669,121.1761849999733
J,新竹縣,工商活動,72,金融機構,新竹縣關西鎮農會,24.791663000891884,121.17683999997193
J,新竹縣,工商活動,72,金融機構,郵局-芎林郵局,24.77214499980762,121.08390499998252
J,新竹縣,工商活動,72,金融機構,新竹縣芎林鄉農會,24.77549999651731,121.07902399997728
J,新竹縣,工商活動,72,金融機構,新竹縣農會,24.787582996042147,121.06864599998376
J,新竹縣,工商活動,72,金融機構,郵局-寶山郵局,24.764846003042695,120.99037799999608
J,新竹縣,工商活動,72,金融機構,郵局-寶山大崎郵局,24.77239000603495,121.00116099999617
J,新竹縣,工商活動,72,金融機構,新竹縣寶山鄉農會,24.765202998169848,120.99014899999574
J,新竹縣,工商活動,72,金融機構,郵局-竹東下公館郵局,24.72379899533304,121.09514199997814
J,新竹縣,工商活動,72,金融機構,郵局-竹東工研院郵局,24.77693100506841,121.04029799998887
J,新竹縣,工商活動,72,金融機構,郵局-竹東郵局,24.73683400270261,121.09273799997854
J,新竹縣,工商活動,72,金融機構,郵局-竹東二重埔郵局,24.766415010341326,121.05674099999291
J,新竹縣,工商活動,72,金融機構,郵局-竹東長春郵局,24.738412999070455,121.08847799997602
J,新竹縣,工商活動,72,金融機構,新竹縣竹東地區農會,24.739633004390672,121.08612599998081
J,新竹縣,工商活動,72,金融機構,郵局-橫山郵局,24.717601002741354,121.14013899997948
J,新竹縣,工商活動,72,金融機構,郵局-橫山內灣郵局,24.706415000858275,121.1807769999711
J,新竹縣,工商活動,72,金融機構,新竹縣橫山地區農會,24.716722003092855,121.14110399998182
J,新竹縣,工商活動,72,金融機構,郵局-北埔郵局,24.699995994609704,121.05473599998305
J,新竹縣,工商活動,72,金融機構,新竹縣北埔鄉農會,24.700644998132105,121.05476799998796
J,新竹縣,工商活動,72,金融機構,新竹縣北埔鄉農會,24.700644998132105,121.05476799998796
J,新竹縣,工商活動,72,金融機構,郵局-峨眉郵局,24.688399002559816,121.02020799999045
J,新竹縣,工商活動,72,金融機構,新竹縣峨眉鄉農會,24.689180005332677,121.01792999998925
J,新竹縣,工商活動,72,金融機構,郵局-尖石郵局,24.72822399482745,121.22866799995163
J,新竹縣,工商活動,72,金融機構,郵局-五峰郵局,24.631838000585546,121.11945799997791
J,新竹縣,工商活動,73,娛樂設施,新竹縣游泳館,24.82045536114407,121.02092741895348
J,新竹縣,工商活動,73,娛樂設施,新竹縣體育館,24.820084793096893,121.0200736125547
J,新竹縣,工商活動,73,娛樂設施,新竹縣體育場,24.874930049643538,120.98555429507478
J,新竹縣,工商活動,73,娛樂設施,新竹縣新豐海水浴場,24.929795648815144,120.97732279465691
J,新竹縣,工商活動,73,娛樂設施,新竹縣竹東鎮立網球場,24.734072902768343,121.0943403383463
J,新竹縣,工商活動,73,娛樂設施,新竹縣新埔鎮立游泳池,24.829009449960303,121.08193918809583
J,新竹縣,工商活動,73,娛樂設施,新竹縣湖口鄉游泳池,24.90343230596717,121.03448319221803
J,新竹縣,工商活動,73,娛樂設施,新竹縣新豐海水浴場,24.920159241463388,120.96999548420366
J,新竹縣,工商活動,73,娛樂設施,新竹縣竹東鎮立網球場,24.73497133187917,121.09478591511579
J,新竹縣,工商活動,73,娛樂設施,新竹縣運動場,24.82942486376594,121.01378365714521
J,新竹縣,工商活動,73,娛樂設施,新竹縣體育場,24.79044474980029,121.07480568003297
J,新竹縣,工商活動,73,娛樂設施,新竹縣運動場,24.83322306987929,121.01073752320956
J,新竹縣,工商活動,73,娛樂設施,新竹縣體育場,24.877232110492418,120.9857238115683
J,新竹縣,工商活動,73,娛樂設施,新竹縣軟橋社區運動場,24.6948772008539,121.10306401011442
J,新竹縣,工商活動,73,娛樂設施,新竹縣公共造產竹北市游泳池,24.835819513620756,121.01559315384534
J,新竹縣,工商活動,73,娛樂設施,新竹縣立體育場,24.82114976167404,121.01732343270483
J,新竹縣,工商活動,74,飯店,小叮噹科學遊樂區生活大師會館,24.8918840049966,120.97362499999348
J,新竹縣,工商活動,74,飯店,春城汽車旅館,24.875906004778663,120.99614899999844
J,新竹縣,工商活動,74,飯店,青葉大旅館,24.87069100609927,120.99603299999646
J,新竹縣,工商活動,74,飯店,新豐旅社,24.905374999964295,120.98671999999497
J,新竹縣,工商活動,74,飯店,金都大旅社,24.904481005941765,121.04887399998991
J,新竹縣,工商活動,74,飯店,龍宮大旅社,24.90405299823124,121.04723499999056
J,新竹縣,工商活動,74,飯店,雀之巢汽車旅館,24.893199007979494,121.04225099998735
J,新竹縣,工商活動,74,飯店,富國旅社,24.903929001012372,121.04522699998815
J,新竹縣,工商活動,74,飯店,浙大旅社,24.856003011030293,121.01753499999766
J,新竹縣,工商活動,74,飯店,龍斯耐汽車旅館,24.84578200900626,121.0358419999898
J,新竹縣,工商活動,74,飯店,早苗別館,24.861622005468615,121.1080239999858
J,新竹縣,工商活動,74,飯店,千里福商務旅館,24.841196002391136,121.04227699999034
J,新竹縣,工商活動,74,飯店,新竹喜來登大飯店,24.82032500907959,121.0278359999894
J,新竹縣,工商活動,74,飯店,采舍精品汽車旅館,24.834725008510624,121.02267999999533
J,新竹縣,工商活動,74,飯店,竹北旅社,24.83886900539803,121.01013099999167
J,新竹縣,工商活動,74,飯店,六福大旅社,24.838955008326256,121.00963999999144
J,新竹縣,工商活動,74,飯店,金園旅社,24.83833400644554,121.00629299999449
J,新竹縣,工商活動,74,飯店,明星旅館,24.842294004525648,121.00557399999921
J,新竹縣,工商活動,74,飯店,秘密花園汽車旅館,24.836450008400966,121.00483499999922
J,新竹縣,工商活動,74,飯店,龍之脈汽車旅館,24.834267998666892,121.00472999999396
J,新竹縣,工商活動,74,飯店,佳緹商務汽車旅館,24.84106400474222,121.00527199999864
J,新竹縣,工商活動,74,飯店,喬蓮大飯店,24.839698000305535,121.01108699999415
J,新竹縣,工商活動,74,飯店,賢集旅社,24.838556994346973,121.00922199999573
J,新竹縣,工商活動,74,飯店,高賓大旅社,24.83833199753003,121.00939099999479
J,新竹縣,工商活動,74,飯店,竹城大旅社,24.83832000686715,121.00929699999479
J,新竹縣,工商活動,74,飯店,花漾時尚旅館,24.840040003831007,121.0082069999945
J,新竹縣,工商活動,74,飯店,關西六福莊生態渡假旅館,24.82471500365543,121.18127399997223
J,新竹縣,工商活動,74,飯店,建誠旅社,24.79499400611103,121.17564399998093
J,新竹縣,工商活動,74,飯店,金山大旅社,24.7945890002992,121.17617499996906
J,新竹縣,工商活動,74,飯店,統一渡假村-馬武督渡假會議中心,24.751274994449037,121.25029299994982
J,新竹縣,工商活動,74,飯店,飛鳳園,24.785143000459378,121.12807799997354
J,新竹縣,工商活動,74,飯店,觀兮天籟民宿,24.774154997021334,121.23227899995756
J,新竹縣,工商活動,74,飯店,酈園花苑汽車旅館,24.764703007835706,121.08361199999221
J,新竹縣,工商活動,74,飯店,莫內花園民宿,24.717950993731755,121.00891999999617
J,新竹縣,工商活動,74,飯店,隴西園民宿,24.65034200273247,121.11805099998286
J,新竹縣,工商活動,74,飯店,興竹東汽車旅館,24.742124011393393,121.0898759999863
J,新竹縣,工商活動,74,飯店,東園大旅社,24.73581599840898,121.09193599997964
J,新竹縣,工商活動,74,飯店,王子大飯店,24.737100002847853,121.08947699998613
J,新竹縣,工商活動,74,飯店,千禧園汽車旅館,24.774921994261966,121.04497599998577
J,新竹縣,工商活動,74,飯店,老農夫山莊,24.661915004253267,121.09656299997921
J,新竹縣,工商活動,74,飯店,築夢,24.661915004253267,121.09656299997921
J,新竹縣,工商活動,74,飯店,景園山莊,24.661915004253267,121.09656299997921
J,新竹縣,工商活動,74,飯店,成豐夢幻世界旅館部,24.6660490085011,121.11592999998535
J,新竹縣,工商活動,74,飯店,塵外民宿,24.69252101078011,121.13654899998765
J,新竹縣,工商活動,74,飯店,星光流域,24.708105999450826,121.18535499996165
J,新竹縣,工商活動,74,飯店,鍾媽媽民宿,24.708105999450826,121.18535499996165
J,新竹縣,工商活動,74,飯店,賞螢民宿,24.708105999450826,121.18535499996165
J,新竹縣,工商活動,74,飯店,山舍民宿,24.708105999450826,121.18535499996165
J,新竹縣,工商活動,74,飯店,佐岸,24.70337200830937,121.1835749999765
J,新竹縣,工商活動,74,飯店,彎月民宿,24.70598799889858,121.18091499996507
J,新竹縣,工商活動,74,飯店,九華民宿,24.695593998287485,121.14477599997123
J,新竹縣,工商活動,74,飯店,登美山莊民宿,24.672664994162073,121.11480499997576
J,新竹縣,工商活動,74,飯店,萬瑞森林樂園小木屋住宿,24.718149998065012,121.11697199997914
J,新竹縣,工商活動,74,飯店,老頭擺民宿,24.6735150001804,121.06477799999004
J,新竹縣,工商活動,74,飯店,大隘山莊,24.678059004890653,121.06626299999184
J,新竹縣,工商活動,74,飯店,小分林,24.689075001835658,121.05930799998498
J,新竹縣,工商活動,74,飯店,北昇休閒山莊民宿,24.663139001252965,121.06790699998206
J,新竹縣,工商活動,74,飯店,香品源,24.65108399955102,121.05070899999036
J,新竹縣,工商活動,74,飯店,二泉湖畔咖啡民宿,24.675413996604224,120.98551999999542
J,新竹縣,工商活動,74,飯店,一家三國民宿,24.700859996068942,121.00770499999471
J,新竹縣,工商活動,74,飯店,魚之鄉假期民宿,24.723458010427784,121.23528599997474
J,新竹縣,工商活動,74,飯店,八五山泉山莊,24.715729001395196,121.27644299995616
J,新竹縣,工商活動,74,飯店,斯馬庫斯,24.577585008439407,121.33263099996971
J,新竹縣,工商活動,74,飯店,魯壁,24.658818002483862,121.27958399995742
J,新竹縣,工商活動,74,飯店,塔克金溪,24.560051005988903,121.28552399996906
J,新竹縣,工商活動,74,飯店,日日春,24.560051005988903,121.28552399996906
J,新竹縣,工商活動,74,飯店,達客喜民宿,24.718169006310156,121.22257099997499
J,新竹縣,工商活動,74,飯店,那羅灣石屋,24.681667004331374,121.2448519999673
J,新竹縣,工商活動,74,飯店,朝日民宿,24.684978999139066,121.2511899999552
J,新竹縣,工商活動,74,飯店,亞山民宿,24.684978999139066,121.2511899999552
J,新竹縣,工商活動,74,飯店,家人上山民宿,24.616508006712433,121.10179999998043
J,新竹縣,工商活動,74,飯店,山上人家,24.616508006712433,121.10179999998043
J,新竹縣,工商活動,74,飯店,望月小築,24.580211006841424,121.08899399998378
J,新竹縣,工商活動,74,飯店,白蘭山莊,24.580211006841424,121.08899399998378
J,新竹縣,工商活動,74,飯店,洞口民宿,24.55940700025453,121.10229399998119
