縣市代號,縣市,大類別,小類別代號,小類別名稱,地標名稱,緯度,經度
U,花蓮縣,交通運輸,11,火車站,花蓮縣臺鐵玉里車站,23.33157810028208,121.31172053124797
U,花蓮縣,交通運輸,11,火車站,花蓮縣臺鐵新城車站,24.127769591852026,121.6408425168518
U,花蓮縣,交通運輸,11,火車站,花蓮縣臺鐵崇德車站,24.171970333144653,121.65538716773739
U,花蓮縣,交通運輸,11,火車站,花蓮縣臺鐵南平車站,23.7823542200989,121.45822383660794
U,花蓮縣,交通運輸,11,火車站,花蓮縣臺鐵瑞穗車站,23.497367151047538,121.37676489537027
U,花蓮縣,交通運輸,11,火車站,花蓮縣臺鐵和仁車站,24.241772736374756,121.71254775778846
U,花蓮縣,交通運輸,11,火車站,花蓮縣臺鐵三民車站,23.424514378491462,121.34537831181899
U,花蓮縣,交通運輸,11,火車站,花蓮縣臺鐵花蓮港車站,23.994229245106542,121.63573022974177
U,花蓮縣,交通運輸,11,火車站,花蓮縣臺鐵志學車站,23.907549671002716,121.52942811069221
U,花蓮縣,交通運輸,11,火車站,花蓮縣臺鐵花蓮車站,23.9925131124837,121.60131355591857
U,花蓮縣,交通運輸,11,火車站,花蓮縣臺鐵萬榮車站,23.712059502865163,121.4191033274637
U,花蓮縣,交通運輸,11,火車站,花蓮縣臺鐵壽豐車站,23.8690023342349,121.51065607267122
U,花蓮縣,交通運輸,11,火車站,景美火車站,24.09038099710147,121.6109449998963
U,花蓮縣,交通運輸,11,火車站,花蓮縣臺鐵北埔車站,24.03248377818614,121.60163202391007
U,花蓮縣,交通運輸,11,火車站,花蓮縣臺鐵富里車站,23.179108525262706,121.24860372112964
U,花蓮縣,交通運輸,11,火車站,花蓮縣臺鐵和平車站,24.29840661890445,121.75337854992158
U,花蓮縣,交通運輸,11,火車站,花蓮縣臺鐵富源車站,23.580307228801416,121.3801264854564
U,花蓮縣,交通運輸,11,火車站,花蓮縣臺鐵東里車站,23.27235183561506,121.30422095490641
U,花蓮縣,交通運輸,11,火車站,崇德火車站,24.172017008052094,121.65537899994912
U,花蓮縣,交通運輸,11,火車站,景美火車站,24.09038099710147,121.6109449998963
U,花蓮縣,交通運輸,11,火車站,和仁火車站,24.242198996919303,121.71179399987764
U,花蓮縣,交通運輸,11,火車站,和平火車站,24.298341992876843,121.75341199984271
U,花蓮縣,交通運輸,11,火車站,和平火車站,24.298341992876843,121.75341199984271
U,花蓮縣,交通運輸,11,火車站,新城火車站,24.12757100652213,121.64077099993459
U,花蓮縣,交通運輸,11,火車站,北埔火車站,24.032602006082726,121.60167899993722
U,花蓮縣,交通運輸,11,火車站,花蓮後火車站,23.9938170053856,121.60004399994317
U,花蓮縣,交通運輸,11,火車站,花蓮火車站,23.992615998275554,121.6013379999083
U,花蓮縣,交通運輸,11,火車站,花蓮港火車站(閒),23.99399399713192,121.63572499989816
U,花蓮縣,交通運輸,11,火車站,南華火車站(閒),23.942118993116143,121.54490099989816
U,花蓮縣,交通運輸,11,火車站,南華火車站(閒),23.942118993116143,121.54490099989816
U,花蓮縣,交通運輸,11,火車站,吉安火車站,23.96818800911296,121.58264899995895
U,花蓮縣,交通運輸,11,火車站,吉安火車站,23.96818800911296,121.58264899995895
U,花蓮縣,交通運輸,11,火車站,志學火車站,23.90757199937322,121.52949699991898
U,花蓮縣,交通運輸,11,火車站,溪口火車站,23.817484006095928,121.47441299995081
U,花蓮縣,交通運輸,11,火車站,豐田火車站,23.848432001765115,121.49620399993277
U,花蓮縣,交通運輸,11,火車站,豐田火車站,23.848432001765115,121.49620399993277
U,花蓮縣,交通運輸,11,火車站,壽豐火車站,23.869064003694806,121.51060999994158
U,花蓮縣,交通運輸,11,火車站,平和火車站,23.882731004304127,121.5204469999478
U,花蓮縣,交通運輸,11,火車站,平和火車站,23.882731004304127,121.5204469999478
U,花蓮縣,交通運輸,11,火車站,鳳林火車站,23.74636500014491,121.44699499994255
U,花蓮縣,交通運輸,11,火車站,鳳林火車站,23.74636500014491,121.44699499994255
U,花蓮縣,交通運輸,11,火車站,萬榮火車站,23.711983997210577,121.41905399993632
U,花蓮縣,交通運輸,11,火車站,南平火車站,23.78224900081324,121.45822499994067
U,花蓮縣,交通運輸,11,火車站,大富火車站,23.605684001789484,121.3896209999482
U,花蓮縣,交通運輸,11,火車站,大富火車站,23.605684001789484,121.3896209999482
U,花蓮縣,交通運輸,11,火車站,光復火車站,23.666330997308044,121.42117499993256
U,花蓮縣,交通運輸,11,火車站,光復火車站,23.666330997308044,121.42117499993256
U,花蓮縣,交通運輸,11,火車站,瑞北火車站(閒),23.52841300397451,121.37731399996292
U,花蓮縣,交通運輸,11,火車站,瑞穗火車站,23.497412995345357,121.37682699993115
U,花蓮縣,交通運輸,11,火車站,富源火車站,23.580232998466474,121.38011799994734
U,花蓮縣,交通運輸,11,火車站,三民火車站,23.42460699158491,121.34544199993036
U,花蓮縣,交通運輸,11,火車站,玉里火車站,23.331567995373398,121.31179799994592
U,花蓮縣,交通運輸,11,火車站,大禹火車站(閒),23.380530995651636,121.32683199994133
U,花蓮縣,交通運輸,11,火車站,安通火車站(閒),23.29746700134398,121.3327419999627
U,花蓮縣,交通運輸,11,火車站,富南火車站(閒),23.15985000329757,121.23964599996832
U,花蓮縣,交通運輸,11,火車站,東里火車站,23.2723000007173,121.30431299995574
U,花蓮縣,交通運輸,11,火車站,東竹火車站,23.2260139998607,121.27847099996404
U,花蓮縣,交通運輸,11,火車站,東竹火車站,23.2260139998607,121.27847099996404
U,花蓮縣,交通運輸,11,火車站,富里火車站,23.179133005768584,121.24869299997665
U,花蓮縣,交通運輸,12,客運站,花蓮客運,23.97561499875705,121.61027599991091
U,花蓮縣,交通運輸,12,客運站,花蓮汽車客運-新站,23.992004002252045,121.60153399992754
U,花蓮縣,交通運輸,12,客運站,花蓮汽車客運-總站,23.974525995495515,121.61108199989081
U,花蓮縣,交通運輸,12,客運站,花蓮汽車客運-光復站,23.66507200141884,121.42611199994568
U,花蓮縣,交通運輸,12,客運站,花蓮汽車客運-豐濱站,23.600360996201953,121.52231199991024
U,花蓮縣,交通運輸,12,客運站,花蓮汽車客運-瑞穗站,23.49822099660603,121.37804499993882
U,花蓮縣,交通運輸,12,客運站,花蓮汽車客運-富里站,23.136626006626855,121.23374199998311
U,花蓮縣,交通運輸,16,航空站,花蓮縣交通部民用航空局七美航空站,23.211552303931587,121.41791771978781
U,花蓮縣,交通運輸,16,航空站,花蓮航空站-花蓮機場,24.025289997744533,121.61314899989608
U,花蓮縣,交通運輸,17,碼頭,花蓮縣后宮漁港,23.369039290890438,121.52646926648029
U,花蓮縣,交通運輸,17,碼頭,花蓮縣花蓮港,23.985189988100164,121.63342381019834
U,花蓮縣,交通運輸,17,碼頭,花蓮縣花蓮漁港,23.997924475219943,121.6385918904879
U,花蓮縣,交通運輸,17,碼頭,花蓮縣大果葉漁港,23.594048390069513,121.51624106893938
U,花蓮縣,交通運輸,17,碼頭,花蓮縣大池漁港,23.616842956364742,121.50483699634566
U,花蓮縣,交通運輸,17,碼頭,花蓮縣赤馬西港,23.58620340920937,121.50371125545801
U,花蓮縣,交通運輸,17,碼頭,花蓮縣內垵北漁港,23.57456203689609,121.49980807911766
U,花蓮縣,交通運輸,17,碼頭,花蓮縣赤馬漁港,23.58107933969508,121.51295781352941
U,花蓮縣,交通運輸,17,碼頭,花蓮縣內垵南漁港,23.56656237636829,121.50075539759804
U,花蓮縣,交通運輸,17,碼頭,花蓮縣塭港第二漁港,23.468485690869286,120.14337841129637
U,花蓮縣,交通運輸,17,碼頭,花蓮縣外垵漁港,23.563620031757413,121.47970562620347
U,花蓮縣,交通運輸,17,碼頭,花蓮縣小門漁港,23.649026304979184,121.51843013328957
U,花蓮縣,交通運輸,17,碼頭,花蓮縣東嶼坪漁港,23.25614993196064,121.51086193587702
U,花蓮縣,交通運輸,17,碼頭,花蓮縣池西漁港,23.600004378803497,121.50310095365538
U,花蓮縣,交通運輸,17,碼頭,花蓮縣竹灣漁港,23.630801662254655,121.52374563945148
U,花蓮縣,交通運輸,17,碼頭,花蓮縣大池角碼頭,23.616842956364742,121.50483699634566
U,花蓮縣,交通運輸,17,碼頭,花蓮縣西嶼坪漁港,23.267053676937966,121.50962851658824
U,花蓮縣,交通運輸,17,碼頭,花蓮縣花嶼舊漁港,23.399340956983647,121.32210098844064
U,花蓮縣,交通運輸,17,碼頭,花蓮縣將軍漁港,23.362382807656815,121.52020026783262
U,花蓮縣,交通運輸,17,碼頭,花蓮縣鹽寮漁港,23.829883313468084,121.58582497479357
U,花蓮縣,交通運輸,17,碼頭,花蓮縣合界漁港,23.639520556525405,121.53133384508529
U,花蓮縣,交通運輸,17,碼頭,花蓮縣花蓮港,23.999567251493183,121.63731606662917
U,花蓮縣,交通運輸,17,碼頭,花蓮縣花嶼漁港,23.39836446333824,121.31707114548908
U,花蓮縣,交通運輸,17,碼頭,花蓮港務局,23.98034000533207,121.62032899993784
U,花蓮縣,交通運輸,17,碼頭,花蓮港,24.00073600606639,121.63528499994148
U,花蓮縣,交通運輸,17,碼頭,石梯漁港,23.493164991379164,121.50616999990038
U,花蓮縣,公共建設,21,國小,花蓮縣瑞穗鄉富源國民小學,23.57881082989659,121.37553250203015
U,花蓮縣,公共建設,21,國小,花蓮縣壽豐鄉志學國民小學,23.904967312635804,121.53179907049979
U,花蓮縣,公共建設,21,國小,花蓮縣壽豐鄉豐山國民小學附設幼稚園,23.84593723826876,121.49253853998181
U,花蓮縣,公共建設,21,國小,花蓮縣新城鄉嘉里國民小學,24.014718878175444,121.60932908748819
U,花蓮縣,公共建設,21,國小,花蓮縣富里鄉明里國民小學,23.20135312367205,121.24869270911378
U,花蓮縣,公共建設,21,國小,花蓮縣花蓮市信義國民小學,23.971131912323923,121.6066157547707
U,花蓮縣,公共建設,21,國小,花蓮縣萬榮鄉萬榮國民小學,23.715468995552495,121.41133421546216
U,花蓮縣,公共建設,21,國小,花蓮縣花蓮市中華國民小學,23.992060971003742,121.60698560434051
U,花蓮縣,公共建設,21,國小,花蓮縣吉安鄉太昌國民小學,23.995278994835594,121.56518041901192
U,花蓮縣,公共建設,21,國小,花蓮縣新城鄉北埔國民小學,24.03183299126806,121.60502185456832
U,花蓮縣,公共建設,21,國小,花蓮縣富里鄉學田國民小學,23.155143323098986,121.22697445040895
U,花蓮縣,公共建設,21,國小,花蓮縣鳳林鎮鳳林國民小學,23.743353524271413,121.44680823137877
U,花蓮縣,公共建設,21,國小,花蓮縣卓溪鄉卓清國民小學,23.278002588771738,121.27291723038675
U,花蓮縣,公共建設,21,國小,花蓮縣壽豐鄉月眉國民小學,23.86801269682212,121.55632715794997
U,花蓮縣,公共建設,21,國小,花蓮縣秀林鄉西寶國民小學,24.207071730300527,121.48262278667612
U,花蓮縣,公共建設,21,國小,花蓮縣壽豐鄉壽豐國民小學附設幼稚園,23.870290055519362,121.50802125600705
U,花蓮縣,公共建設,21,國小,花蓮縣吉安鄉宜昌國民小學附設幼稚園,23.971213911254228,121.58569432262098
U,花蓮縣,公共建設,21,國小,花蓮縣花蓮市復興國民小學,24.00666034576213,121.61908779357162
U,花蓮縣,公共建設,21,國小,花蓮縣國立東華大學附設實驗國民小學,23.99092208816592,121.62256425648354
U,花蓮縣,公共建設,21,國小,花蓮縣秀林鄉三棧國民小學,24.102916678483126,121.60634719251783
U,花蓮縣,公共建設,21,國小,花蓮縣花蓮市中原國民小學(1),23.971743056966236,121.59594644519953
U,花蓮縣,公共建設,21,國小,花蓮縣新城鄉北埔國民小學附設幼稚園,24.03256400244662,121.60529300312817
U,花蓮縣,公共建設,21,國小,花蓮縣壽豐鄉月眉國民小學附設幼稚園,23.867929735228877,121.55642342749995
U,花蓮縣,公共建設,21,國小,花蓮縣光復鄉太巴塱國民小學,23.659948604672973,121.44836931593525
U,花蓮縣,公共建設,21,國小,花蓮縣瑞穗鄉瑞北國民小學,23.52559107716232,121.37863280780645
U,花蓮縣,公共建設,21,國小,花蓮縣萬榮鄉明利國民小學,23.705580606801657,121.41235766342623
U,花蓮縣,公共建設,21,國小,花蓮縣壽豐鄉豐山國民小學,23.846435344972157,121.49179005282988
U,花蓮縣,公共建設,21,國小,花蓮縣壽豐鄉溪口國民小學,23.819556842084907,121.47301332646384
U,花蓮縣,公共建設,21,國小,花蓮縣花蓮市明廉國民小學,23.9948791881598,121.59481364629451
U,花蓮縣,公共建設,21,國小,花蓮縣鳳林鎮北林國民小學附設幼稚園,23.771497797199427,121.46824465794637
U,花蓮縣,公共建設,21,國小,花蓮縣豐濱鄉靜浦國民小學,23.46148220005526,121.49543938662791
U,花蓮縣,公共建設,21,國小,花蓮縣豐濱鄉新社國民小學,23.65185717966615,121.53542869034857
U,花蓮縣,公共建設,21,國小,花蓮縣花蓮市北昌國民小學,23.98707977373204,121.59167463720051
U,花蓮縣,公共建設,21,國小,花蓮縣新城鄉康樂國民小學,24.052522169408906,121.60789036267803
U,花蓮縣,公共建設,21,國小,花蓮縣花蓮市明義國民小學博愛分校,23.982541959308964,121.60054686453256
U,花蓮縣,公共建設,21,國小,花蓮縣新城鄉康樂國民小學附設幼稚園,24.051884989201426,121.60800301081156
U,花蓮縣,公共建設,21,國小,花蓮縣私立海星國民小學生態運動園區,23.99159195668659,121.62533387849624
U,花蓮縣,公共建設,21,國小,花蓮縣萬榮鄉西林國民小學(1),23.81179057433438,121.4412189555487
U,花蓮縣,公共建設,21,國小,花蓮縣富里鄉東里國民小學,23.265544057116944,121.30287315806909
U,花蓮縣,公共建設,21,國小,花蓮縣卓溪鄉卓楓國民小學,23.243765541277533,121.27197939421632
U,花蓮縣,公共建設,21,國小,花蓮縣秀林鄉水源國民小學附設幼稚園,24.00374559782297,121.55600768398028
U,花蓮縣,公共建設,21,國小,花蓮縣鳳林鎮鳳林國民小學附設幼稚園,23.743205492925693,121.4467506954491
U,花蓮縣,公共建設,21,國小,花蓮縣花蓮市信義國民小學附設幼稚園,23.97124321179101,121.60652275920872
U,花蓮縣,公共建設,21,國小,花蓮縣萬榮鄉見晴國民小學,23.783941835272756,121.45199841491205
U,花蓮縣,公共建設,21,國小,花蓮縣新城鄉新城國民小學,24.127935259182053,121.6514798509708
U,花蓮縣,公共建設,21,國小,花蓮縣吉安鄉光華國民小學,23.935709722968205,121.57865301276607
U,花蓮縣,公共建設,21,國小,花蓮縣秀林鄉三棧國民小學附設幼稚園,24.102808170610835,121.6064589627905
U,花蓮縣,公共建設,21,國小,花蓮縣玉里鎮德武國民小學,23.465904141633942,121.40558318537443
U,花蓮縣,公共建設,21,國小,花蓮縣鳳林鎮大榮國民小學附設幼稚園,23.754102782883738,121.46830679435342
U,花蓮縣,公共建設,21,國小,花蓮縣玉里鎮三民國民小學,23.429908049462462,121.34847152762771
U,花蓮縣,公共建設,21,國小,花蓮縣壽豐鄉平和國民小學,23.88406107444141,121.51936848715106
U,花蓮縣,公共建設,21,國小,花蓮縣萬榮鄉西林國民小學(2),23.81148600221042,121.44182767409073
U,花蓮縣,公共建設,21,國小,花蓮縣富里鄉吳江國民小學,23.278727926243015,121.32265307577724
U,花蓮縣,公共建設,21,國小,花蓮縣鳳林鎮長橋國民小學,23.709243471232014,121.42006560033039
U,花蓮縣,公共建設,21,國小,花蓮縣花蓮市國福國民小學附設幼稚園,24.009031202288398,121.58037495474707
U,花蓮縣,公共建設,21,國小,花蓮縣花蓮市中原國民小學附設幼稚園,23.97164267566676,121.59604574024537
U,花蓮縣,公共建設,21,國小,花蓮縣秀林鄉水源國民小學,24.003295759028845,121.55680562517645
U,花蓮縣,公共建設,21,國小,花蓮縣花蓮市中華國民小學附設幼稚園,23.991843884268494,121.6070404970067
U,花蓮縣,公共建設,21,國小,花蓮縣花蓮市明義國民小學,23.97874353704384,121.60365703883907
U,花蓮縣,公共建設,21,國小,花蓮縣瑞穗鄉奇美國民小學,23.497074112482608,121.44563939214719
U,花蓮縣,公共建設,21,國小,花蓮縣卓溪鄉古風國民小學,23.2196669531712,121.2645743208592
U,花蓮縣,公共建設,21,國小,花蓮縣秀林鄉崇德國民小學,24.16198710770805,121.65237099653078
U,花蓮縣,公共建設,21,國小,花蓮縣吉安鄉稻香國民小學附設幼稚園,23.963297502920742,121.56882061096742
U,花蓮縣,公共建設,21,國小,花蓮縣玉里鎮玉里國民小學,23.32891953087615,121.31924696296184
U,花蓮縣,公共建設,21,國小,花蓮縣鳳林鎮林榮國民小學附設幼稚園,23.80103806528981,121.45297521820764
U,花蓮縣,公共建設,21,國小,花蓮縣豐濱鄉豐濱國民小學,23.5982302009647,121.52096277980853
U,花蓮縣,公共建設,21,國小,花蓮縣豐濱鄉豐濱國民小學附設幼稚園,23.5985807506448,121.52109523750316
U,花蓮縣,公共建設,21,國小,花蓮縣秀林鄉文蘭國民小學,23.921718238652932,121.50201862004917
U,花蓮縣,公共建設,21,國小,花蓮縣花蓮市忠孝國民小學,23.975627326713145,121.59837863094268
U,花蓮縣,公共建設,21,國小,花蓮縣卓溪鄉卓溪國民小學,23.345772848637314,121.30330800160698
U,花蓮縣,公共建設,21,國小,花蓮縣鳳林鎮中興國民小學,23.764130785683747,121.50107592266531
U,花蓮縣,公共建設,21,國小,花蓮縣花蓮市北濱國民小學附設幼稚園,23.977798591907483,121.6160936681517
U,花蓮縣,公共建設,21,國小,花蓮縣玉里鎮長良國民小學,23.28452712402065,121.28606755915277
U,花蓮縣,公共建設,21,國小,花蓮縣花蓮市北濱國民小學,23.977873697138932,121.61617436892529
U,花蓮縣,公共建設,21,國小,花蓮縣玉里鎮玉里國民小學附設幼稚園,23.34074242073067,121.32044457189669
U,花蓮縣,公共建設,21,國小,花蓮縣卓溪鄉太平國民小學,23.406087882951944,121.32038259838413
U,花蓮縣,公共建設,21,國小,花蓮縣秀林鄉銅蘭國民小學,23.94714641404253,121.50708977642077
U,花蓮縣,公共建設,21,國小,花蓮縣富里鄉東竹國民小學,23.214865597170448,121.28003106133194
U,花蓮縣,公共建設,21,國小,花蓮縣秀林鄉銅門國民小學,23.96549074489597,121.49321448401672
U,花蓮縣,公共建設,21,國小,花蓮縣豐濱鄉新社國民小學附設幼稚園,23.65199275331127,121.53555041875957
U,花蓮縣,公共建設,21,國小,花蓮縣秀林鄉和平國民小學附設幼稚園,24.307885161818383,121.7491355065716
U,花蓮縣,公共建設,21,國小,花蓮縣吉安鄉化仁國民小學,23.962763081266548,121.59619963017607
U,花蓮縣,公共建設,21,國小,花蓮縣玉里鎮春日國民小學,23.452045089131722,121.39306074308105
U,花蓮縣,公共建設,21,國小,花蓮縣萬榮鄉明利國民小學附設幼稚園,23.70626459888116,121.41287522380291
U,花蓮縣,公共建設,21,國小,花蓮縣花蓮市國福國民小學,24.009090886381593,121.58029914474241
U,花蓮縣,公共建設,21,國小,花蓮縣秀林鄉文蘭國民小學附設幼稚園,23.921676727893864,121.50197536772828
U,花蓮縣,公共建設,21,國小,花蓮縣萬榮鄉西林國民小學附設幼稚園,23.811442210983717,121.44042861408653
U,花蓮縣,公共建設,21,國小,花蓮縣瑞穗鄉瑞穗國民小學,23.498005271643617,121.37411354439215
U,花蓮縣,公共建設,21,國小,花蓮縣豐濱鄉港口國民小學,23.468527213625848,121.4968757478877
U,花蓮縣,公共建設,21,國小,花蓮縣卓溪鄉卓樂國民小學,23.29588492339091,121.2674272857309
U,花蓮縣,公共建設,21,國小,花蓮縣玉里鎮源城國民小學,23.321714865632764,121.29918467615585
U,花蓮縣,公共建設,21,國小,花蓮縣吉安鄉太昌國民小學附設幼稚園,23.994968850863515,121.56494659051052
U,花蓮縣,公共建設,21,國小,花蓮縣秀林鄉崇德國民小學附設國民教育幼兒班,24.16192340728094,121.65234493939745
U,花蓮縣,公共建設,21,國小,花蓮縣秀林鄉景美國民小學,24.082818623097968,121.60599408113194
U,花蓮縣,公共建設,21,國小,花蓮縣玉里鎮樂合國民小學,23.32113610614,121.3398396483914
U,花蓮縣,公共建設,21,國小,花蓮縣吉安鄉化仁國民小學附設幼稚園,23.963107611796527,121.59616713931385
U,花蓮縣,公共建設,21,國小,花蓮縣卓溪鄉崙山國民小學,23.438505661758356,121.34418634027047
U,花蓮縣,公共建設,21,國小,花蓮縣光復鄉大進國民小學,23.654673951717623,121.41914851786322
U,花蓮縣,公共建設,21,國小,花蓮縣秀林鄉秀林國民小學,24.118038078687473,121.62479844401501
U,花蓮縣,公共建設,21,國小,花蓮縣卓溪鄉立山國民小學,23.430954755755778,121.32083987681706
U,花蓮縣,公共建設,21,國小,花蓮縣壽豐鄉豐裡國民小學,23.841729772683113,121.50762241902035
U,花蓮縣,公共建設,21,國小,花蓮縣秀林鄉秀林國民小學附設幼稚園,24.11716004656268,121.62422468687842
U,花蓮縣,公共建設,21,國小,花蓮縣玉里鎮高寮國民小學,23.382955544464668,121.3590504026288
U,花蓮縣,公共建設,21,國小,花蓮縣壽豐鄉水璉國民小學附設幼稚園,23.78295667508519,121.5636085412048
U,花蓮縣,公共建設,21,國小,花蓮縣富里鄉富南國民小學,23.1550370445032,121.24002616308357
U,花蓮縣,公共建設,21,國小,花蓮縣花蓮市明恥國民小學,23.991856170745148,121.63125225416927
U,花蓮縣,公共建設,21,國小,花蓮縣光復鄉西富國民小學,23.63630260448605,121.43026700604582
U,花蓮縣,公共建設,21,國小,花蓮縣吉安鄉宜昌國民小學,23.970933970807256,121.58535751972742
U,花蓮縣,公共建設,21,國小,花蓮縣吉安鄉南華國民小學,23.94839732241509,121.54748038517411
U,花蓮縣,公共建設,21,國小,花蓮縣光復鄉光復國民小學附設幼稚園,23.674246940155253,121.42702076222459
U,花蓮縣,公共建設,21,國小,花蓮縣鳳林鎮北林國民小學,23.77156469037434,121.46827253598322
U,花蓮縣,公共建設,21,國小,花蓮縣瑞穗鄉鶴岡國民小學,23.52359066924414,121.39043735170867
U,花蓮縣,公共建設,21,國小,花蓮縣鳳林鎮林榮國民小學,23.801234864176486,121.45284781353821
U,花蓮縣,公共建設,21,國小,花蓮縣秀林鄉佳民國民小學,24.053982392050433,121.59935523198914
U,花蓮縣,公共建設,21,國小,花蓮縣鳳林鎮鳳信國民小學,23.730251265190383,121.44437049091287
U,花蓮縣,公共建設,21,國小,花蓮縣玉里鎮中城國民小學,23.324925023349437,121.31748064438531
U,花蓮縣,公共建設,21,國小,花蓮縣萬榮鄉見晴國民小學附設幼稚園,23.783958207099566,121.45186520082315
U,花蓮縣,公共建設,21,國小,花蓮縣瑞穗鄉富源國民小學附設幼稚園,23.579287756397086,121.3751445418919
U,花蓮縣,公共建設,21,國小,花蓮縣吉安鄉南華國民小學附設幼稚園,23.948316208119465,121.54745772135392
U,花蓮縣,公共建設,21,國小,花蓮縣瑞穗鄉舞鶴國民小學,23.458946458378037,121.35204241690026
U,花蓮縣,公共建設,21,國小,花蓮縣花蓮市中原國民小學(2),23.970876101080375,121.59398308346306
U,花蓮縣,公共建設,21,國小,花蓮縣花蓮市鑄強國民小學,23.992731535447298,121.62564143747458
U,花蓮縣,公共建設,21,國小,花蓮縣富里鄉永豐國民小學,23.154682630505622,121.26652069086418
U,花蓮縣,公共建設,21,國小,花蓮縣壽豐鄉壽豐國民小學,23.870340888980877,121.50794043986394
U,花蓮縣,公共建設,21,國小,花蓮縣鳳林鎮長橋國民小學附設幼稚園,23.70945298411666,121.42010421344561
U,花蓮縣,公共建設,21,國小,花蓮縣吉安鄉光華國民小學附設幼稚園,23.935606178908316,121.57880743005367
U,花蓮縣,公共建設,21,國小,花蓮縣花蓮市明義國民小學附設幼稚園,23.979064302559628,121.60339754196298
U,花蓮縣,公共建設,21,國小,花蓮縣萬榮鄉馬遠國民小學,23.577158044707655,121.36131789084912
U,花蓮縣,公共建設,21,國小,花蓮縣光復鄉大進國民小學附設幼稚園,23.654883101940822,121.41928478474611
U,花蓮縣,公共建設,21,國小,花蓮縣玉里鎮玉里國民小學永昌分校,23.340961416621536,121.32039335379092
U,花蓮縣,公共建設,21,國小,花蓮縣秀林鄉和平國民小學,24.307945993468223,121.74911377600559
U,花蓮縣,公共建設,21,國小,花蓮縣壽豐鄉水璉國民小學,23.78266489396289,121.56340466371789
U,花蓮縣,公共建設,21,國小,花蓮縣瑞穗鄉瑞美國民小學,23.493264753257616,121.39071230736656
U,花蓮縣,公共建設,21,國小,花蓮縣玉里鎮觀音國民小學,23.394564058117275,121.35717598844987
U,花蓮縣,公共建設,21,國小,花蓮縣富里鄉萬寧國民小學,23.253947907561077,121.29747739942046
U,花蓮縣,公共建設,21,國小,花蓮縣秀林鄉富世國民小學,24.147529695760273,121.6292171990673
U,花蓮縣,公共建設,21,國小,花蓮縣秀林鄉銅門國民小學附設幼稚園,23.96546227876081,121.49326402625077
U,花蓮縣,公共建設,21,國小,花蓮縣玉里鎮大禹國民小學,23.38010278853445,121.3289297027569
U,花蓮縣,公共建設,21,國小,花蓮縣光復鄉大富國民小學,23.607373236038097,121.3909275652312
U,花蓮縣,公共建設,21,國小,花蓮縣鳳林鎮鳳仁國民小學,23.751116847034467,121.45181671504506
U,花蓮縣,公共建設,21,國小,花蓮縣花蓮市北昌國民小學附設幼稚園,23.987415985899755,121.59193989479837
U,花蓮縣,公共建設,21,國小,花蓮縣壽豐鄉志學國民小學附設幼稚園,23.904904795725127,121.53192396796395
U,花蓮縣,公共建設,21,國小,花蓮縣玉里鎮松浦國民小學,23.42866561245625,121.37346034589324
U,花蓮縣,公共建設,21,國小,花蓮縣光復鄉光復國民小學,23.673570348156705,121.4269252585358
U,花蓮縣,公共建設,21,國小,花蓮縣光復鄉大興國民小學,23.632330251114976,121.39815693039134
U,花蓮縣,公共建設,21,國小,花蓮縣花蓮市明禮國民小學,23.980338719951583,121.61032333683916
U,花蓮縣,公共建設,21,國小,花蓮縣吉安鄉稻香國民小學,23.96305691203179,121.56928503756693
U,花蓮縣,公共建設,21,國小,花蓮縣萬榮鄉紅葉國民小學,23.49478873908922,121.34547780398816
U,花蓮縣,公共建設,21,國小,花蓮縣富里鄉富里國民小學,23.171854350306816,121.24833067003165
U,花蓮縣,公共建設,21,國小,花蓮縣鳳林鎮大榮國民小學,23.75422572321994,121.46835646098044
U,花蓮縣,公共建設,21,國小,花蓮縣光復鄉太巴塱國民小學附設幼稚園,23.660091293392902,121.448396868618
U,花蓮縣,公共建設,21,國小,縣立秀林國小,24.11761299668555,121.6246019998882
U,花蓮縣,公共建設,21,國小,縣立水源國小,24.00392699914493,121.55667599991841
U,花蓮縣,公共建設,21,國小,縣立和平國小,24.308194009915727,121.74896699994112
U,花蓮縣,公共建設,21,國小,縣立佳民國小,24.053697997006523,121.59922899989957
U,花蓮縣,公共建設,21,國小,縣立富世國小,24.147841008729955,121.62936399995452
U,花蓮縣,公共建設,21,國小,縣立三棧國小,24.102697997907125,121.60640099990256
U,花蓮縣,公共建設,21,國小,縣立銅門國小,23.964956004628487,121.49336699995041
U,花蓮縣,公共建設,21,國小,縣立崇德國小,24.161375997244896,121.65288999989073
U,花蓮縣,公共建設,21,國小,縣立銅蘭國小,23.949562003301654,121.5070339999412
U,花蓮縣,公共建設,21,國小,縣立景美國小,24.082474002755514,121.60622699992103
U,花蓮縣,公共建設,21,國小,縣立西寶國小,24.204800999011237,121.48474699992919
U,花蓮縣,公共建設,21,國小,縣立文蘭國小,23.922582995489854,121.50124099991302
U,花蓮縣,公共建設,21,國小,縣立和平國小和中分校,24.266969992982418,121.74144699984238
U,花蓮縣,公共建設,21,國小,縣立文蘭國小重光分校,23.89296600316649,121.50121499994417
U,花蓮縣,公共建設,21,國小,縣立秀林國中,24.125255000742914,121.65395599990292
U,花蓮縣,公共建設,21,國小,縣立新城國中,24.03038300480168,121.60425299993972
U,花蓮縣,公共建設,21,國小,縣立新城國小,24.127705004842188,121.65123399992602
U,花蓮縣,公共建設,21,國小,縣立康樂國小,24.052129002080033,121.60794299992072
U,花蓮縣,公共建設,21,國小,縣立嘉里國小,24.014653000864488,121.6091819999154
U,花蓮縣,公共建設,21,國小,縣立北埔國小,24.03209399764667,121.60539099989775
U,花蓮縣,公共建設,21,國小,縣立北濱國小,23.97778100549562,121.61721399993574
U,花蓮縣,公共建設,21,國小,縣立明義國小,23.978829992584267,121.6032649998755
U,花蓮縣,公共建設,21,國小,縣立信義國小,23.971143995164695,121.6062259998904
U,花蓮縣,公共建設,21,國小,縣立花崗國中,23.977720009530096,121.61229099995302
U,花蓮縣,公共建設,21,國小,縣立花崗國中,23.977720009530096,121.61229099995302
U,花蓮縣,公共建設,21,國小,縣立美崙國中,23.99782899822372,121.62770799990425
U,花蓮縣,公共建設,21,國小,縣立美崙國中,23.99782899822372,121.62770799990425
U,花蓮縣,公共建設,21,國小,縣立國風國中,23.978482003612534,121.59537199993451
U,花蓮縣,公共建設,21,國小,縣立國風國中,23.978482003612534,121.59537199993451
U,花蓮縣,公共建設,21,國小,縣立自強國中,23.997925001292902,121.59905899992172
U,花蓮縣,公共建設,21,國小,縣立自強國中,23.997925001292902,121.59905899992172
U,花蓮縣,公共建設,21,國小,縣立復興國小,24.00671199939021,121.61929799991178
U,花蓮縣,公共建設,21,國小,縣立明廉國小,23.995007994878854,121.59472099988803
U,花蓮縣,公共建設,21,國小,私立慈濟大學附實小,23.999908001961963,121.57420199993055
U,花蓮縣,公共建設,21,國小,私立慈濟大學附實小,23.999908001961963,121.57420199993055
U,花蓮縣,公共建設,21,國小,縣立中正國小,23.9716930026534,121.59971399992416
U,花蓮縣,公共建設,21,國小,縣立中正國小,23.9716930026534,121.59971399992416
U,花蓮縣,公共建設,21,國小,國立花蓮師範學院附小,23.991014998435357,121.6225649999065
U,花蓮縣,公共建設,21,國小,國立花蓮師範學院附小,23.991014998435357,121.6225649999065
U,花蓮縣,公共建設,21,國小,縣立忠孝國小,23.97565199873357,121.59864199991036
U,花蓮縣,公共建設,21,國小,縣立忠孝國小,23.97565199873357,121.59864199991036
U,花蓮縣,公共建設,21,國小,縣立明恥國小,23.991828999316848,121.63100099990092
U,花蓮縣,公共建設,21,國小,縣立明恥國小,23.991828999316848,121.63100099990092
U,花蓮縣,公共建設,21,國小,私立海星國小,23.9921519944775,121.62480099988775
U,花蓮縣,公共建設,21,國小,私立海星國小,23.9921519944775,121.62480099988775
U,花蓮縣,公共建設,21,國小,縣立明禮國小,23.98001999484925,121.61055199988591
U,花蓮縣,公共建設,21,國小,縣立明禮國小,23.98001999484925,121.61055199988591
U,花蓮縣,公共建設,21,國小,縣立中華國小,23.99196199617961,121.60704099989303
U,花蓮縣,公共建設,21,國小,縣立鑄強國小,23.992817007857525,121.62553099995039
U,花蓮縣,公共建設,21,國小,縣立鑄強國小,23.992817007857525,121.62553099995039
U,花蓮縣,公共建設,21,國小,縣立中正國小中原分校,23.971759998327542,121.59645199990317
U,花蓮縣,公共建設,21,國小,縣立國福國小,24.00453599507305,121.61740199988425
U,花蓮縣,公共建設,21,國小,縣立北昌國小,23.987454005039474,121.59150199993991
U,花蓮縣,公共建設,21,國小,縣立化仁國小,23.962605002319542,121.59610499992768
U,花蓮縣,公共建設,21,國小,縣立吉安國中,23.983476999196366,121.56123599991408
U,花蓮縣,公共建設,21,國小,縣立吉安國中,23.983476999196366,121.56123599991408
U,花蓮縣,公共建設,21,國小,縣立化仁國中,23.96550599606133,121.59321999989375
U,花蓮縣,公共建設,21,國小,縣立化仁國中,23.96550599606133,121.59321999989375
U,花蓮縣,公共建設,21,國小,縣立太昌國小,23.99518300584165,121.56511999994315
U,花蓮縣,公共建設,21,國小,縣立宜昌國小,23.971078994017333,121.58551199989019
U,花蓮縣,公共建設,21,國小,縣立吉安國小,23.973413006542042,121.56281399994657
U,花蓮縣,公共建設,21,國小,縣立吉安國小,23.973413006542042,121.56281399994657
U,花蓮縣,公共建設,21,國小,縣立宜昌國中,23.972300005621815,121.5875909999419
U,花蓮縣,公共建設,21,國小,縣立稻香國小,23.962979996877692,121.56868299990728
U,花蓮縣,公共建設,21,國小,縣立光華國小,23.935675005532023,121.57852499994075
U,花蓮縣,公共建設,21,國小,縣立南華國小,23.94933399702353,121.54700899990934
U,花蓮縣,公共建設,21,國小,縣立仁里國小,23.971117003426578,121.58985599993001
U,花蓮縣,公共建設,21,國小,國立花蓮啟智學校,23.97095900043722,121.58404799991659
U,花蓮縣,公共建設,21,國小,縣立水璉國中,23.78765100787899,121.56273699995843
U,花蓮縣,公共建設,21,國小,縣立壽豐國中,23.845115001381664,121.49969599993418
U,花蓮縣,公共建設,21,國小,縣立溪口國小,23.819646002973016,121.47280299994651
U,花蓮縣,公共建設,21,國小,縣立水璉國小,23.782588991809142,121.5642659998854
U,花蓮縣,公共建設,21,國小,縣立豐裡國小,23.842377991835235,121.50818699989897
U,花蓮縣,公共建設,21,國小,縣立豐山國小,23.846674998893356,121.49189699992264
U,花蓮縣,公共建設,21,國小,縣立志學國小,23.904331994680643,121.53163599990476
U,花蓮縣,公共建設,21,國小,縣立壽豐國小,23.870099998132815,121.50783299992491
U,花蓮縣,公共建設,21,國小,縣立平和國中,23.88578000222911,121.51725299993237
U,花蓮縣,公共建設,21,國小,縣立月眉國小,23.868396994905645,121.55655599990088
U,花蓮縣,公共建設,21,國小,縣立平和國小,23.884055996582187,121.5198379999107
U,花蓮縣,公共建設,21,國小,縣立鳳林國中,23.743867996505358,121.44919299992793
U,花蓮縣,公共建設,21,國小,縣立萬榮國中,23.708107997800983,121.41784599993035
U,花蓮縣,公共建設,21,國小,縣立南平國中,23.783758002086362,121.45647299994496
U,花蓮縣,公共建設,21,國小,縣立鳳信國小,23.72988599808277,121.44433899993204
U,花蓮縣,公共建設,21,國小,縣立鳳林國小,23.74306300477474,121.44660099994921
U,花蓮縣,公共建設,21,國小,縣立北林國小,23.771441001225526,121.46859699993944
U,花蓮縣,公共建設,21,國小,縣立林榮國小,23.801195996908806,121.45257999992988
U,花蓮縣,公共建設,21,國小,縣立鳳仁國小,23.751264000420257,121.45213199993968
U,花蓮縣,公共建設,21,國小,縣立長橋國小,23.709095995714936,121.41980099992861
U,花蓮縣,公共建設,21,國小,縣立大榮國小,23.754468000679086,121.46764299994042
U,花蓮縣,公共建設,21,國小,縣立萬榮國小,23.71553000042505,121.41100499994681
U,花蓮縣,公共建設,21,國小,縣立明利國小,23.70550199687053,121.41300299993419
U,花蓮縣,公共建設,21,國小,縣立紅葉國小,23.49454699882672,121.34575599995026
U,花蓮縣,公共建設,21,國小,縣立見晴國小,23.783680996594093,121.4518909999246
U,花蓮縣,公共建設,21,國小,縣立西林國小,23.81143300225401,121.44100499994879
U,花蓮縣,公共建設,21,國小,縣立森榮國小,23.716467006240883,121.39829799996492
U,花蓮縣,公共建設,21,國小,縣立西富國小,23.636738996542498,121.42999899992844
U,花蓮縣,公共建設,21,國小,縣立富源國中,23.588639003680335,121.38438999995601
U,花蓮縣,公共建設,21,國小,縣立光復國中,23.670796001021504,121.42465899994642
U,花蓮縣,公共建設,21,國小,縣立光復國小,23.67422300360777,121.4263959999511
U,花蓮縣,公共建設,21,國小,縣立太巴塱國小,23.660435998315034,121.4480549999289
U,花蓮縣,公共建設,21,國小,縣立大富國小,23.607676002572816,121.39079499995287
U,花蓮縣,公共建設,21,國小,縣立大興國小,23.631947999617775,121.39804199994111
U,花蓮縣,公共建設,21,國小,縣立大進國小,23.654736997605532,121.41962699993434
U,花蓮縣,公共建設,21,國小,縣立東富國小,23.684714001023966,121.4822679999333
U,花蓮縣,公共建設,21,國小,縣立大全國小,23.651759997404824,121.41833399993418
U,花蓮縣,公共建設,21,國小,縣立豐濱國小,23.59808599423915,121.52037999990692
U,花蓮縣,公共建設,21,國小,縣立豐濱國中,23.60070100525848,121.5214389999533
U,花蓮縣,公共建設,21,國小,縣立新社國小,23.65175999971903,121.53581499992518
U,花蓮縣,公共建設,21,國小,縣立港口國小,23.468041994659544,121.49681699991037
U,花蓮縣,公共建設,21,國小,縣立靜浦國小,23.46154600018437,121.49507899993897
U,花蓮縣,公共建設,21,國小,縣立磯崎國小,23.707882994456337,121.54775299989888
U,花蓮縣,公共建設,21,國小,縣立瑞穗國中,23.49935699979996,121.37437799995017
U,花蓮縣,公共建設,21,國小,縣立瑞美國小,23.492541000855898,121.39210999994711
U,花蓮縣,公共建設,21,國小,縣立瑞穗國小,23.497640991074498,121.3745499999207
U,花蓮縣,公共建設,21,國小,縣立鶴岡國小,23.52288600660061,121.390377999967
U,花蓮縣,公共建設,21,國小,縣立瑞北國小,23.525894003144554,121.37914399995489
U,花蓮縣,公共建設,21,國小,縣立富源國小,23.578457992582507,121.37522899992517
U,花蓮縣,公共建設,21,國小,縣立奇美國小,23.49682100070537,121.44599199994556
U,花蓮縣,公共建設,21,國小,縣立舞鶴國小,23.458862996629048,121.35231899994724
U,花蓮縣,公共建設,21,國小,縣立馬遠國小,23.576773997446995,121.36176399994167
U,花蓮縣,公共建設,21,國小,縣立太平國小,23.405654992981873,121.32020299993451
U,花蓮縣,公共建設,21,國小,縣立卓樂國小,23.295855004328864,121.26778299996809
U,花蓮縣,公共建設,21,國小,縣立立山國小,23.430486997091638,121.320712999952
U,花蓮縣,公共建設,21,國小,縣立崙山國小,23.438653006444174,121.34462199996483
U,花蓮縣,公共建設,21,國小,縣立卓楓國小,23.24310999484575,121.27218299995475
U,花蓮縣,公共建設,21,國小,縣立古風國小,23.219372995283578,121.26504099995046
U,花蓮縣,公共建設,21,國小,縣立古風國小石平分校,23.177877992121797,121.23644799994864
U,花蓮縣,公共建設,21,國小,縣立卓清國小,23.277966995716415,121.27237099994909
U,花蓮縣,公共建設,21,國小,縣立玉里國中,23.33613999439621,121.3114789999438
U,花蓮縣,公共建設,21,國小,縣立中城國小,23.324659992188852,121.31709499993767
U,花蓮縣,公共建設,21,國小,縣立源城國小,23.32162399550323,121.29975099994854
U,花蓮縣,公共建設,21,國小,縣立玉里國小,23.33576699066153,121.3173649999302
U,花蓮縣,公共建設,21,國小,縣立玉里國小永昌分校,23.341270004614795,121.31986299996684
U,花蓮縣,公共建設,21,國小,縣立三民國中,23.433042996643056,121.3498429999453
U,花蓮縣,公共建設,21,國小,縣立玉東國中,23.41701099567799,121.37097599993585
U,花蓮縣,公共建設,21,國小,縣立三民國小,23.430336996724815,121.34835799993971
U,花蓮縣,公共建設,21,國小,縣立長良國小,23.284444000787417,121.28635299995805
U,花蓮縣,公共建設,21,國小,縣立大禹國小,23.379900993921442,121.32880799993914
U,花蓮縣,公共建設,21,國小,縣立德武國小,23.466138996471727,121.40542299993189
U,花蓮縣,公共建設,21,國小,縣立觀音國小,23.39474000297045,121.35663999995856
U,花蓮縣,公共建設,21,國小,縣立松浦國小,23.428834994703696,121.37310299993905
U,花蓮縣,公共建設,21,國小,縣立春日國小,23.452086002477756,121.392420999959
U,花蓮縣,公共建設,21,國小,縣立高寮國小,23.382722994756268,121.35960099993576
U,花蓮縣,公共建設,21,國小,縣立樂合國小,23.320911003847517,121.33959499996166
U,花蓮縣,公共建設,21,國小,縣立卓溪國小,23.34545699132597,121.30315899993477
U,花蓮縣,公共建設,21,國小,縣立東里國中,23.262831000122517,121.30249299995545
U,花蓮縣,公共建設,21,國小,縣立富里國小,23.171897996296387,121.24904699996056
U,花蓮縣,公共建設,21,國小,縣立學田國小,23.155134999537044,121.22721799996354
U,花蓮縣,公共建設,21,國小,縣立東里國小,23.265359000480274,121.30304599996363
U,花蓮縣,公共建設,21,國小,縣立富北國中,23.225396999930034,121.28002299995792
U,花蓮縣,公共建設,21,國小,縣立富里國中,23.175149003985815,121.24949199997411
U,花蓮縣,公共建設,21,國小,縣立明里國小,23.20124700129149,121.24916899996595
U,花蓮縣,公共建設,21,國小,縣立吳江國小,23.27895599756059,121.3224799999545
U,花蓮縣,公共建設,21,國小,縣立富南國小,23.15439299422498,121.24036199995949
U,花蓮縣,公共建設,21,國小,縣立永豐國小,23.154441007234247,121.26677899997576
U,花蓮縣,公共建設,21,國小,縣立東竹國小,23.21419999458867,121.27939299995238
U,花蓮縣,公共建設,21,國小,縣立萬寧國小,23.25362899769007,121.29792699995312
U,花蓮縣,公共建設,21,國小,縣立羅山國小,23.20192299643087,121.27690599995935
U,花蓮縣,公共建設,22,國中,花蓮縣立富里國民中學,23.175768021369453,121.24915414528547
U,花蓮縣,公共建設,22,國中,花蓮縣立光復國民中學(2),23.670843596025307,121.42626138586311
U,花蓮縣,公共建設,22,國中,花蓮縣立平和國民中學,23.885598332063765,121.5187458658652
U,花蓮縣,公共建設,22,國中,花蓮縣立三民國民中學,23.432724876353333,121.34973260123978
U,花蓮縣,公共建設,22,國中,花蓮縣佛教慈濟大學附屬高級中學,23.999655984365393,121.57431278334857
U,花蓮縣,公共建設,22,國中,花蓮縣立光復國民中學(1),23.671001364832023,121.42518747139411
U,花蓮縣,公共建設,22,國中,花蓮縣立瑞穗國民中學,23.499036273958183,121.37523912755397
U,花蓮縣,公共建設,22,國中,花蓮縣立宜昌國民中學,23.97191491672481,121.58671522509954
U,花蓮縣,公共建設,22,國中,花蓮縣立富源國民中學,23.588700437393864,121.38517427747735
U,花蓮縣,公共建設,22,國中,花蓮縣玉里文中二學校預定地,23.324827227731923,121.32225141951729
U,花蓮縣,公共建設,22,國中,花蓮縣立化仁國民中學水璉分校,23.788069034959115,121.56318650872758
U,花蓮縣,公共建設,22,國中,花蓮縣立玉里國民中學,23.336008234493285,121.31264871625199
U,花蓮縣,公共建設,22,國中,花蓮縣國立玉里高級中學,23.34488611099777,121.31987300721114
U,花蓮縣,公共建設,22,國中,花蓮縣立萬榮國民中學,23.708157048429694,121.41783938510325
U,花蓮縣,公共建設,22,國中,花蓮縣國立花蓮高級中學(2),23.986403266405713,121.62415864428564
U,花蓮縣,公共建設,22,國中,花蓮縣私立海星高級中學,24.007391281553396,121.6132940393333
U,花蓮縣,公共建設,22,國中,花蓮縣私立四維高級中學,24.00047810366724,121.59158054249019
U,花蓮縣,公共建設,22,國中,花蓮縣立新城國民中學,24.03039594450759,121.60452897520067
U,花蓮縣,公共建設,22,國中,花蓮縣私立海星高級中學國中部,24.007353682282186,121.6132985495122
U,花蓮縣,公共建設,22,國中,花蓮縣國立花蓮高級中學(1),23.98654111907314,121.62496085162981
U,花蓮縣,公共建設,22,國中,花蓮縣立富北國中,23.225067159987788,121.2799615189284
U,花蓮縣,公共建設,22,國中,花蓮縣立豐濱國民中學,23.601076481873562,121.52162412913327
U,花蓮縣,公共建設,22,國中,花蓮縣立南平中學,23.783477391042066,121.4575521891134
U,花蓮縣,公共建設,22,國中,花蓮縣立壽豐國民中學,23.84534812918419,121.5003886952374
U,花蓮縣,公共建設,22,國中,花蓮縣立秀林國民中學,24.125334636028814,121.65380376309885
U,花蓮縣,公共建設,22,國中,花蓮縣立玉東國民中學,23.417180842098873,121.37068625157744
U,花蓮縣,公共建設,22,國中,花蓮縣立東里國民中學,23.263599199747027,121.30308914524824
U,花蓮縣,公共建設,22,國中,花蓮縣立鳳林國民中學,23.744255982226925,121.44948316503243
U,花蓮縣,公共建設,22,國中,花蓮縣私立正德高級中學進修學校,23.948280237709064,121.52752885567452
U,花蓮縣,公共建設,23,高中,花蓮縣國立花蓮高級農業職業學校畜產保健科,23.956321241057516,121.58534827822062
U,花蓮縣,公共建設,23,高中,花蓮縣國立光復高級商工職業學校,23.667524047859658,121.42755820788356
U,花蓮縣,公共建設,23,高中,花蓮縣花蓮國光商工職業學校(2),23.96794241529195,121.59773385191104
U,花蓮縣,公共建設,23,高中,花蓮縣國立花蓮高級商業職業學校,23.986598577083143,121.60239862196674
U,花蓮縣,公共建設,23,高中,花蓮縣國立光復高級商工職業學校進修學校,23.667581314346005,121.42724780574295
U,花蓮縣,公共建設,23,高中,花蓮縣私立中華高級工商職業學校附設職業訓練中心,23.971819119685613,121.5552068741642
U,花蓮縣,公共建設,23,高中,花蓮縣國立花蓮高級工業職業學校進修學校,23.99865284938038,121.6198064501497
U,花蓮縣,公共建設,23,高中,花蓮縣國立花蓮高級商業職業學校進修學校,23.98647830795487,121.60249322145167
U,花蓮縣,公共建設,23,高中,花蓮縣私立中華高級工商職業學校,23.97192080378275,121.55847909059361
U,花蓮縣,公共建設,23,高中,私立海星高中,24.008582995261808,121.6141169998896
U,花蓮縣,公共建設,23,高中,私立四維高中,23.993370999092022,121.63014399990034
U,花蓮縣,公共建設,23,高中,私立慈濟大學附屬高中,24.00025400844458,121.57339799995613
U,花蓮縣,公共建設,23,高中,國立花蓮高中,23.986721004007002,121.62593399992984
U,花蓮縣,公共建設,23,高中,國立花蓮女中,23.979451003041124,121.61522699992797
U,花蓮縣,公共建設,23,高中,國立花蓮女中,23.979451003041124,121.61522699992797
U,花蓮縣,公共建設,23,高中,國立花蓮高商,23.98652600956583,121.60247499996271
U,花蓮縣,公共建設,23,高中,私立國光商工,23.969388992254462,121.5978169998775
U,花蓮縣,公共建設,23,高中,私立國光商工,23.969388992254462,121.5978169998775
U,花蓮縣,公共建設,23,高中,國立花蓮高工,23.99871799989799,121.61991799991392
U,花蓮縣,公共建設,23,高中,國立花蓮高工,23.99871799989799,121.61991799991392
U,花蓮縣,公共建設,23,高中,國立花蓮高農,23.98357799715594,121.59896299989676
U,花蓮縣,公共建設,23,高中,國立花蓮高農,23.98357799715594,121.59896299989676
U,花蓮縣,公共建設,23,高中,縣立體育實驗高中,24.002975996310973,121.58427999989796
U,花蓮縣,公共建設,23,高中,縣立體育實驗高中,24.002975996310973,121.58427999989796
U,花蓮縣,公共建設,23,高中,私立中華工商,23.972109997866447,121.55865199990902
U,花蓮縣,公共建設,23,高中,私立中華工商,23.972109997866447,121.55865199990902
U,花蓮縣,公共建設,23,高中,國立光復商工,23.66798700235944,121.42815999995184
U,花蓮縣,公共建設,23,高中,國立玉里高中,23.34587699670123,121.31898399994465
U,花蓮縣,公共建設,25,大學及研究所,花蓮縣國立東華大學附設實驗幼稚園,23.89429105258818,121.54351662162946
U,花蓮縣,公共建設,25,大學及研究所,花蓮縣玉山神學院,23.93263425119036,121.50618525121426
U,花蓮縣,公共建設,25,大學及研究所,花蓮縣佛教慈濟技術學院進修部,23.99765537737733,121.56495117177128
U,花蓮縣,公共建設,25,大學及研究所,花蓮縣大漢技術學院(2),24.03743799076685,121.61006031390245
U,花蓮縣,公共建設,25,大學及研究所,花蓮縣國立東華大學,23.89424523496762,121.54339669844998
U,花蓮縣,公共建設,25,大學及研究所,花蓮縣佛教慈濟大學人文社會學院,23.999678361734002,121.57333153994276
U,花蓮縣,公共建設,25,大學及研究所,花蓮縣慈濟技術學院(1),23.997004415184378,121.56485164954617
U,花蓮縣,公共建設,25,大學及研究所,花蓮縣國立空中大學花蓮學習指導中心,24.008542616970473,121.61699624759952
U,花蓮縣,公共建設,25,大學及研究所,花蓮縣大漢技術學院(1),24.039816037301357,121.60595980551605
U,花蓮縣,公共建設,25,大學及研究所,花蓮縣臺灣觀光學院,23.85803731274983,121.48583605266016
U,花蓮縣,公共建設,25,大學及研究所,花蓮縣社區大學,23.97860612374955,121.5951856178453
U,花蓮縣,公共建設,25,大學及研究所,花蓮縣慈濟大學(2),23.995495869761037,121.58904220079137
U,花蓮縣,公共建設,25,大學及研究所,花蓮縣花蓮品格英語學院,23.988337799385747,121.61932788355728
U,花蓮縣,公共建設,25,大學及研究所,花蓮縣國立空中大學附設空中專科進修學校,24.008435448322537,121.6168363186088
U,花蓮縣,公共建設,25,大學及研究所,花蓮縣松年大學玉里分校,23.294398705145365,121.3374852040911
U,花蓮縣,公共建設,25,大學及研究所,花蓮縣國立東華大學美崙校區,24.009953228306422,121.61815181222836
U,花蓮縣,公共建設,25,大學及研究所,花蓮縣慈濟技術學院(2),23.995835354011795,121.56262830673074
U,花蓮縣,公共建設,25,大學及研究所,大漢技術學院,24.039498995650117,121.60522899989385
U,花蓮縣,公共建設,25,大學及研究所,私立慈濟技術學院,23.9973510029471,121.56493299992734
U,花蓮縣,公共建設,25,大學及研究所,國立東華大學美崙校區,24.009923004538464,121.6179179999296
U,花蓮縣,公共建設,25,大學及研究所,慈濟大學,23.992427998530843,121.58939199991325
U,花蓮縣,公共建設,25,大學及研究所,慈濟大學,23.992427998530843,121.58939199991325
U,花蓮縣,公共建設,25,大學及研究所,國立東華大學,23.898525006817962,121.53971499994894
U,花蓮縣,公共建設,25,大學及研究所,台灣觀光學院台灣觀光學院,23.85716799426356,121.48616399991063
U,花蓮縣,公共建設,26,幼稚園、托兒所,花蓮縣秀林鄉立富世村托兒所,24.147178461275942,121.62771109561938
U,花蓮縣,公共建設,26,幼稚園、托兒所,花蓮縣萬榮鄉立托兒所,23.70997026448838,121.41496579743057
U,花蓮縣,公共建設,26,幼稚園、托兒所,花蓮縣光復鄉大富社區富豐托兒所,23.605031490745258,121.3908576242328
U,花蓮縣,公共建設,26,幼稚園、托兒所,花蓮縣秀林鄉利水源托兒所,24.0060388600979,121.54641489764964
U,花蓮縣,公共建設,26,幼稚園、托兒所,花蓮縣新城鄉立托兒所新城分所,24.129240421796688,121.64998148523638
U,花蓮縣,公共建設,26,幼稚園、托兒所,花蓮縣新城鄉立托兒所嘉里分所,24.017258152658016,121.60837517112769
U,花蓮縣,公共建設,26,幼稚園、托兒所,花蓮縣壽豐鄉立平和托兒所,23.883318683859706,121.51909397937207
U,花蓮縣,公共建設,26,幼稚園、托兒所,花蓮縣私立立德托兒所,23.97058771623412,121.58923729135823
U,花蓮縣,公共建設,26,幼稚園、托兒所,花蓮縣吉安鄉立示範托兒所,23.98881641127926,121.57266552886304
U,花蓮縣,公共建設,26,幼稚園、托兒所,花蓮縣立南平大區域幼稚園,23.78381117175857,121.45607760894268
U,花蓮縣,公共建設,26,幼稚園、托兒所,花蓮縣壽豐鄉立示範托兒所,23.84425754629226,121.50417009783503
U,花蓮縣,公共建設,26,幼稚園、托兒所,花蓮縣萬榮鄉立托兒所,23.49587020701529,121.34498779603308
U,花蓮縣,公共建設,26,幼稚園、托兒所,花蓮縣花蓮市立托兒所,23.97904377188035,121.61049756795066
U,花蓮縣,公共建設,26,幼稚園、托兒所,花蓮縣秀林鄉佳民托兒所,24.053991329903536,121.60029008500493
U,花蓮縣,公共建設,26,幼稚園、托兒所,花蓮縣玉里鎮中城托兒所,23.32546336532548,121.31708477259231
U,花蓮縣,公共建設,26,幼稚園、托兒所,花蓮縣秀林鄉立幼稚園,24.30895803448593,121.74814733480693
U,花蓮縣,公共建設,26,幼稚園、托兒所,花蓮縣瑞穗鄉立托兒所,23.51049707412148,121.36441022528739
U,花蓮縣,公共建設,26,幼稚園、托兒所,花蓮縣光復鄉立托兒所,23.65212732116207,121.41836609667388
U,花蓮縣,公共建設,26,幼稚園、托兒所,花蓮縣秀林鄉文蘭托兒所,23.947863879701174,121.50669133408367
U,花蓮縣,公共建設,26,幼稚園、托兒所,花蓮縣豐濱鄉靜浦社區托兒所,23.457926906479123,121.49709408437568
U,花蓮縣,公共建設,26,幼稚園、托兒所,花蓮縣新城鄉立托兒所北埔分所,24.049778596029068,121.60865769065421
U,花蓮縣,公共建設,26,幼稚園、托兒所,花蓮縣鳳林鎮示範托兒所,23.74529505968547,121.45195328601142
U,花蓮縣,公共建設,26,幼稚園、托兒所,花蓮縣玉里鎮高寮社區托兒所,23.382523155063506,121.35915962426708
U,花蓮縣,公共建設,26,幼稚園、托兒所,花蓮縣秀林鄉立銅門村托兒所,23.964789845803,121.49436241071929
U,花蓮縣,公共建設,31,傳統市場,花蓮縣池東零售市場,23.59896385892519,121.50581647857729
U,花蓮縣,公共建設,31,傳統市場,花蓮縣慶豐市場,23.980308075764377,121.5657506570149
U,花蓮縣,公共建設,31,傳統市場,花蓮縣豐濱鄉公有市場,23.59813323578869,121.52134840307474
U,花蓮縣,公共建設,31,傳統市場,花蓮縣花蓮市公共造產中山市場,23.98984919961822,121.59863909822752
U,花蓮縣,公共建設,31,傳統市場,花蓮縣黃昏市場,23.9738559300387,121.57870330531277
U,花蓮縣,公共建設,31,傳統市場,花蓮縣北埔市場,24.03349634254212,121.60291113158955
U,花蓮縣,公共建設,31,傳統市場,花蓮縣重慶市場,23.972005782181682,121.60886694909033
U,花蓮縣,公共建設,31,傳統市場,花蓮縣花蓮市公有零售中華市場,23.974632586895535,121.60316459858221
U,花蓮縣,公共建設,31,傳統市場,花蓮縣壽豐鄉公共造產豐田市場,23.84845340349734,121.49364777074531
U,花蓮縣,公共建設,31,傳統市場,花蓮縣自強夜市,23.983832761555337,121.58930816225946
U,花蓮縣,公共建設,31,傳統市場,花蓮縣花蓮市零售大同市場,23.98046345171494,121.60637780861119
U,花蓮縣,公共建設,31,傳統市場,花蓮縣美崙綜合市場,23.993789069077895,121.63018543102295
U,花蓮縣,公共建設,31,傳統市場,花蓮縣富里公有零售市場,23.172771313313163,121.24724759093824
U,花蓮縣,公共建設,31,傳統市場,花蓮縣花蓮市復興公有綜合市場,23.977166098168624,121.6099416953511
U,花蓮縣,公共建設,31,傳統市場,花蓮縣泰山三角市場,23.992494906056983,121.57525529984696
U,花蓮縣,公共建設,31,傳統市場,花蓮縣市場,23.49751418854023,121.3804510204965
U,花蓮縣,公共建設,31,傳統市場,花蓮縣鳳林鎮公共造產中華市場,23.746264792954378,121.4512274645023
U,花蓮縣,公共建設,31,傳統市場,花蓮縣吉安鄉仁里市場,23.96624579448809,121.59266087301394
U,花蓮縣,公共建設,31,傳統市場,花蓮縣南濱觀光夜市,23.966760610741854,121.60881213096377
U,花蓮縣,公共建設,31,傳統市場,花蓮縣蔬菜運銷合作社果菜市場,23.984379694171352,121.58565224689954
U,花蓮縣,公共建設,31,傳統市場,花蓮縣光復鄉第一市場,23.666194844122533,121.42477798059723
U,花蓮縣,公共建設,33,大型購物中心,花蓮縣愛買,23.97869373961835,121.59958559665
U,花蓮縣,公共建設,34,生活百貨量販,花蓮縣全聯福利中心建國店,23.985422903992134,121.59242618113377
U,花蓮縣,公共建設,34,生活百貨量販,花蓮縣全聯福利中心花蓮店,23.988948344567984,121.6019897870984
U,花蓮縣,公共建設,34,生活百貨量販,花蓮縣全聯福利中心慶豐店,23.97653531317531,121.5735317356086
U,花蓮縣,公共建設,34,生活百貨量販,花蓮縣全聯福利中心中正店,23.97244380033375,121.60033244468084
U,花蓮縣,公共建設,34,生活百貨量販,花蓮縣全聯福利中心玉里店,23.3327112195439,121.31406261537401
U,花蓮縣,公共建設,34,生活百貨量販,花蓮縣全聯福利中心吉安店,23.973842943254372,121.58224359621575
U,花蓮縣,公共建設,34,生活百貨量販,花蓮縣全聯福利中心鳳林店,23.74927628000544,121.45008018789683
U,花蓮縣,公共建設,34,生活百貨量販,花蓮縣全聯福利中心重慶店,23.971885128255636,121.60750168399362
U,花蓮縣,公共建設,34,生活百貨量販,花蓮縣全聯福利中心光復店,23.667635577215602,121.42441955858978
U,花蓮縣,公共建設,34,生活百貨量販,花蓮縣全聯福利中心林森店,23.976171200895593,121.59741161601704
U,花蓮縣,公共建設,34,生活百貨量販,花蓮縣家樂福,24.015361854384395,121.61027103202518
U,花蓮縣,公共建設,42,一般公園,新城公園,24.1289480027849,121.64960199992167
U,花蓮縣,公共建設,42,一般公園,海濱公園,24.003355002153263,121.64275499991541
U,花蓮縣,公共建設,42,一般公園,美崙海濱公園,23.983267008408937,121.62404199995433
U,花蓮縣,公共建設,42,一般公園,花崗山運動公園,23.977068999112785,121.61455299990891
U,花蓮縣,公共建設,42,一般公園,北濱公園,23.973758005245795,121.61571999993585
U,花蓮縣,公共建設,42,一般公園,美崙山公園,23.990448007814923,121.6144969999449
U,花蓮縣,公共建設,42,一般公園,美崙林園公園,24.001612005970898,121.63090899993338
U,花蓮縣,公共建設,42,一般公園,中琉紀念公園,23.997209003261027,121.5999659999289
U,花蓮縣,公共建設,42,一般公園,庭石公園,23.99560800216467,121.6299329999226
U,花蓮縣,公共建設,42,一般公園,府前石雕公園,23.99228500899502,121.62147099995026
U,花蓮縣,公共建設,42,一般公園,後備軍人公園,23.990226000505245,121.63373899990873
U,花蓮縣,公共建設,42,一般公園,中山公園,23.989825995333064,121.60060599988758
U,花蓮縣,公共建設,42,一般公園,中韓扶輪公園,23.98768100426784,121.60250899993238
U,花蓮縣,公共建設,42,一般公園,運動公園,23.970554001442796,121.59397299991922
U,花蓮縣,公共建設,42,一般公園,南濱公園,23.9655889974962,121.60801499989792
U,花蓮縣,公共建設,42,一般公園,溪畔公園,23.982066998886506,121.6143989999079
U,花蓮縣,公共建設,42,一般公園,榮安公園,23.990387996661937,121.5726009999013
U,花蓮縣,公共建設,42,一般公園,榮安公園,23.990387996661937,121.5726009999013
U,花蓮縣,公共建設,42,一般公園,中山公園,23.973083001892213,121.57827999992554
U,花蓮縣,公共建設,42,一般公園,南埔公園,23.963874003842555,121.58868499993169
U,花蓮縣,公共建設,42,一般公園,吳全社區公園,23.88952499963063,121.55345099991688
U,花蓮縣,公共建設,42,一般公園,福德公園,23.87019499750018,121.51241599991663
U,花蓮縣,公共建設,42,一般公園,中山公園,23.868606991377526,121.50486799989531
U,花蓮縣,公共建設,42,一般公園,林榮森林公園,23.80669599686902,121.44932699992592
U,花蓮縣,公共建設,42,一般公園,鳳林溪畔公園,23.76327100738723,121.46087699996302
U,花蓮縣,公共建設,42,一般公園,鳳林公路公園,23.7608950085448,121.45519099996625
U,花蓮縣,公共建設,42,一般公園,福德公園,23.749289991416916,121.44957199990577
U,花蓮縣,公共建設,42,一般公園,鳳林公園,23.747340004755756,121.45159899995727
U,花蓮縣,公共建設,42,一般公園,石神公園,23.74719900285687,121.44605399994974
U,花蓮縣,公共建設,42,一般公園,第一兒童公園,23.742873996025462,121.44773699992409
U,花蓮縣,公共建設,42,一般公園,箭瑛公園,23.73155299385727,121.49122299991123
U,花蓮縣,公共建設,42,一般公園,獅子公園,23.68367899256174,121.4101839999197
U,花蓮縣,公共建設,42,一般公園,洪華公園,23.666882004660685,121.42326999995416
U,花蓮縣,公共建設,42,一般公園,兒童公園,23.6665800006835,121.42236699993941
U,花蓮縣,公共建設,42,一般公園,大同環河公園,23.662433993319123,121.43367699992139
U,花蓮縣,公共建設,42,一般公園,豐濱河濱公園,23.59784800148023,121.51929399993563
U,花蓮縣,公共建設,42,一般公園,瑞穗運動公園,23.493366004298107,121.38965599995466
U,花蓮縣,公共建設,42,一般公園,德武社區公園,23.46617500130846,121.40436799994507
U,花蓮縣,公共建設,42,一般公園,大禹公園,23.384758998403598,121.33325199994593
U,花蓮縣,公共建設,42,一般公園,運動公園,23.34276899551518,121.32009099994875
U,花蓮縣,公共建設,42,一般公園,哈拉灣公園,23.317244998249823,121.34542499995275
U,花蓮縣,民眾服務,51,觀光遊憩設施,花蓮縣江口良三郎紀念公園,23.98792774159329,121.62943646578266
U,花蓮縣,民眾服務,51,觀光遊憩設施,花蓮縣府前石雕公園,23.99162139660993,121.621347361103
U,花蓮縣,民眾服務,51,觀光遊憩設施,花蓮縣內垵遊憩區,23.56990116806901,121.49390747977945
U,花蓮縣,民眾服務,51,觀光遊憩設施,花蓮縣鳳林公路公園,23.761548771988128,121.45525876258016
U,花蓮縣,民眾服務,51,觀光遊憩設施,花蓮縣公園,23.940844458084914,121.58791028230264
U,花蓮縣,民眾服務,51,觀光遊憩設施,花蓮縣美崙溪河濱公園,23.981881381190437,121.61773389451257
U,花蓮縣,民眾服務,51,觀光遊憩設施,花蓮縣玉里鎮遊客服務中心,23.335009403077486,121.31932840592607
U,花蓮縣,民眾服務,51,觀光遊憩設施,花蓮縣大興瀑布紀念公園(2),23.638472387829232,121.3865328498528
U,花蓮縣,民眾服務,51,觀光遊憩設施,花蓮縣公園,23.991671031016967,121.59444302942103
U,花蓮縣,民眾服務,51,觀光遊憩設施,花蓮縣教育公園,23.747321420780892,121.45022272181988
U,花蓮縣,民眾服務,51,觀光遊憩設施,花蓮縣東里社區公園,23.264218998848737,121.30179063930977
U,花蓮縣,民眾服務,51,觀光遊憩設施,花蓮縣觀音公園,23.48905150038479,121.51192982665394
U,花蓮縣,民眾服務,51,觀光遊憩設施,花蓮縣大?葉玄武岩區,23.59537258893755,121.51579662580728
U,花蓮縣,民眾服務,51,觀光遊憩設施,花蓮縣菁華溪畔公園,23.981915536045783,121.61722582133753
U,花蓮縣,民眾服務,51,觀光遊憩設施,花蓮縣環河公園,23.660089653984684,121.42122346007409
U,花蓮縣,民眾服務,51,觀光遊憩設施,花蓮縣奇美休憩區,23.49069419557841,121.44696919534904
U,花蓮縣,民眾服務,51,觀光遊憩設施,花蓮縣合歡山森林遊樂區,24.147835544624954,121.28640495343711
U,花蓮縣,民眾服務,51,觀光遊憩設施,花蓮縣碧雲莊林芥公園,23.99740819840614,121.57319004917574
U,花蓮縣,民眾服務,51,觀光遊憩設施,花蓮縣美崙山公園,23.99214870683284,121.61125289505007
U,花蓮縣,民眾服務,51,觀光遊憩設施,花蓮縣玉城公園,23.330834276861278,121.31894331978265
U,花蓮縣,民眾服務,51,觀光遊憩設施,花蓮縣行政院農委會林務局花蓮林區管理處大農大富平地森林園區服,23.614557723879706,121.41615425968469
U,花蓮縣,民眾服務,51,觀光遊憩設施,花蓮縣公園,24.037223183624793,121.61206186137179
U,花蓮縣,民眾服務,51,觀光遊憩設施,花蓮縣主權社區公園,23.974228282254085,121.5919996595591
U,花蓮縣,民眾服務,51,觀光遊憩設施,花蓮縣交通部觀光局花東縱谷國家風景區管理處羅山管理站,23.201801701954615,121.27616150343076
U,花蓮縣,民眾服務,51,觀光遊憩設施,花蓮縣公園,23.66765331360191,121.42179739095059
U,花蓮縣,民眾服務,51,觀光遊憩設施,花蓮縣中正公園,23.839009880157008,121.50128992766324
U,花蓮縣,民眾服務,51,觀光遊憩設施,花蓮縣瑞穗鄉公墓公園,23.486624750675638,121.38251701305435
U,花蓮縣,民眾服務,51,觀光遊憩設施,花蓮縣後備軍人公園,23.99011362142989,121.63362594478366
U,花蓮縣,民眾服務,51,觀光遊憩設施,花蓮縣太魯閣國家公園管理處天祥管理站,24.183370754656337,121.49434730339269
U,花蓮縣,民眾服務,51,觀光遊憩設施,花蓮縣鯨魚洞,23.654743652794032,121.51903436543554
U,花蓮縣,民眾服務,51,觀光遊憩設施,花蓮縣太魯閣國家公園遊客中心,24.15789280989542,121.62242697432742
U,花蓮縣,民眾服務,51,觀光遊憩設施,花蓮縣光復獅子公園,23.683560432067246,121.40932392283331
U,花蓮縣,民眾服務,51,觀光遊憩設施,花蓮縣德興運動公園,24.005572007891164,121.58180948401656
U,花蓮縣,民眾服務,51,觀光遊憩設施,花蓮縣美崙山公園生態展示館,23.99209480412255,121.61118089727425
U,花蓮縣,民眾服務,51,觀光遊憩設施,花蓮縣布洛灣環流丘景觀公園,24.171165595803522,121.57422437044488
U,花蓮縣,民眾服務,51,觀光遊憩設施,花蓮縣大灣休憩區,23.53185813882318,121.50753976283336
U,花蓮縣,民眾服務,51,觀光遊憩設施,花蓮縣鳳林鎮遊客資訊中心,23.746782553052423,121.45298265005522
U,花蓮縣,民眾服務,51,觀光遊憩設施,花蓮縣花崗山運動公園,23.97683301743555,121.61434621597188
U,花蓮縣,民眾服務,51,觀光遊憩設施,花蓮縣中正公園,23.984633304801513,121.61139404226309
U,花蓮縣,民眾服務,51,觀光遊憩設施,花蓮縣公園,23.988684919531163,121.59707058585457
U,花蓮縣,民眾服務,51,觀光遊憩設施,花蓮縣貓公溪生態休憩區遊客服務中心,23.59886950348962,121.52128213663325
U,花蓮縣,民眾服務,51,觀光遊憩設施,花蓮縣德武社區公園,23.465984349196308,121.40452582184155
U,花蓮縣,民眾服務,51,觀光遊憩設施,花蓮縣交通部觀光局花東縱谷國家風景區管理處羅山遊憩區,23.20204553487965,121.27086125584678
U,花蓮縣,民眾服務,51,觀光遊憩設施,花蓮縣潭北親水公園,23.93659408932747,121.51050094234718
U,花蓮縣,民眾服務,51,觀光遊憩設施,花蓮縣溪畔公園,24.019487089661837,121.60464081894862
U,花蓮縣,民眾服務,51,觀光遊憩設施,花蓮縣南埔公園,23.963757996438865,121.58919616095584
U,花蓮縣,民眾服務,51,觀光遊憩設施,花蓮縣龍泉親水生態園區,24.017279366393677,121.60304215193682
U,花蓮縣,民眾服務,51,觀光遊憩設施,花蓮縣中韓扶輪公園,23.987741523453444,121.60268602851131
U,花蓮縣,民眾服務,51,觀光遊憩設施,花蓮縣美齡公園,23.978614297434945,121.61375928620859
U,花蓮縣,民眾服務,51,觀光遊憩設施,花蓮縣箭瑛公園,23.73150977207127,121.49092331458792
U,花蓮縣,民眾服務,51,觀光遊憩設施,花蓮縣瑞穗運動公園,23.493220043193066,121.39003378731492
U,花蓮縣,民眾服務,51,觀光遊憩設施,花蓮縣中山公園,23.868529922786994,121.50507443111223
U,花蓮縣,民眾服務,51,觀光遊憩設施,花蓮縣阿眉溪畔休憩公園,23.24938288027209,121.331059469692
U,花蓮縣,民眾服務,51,觀光遊憩設施,花蓮縣河濱文化廣場,23.597210385745477,121.5195028730196
U,花蓮縣,民眾服務,51,觀光遊憩設施,花蓮縣大獅風景區,23.20123657614659,121.43512934571602
U,花蓮縣,民眾服務,51,觀光遊憩設施,花蓮縣鳳林鎮第一兒童樂園,23.74284051245645,121.4477934561691
U,花蓮縣,民眾服務,51,觀光遊憩設施,花蓮縣西山漢白玉觀音巨像,23.48992214596903,121.51146273490927
U,花蓮縣,民眾服務,51,觀光遊憩設施,花蓮縣新城公園,24.128718169974487,121.6494158055121
U,花蓮縣,民眾服務,51,觀光遊憩設施,花蓮縣雙心石滬,23.219785475453396,121.44719954840777
U,花蓮縣,民眾服務,51,觀光遊憩設施,花蓮縣鯉魚潭風景區,23.928859860330174,121.51049334846583
U,花蓮縣,民眾服務,51,觀光遊憩設施,花蓮縣經濟部工業局光華樂活創意園區服務中心,23.937427289892067,121.59368943427907
U,花蓮縣,民眾服務,51,觀光遊憩設施,花蓮縣花東縱谷國家風景區管理處林榮休憩中心,23.80664179784318,121.44902675155774
U,花蓮縣,民眾服務,51,觀光遊憩設施,花蓮縣石門休憩區,23.523837939833612,121.50385981158101
U,花蓮縣,民眾服務,51,觀光遊憩設施,花蓮縣玉璞公園,23.325604084168457,121.32049163961132
U,花蓮縣,民眾服務,51,觀光遊憩設施,花蓮縣天祥公園,24.18260535663391,121.49339972880507
U,花蓮縣,民眾服務,51,觀光遊憩設施,花蓮縣玉里鎮民廣場,23.336031789423362,121.31693735213342
U,花蓮縣,民眾服務,51,觀光遊憩設施,花蓮縣白沙鄉講美鎮海社區海堤公園,23.638688053766643,121.59741843898844
U,花蓮縣,民眾服務,51,觀光遊憩設施,花蓮縣站前廣場公園,23.992286172786347,121.60245406785396
U,花蓮縣,民眾服務,51,觀光遊憩設施,花蓮縣玉山國家公園南安遊客中心,23.302528085109753,121.2584140233751
U,花蓮縣,民眾服務,51,觀光遊憩設施,花蓮縣公園,23.93912339171189,121.59269543541727
U,花蓮縣,民眾服務,51,觀光遊憩設施,花蓮縣中琉紀念公園,23.997024874552782,121.5998718882178
U,花蓮縣,民眾服務,51,觀光遊憩設施,花蓮縣新城鄉嘉里村環保公園,24.01903326741627,121.60665981205801
U,花蓮縣,民眾服務,51,觀光遊憩設施,花蓮縣德燕海濱植物園,24.04455669355416,121.6200645436862
U,花蓮縣,民眾服務,51,觀光遊憩設施,花蓮縣交通部觀光局花東縱谷國家風景區管理處,23.524073758115716,121.39086889447317
U,花蓮縣,民眾服務,51,觀光遊憩設施,花蓮縣曼波海洋生態休閒園區,24.024836517384315,121.63038983317094
U,花蓮縣,民眾服務,51,觀光遊憩設施,花蓮縣知卡宣森林公園,23.950840406303175,121.58327485560747
U,花蓮縣,民眾服務,51,觀光遊憩設施,花蓮縣洪華公園,23.666749402235027,121.42332807134883
U,花蓮縣,民眾服務,51,觀光遊憩設施,花蓮縣美崙海濱公園,23.98209426161316,121.62259843678925
U,花蓮縣,民眾服務,51,觀光遊憩設施,花蓮縣德武休憩區,23.49877527765728,121.41558816169521
U,花蓮縣,民眾服務,51,觀光遊憩設施,花蓮縣太魯閣國家公園天祥遊客服務站,24.182765052261303,121.49475165298465
U,花蓮縣,民眾服務,51,觀光遊憩設施,花蓮縣七星潭海岸風景特定區,24.029844211694847,121.62722829946864
U,花蓮縣,民眾服務,51,觀光遊憩設施,花蓮縣南濱公園,23.964970462223924,121.60859225194362
U,花蓮縣,民眾服務,51,觀光遊憩設施,花蓮縣合歡山國家森林遊樂區,24.142241789171404,121.28485896055538
U,花蓮縣,民眾服務,51,觀光遊憩設施,花蓮縣美崙山休閒運動公園,23.995972809881533,121.616917000689
U,花蓮縣,民眾服務,51,觀光遊憩設施,花蓮縣勝安運動公園,23.97676104826725,121.58938476099902
U,花蓮縣,民眾服務,51,觀光遊憩設施,花蓮縣美崙國際獅子會庭石公園,23.995348799333616,121.63079116085456
U,花蓮縣,民眾服務,51,觀光遊憩設施,花蓮縣公園,23.968504579666618,121.5967982317558
U,花蓮縣,民眾服務,51,觀光遊憩設施,花蓮縣主權社區公園,23.975705132967523,121.59374752805394
U,花蓮縣,民眾服務,51,觀光遊憩設施,花蓮縣牛姆坪風景區,23.207154179691397,121.44120554022419
U,花蓮縣,民眾服務,51,觀光遊憩設施,花蓮縣親水公園,23.84451763468246,121.51962177037628
U,花蓮縣,民眾服務,51,觀光遊憩設施,花蓮縣嘉新社區公園,24.009575742762227,121.61296518180215
U,花蓮縣,民眾服務,51,觀光遊憩設施,花蓮縣馬太鞍濕地生態館,23.658102748696706,121.40884698644517
U,花蓮縣,民眾服務,51,觀光遊憩設施,花蓮縣扶輪林園,23.98897575258316,121.62770775826777
U,花蓮縣,民眾服務,51,觀光遊憩設施,花蓮縣大榮休閒公園,23.753277060099865,121.46867017510857
U,花蓮縣,民眾服務,51,觀光遊憩設施,花蓮縣石梯橋休憩區,23.499684902321366,121.50461370441431
U,花蓮縣,民眾服務,51,觀光遊憩設施,花蓮縣交通部觀光局東部海岸國家風景區管理處花蓮遊客中心,23.90463529494671,121.60238100021405
U,花蓮縣,民眾服務,51,觀光遊憩設施,花蓮縣鯉魚潭石雕公園,23.934575937948026,121.50850410953478
U,花蓮縣,民眾服務,51,觀光遊憩設施,花蓮縣大興瀑布紀念公園(1),23.637333606177236,121.38652573272054
U,花蓮縣,民眾服務,51,觀光遊憩設施,花蓮縣太魯閣國家公園管理處,24.15802526204876,121.62310557642562
U,花蓮縣,民眾服務,51,觀光遊憩設施,花蓮縣生態公園,23.35026982708037,121.35094771468295
U,花蓮縣,民眾服務,51,觀光遊憩設施,花蓮縣七星潭遊客中心,24.026956426404723,121.63155123214514
U,花蓮縣,民眾服務,51,觀光遊憩設施,花蓮縣富源國家森林遊樂區,23.588968999799786,121.35450680737891
U,花蓮縣,民眾服務,51,觀光遊憩設施,花蓮縣美崙林園公園,24.002171342821267,121.63034295305155
U,花蓮縣,民眾服務,51,觀光遊憩設施,花蓮縣北濱海濱公園,23.97837131832389,121.61746182527936
U,花蓮縣,民眾服務,51,觀光遊憩設施,花蓮縣巴耐公園,24.00786015543158,121.61607334863054
U,花蓮縣,民眾服務,51,觀光遊憩設施,花蓮縣福德公園,24.014716196500203,121.60831729799655
U,花蓮縣,民眾服務,51,觀光遊憩設施,花蓮縣船帆嶼,23.365514260100344,121.54322352603603
U,花蓮縣,民眾服務,51,觀光遊憩設施,花蓮縣公園,24.038525290407357,121.60452776751406
U,花蓮縣,民眾服務,51,觀光遊憩設施,花蓮縣大禹公園,23.38504681913696,121.33356237379914
U,花蓮縣,民眾服務,51,觀光遊憩設施,花蓮縣公園,24.008020612501106,121.5860052300988
U,花蓮縣,民眾服務,51,觀光遊憩設施,花蓮縣吉安親水公園,23.972536655856807,121.56221563713375
U,花蓮縣,民眾服務,51,觀光遊憩設施,花蓮縣交通部觀光局東部海岸國家風景區管理處花蓮遊客中心,23.934520017867598,121.50776552935235
U,花蓮縣,民眾服務,51,觀光遊憩設施,花蓮縣北回歸線休憩區,23.452172199989956,121.49633390456184
U,花蓮縣,民眾服務,51,觀光遊憩設施,花蓮縣虎井遊客服務中心,23.488751390725888,121.5113599229229
U,花蓮縣,民眾服務,51,觀光遊憩設施,花蓮縣赤馬休憩區,23.583524529386544,121.5049318866999
U,花蓮縣,民眾服務,51,觀光遊憩設施,花蓮縣交通部觀光局花東縱谷國家風景區管理處鯉魚潭遊客服務中心,23.93517597117069,121.50796756438795
U,花蓮縣,民眾服務,51,觀光遊憩設施,花蓮縣旅遊服務中心,23.991734076162768,121.60186309667208
U,花蓮縣,民眾服務,51,觀光遊憩設施,花蓮縣公園,24.00727667254929,121.58460729783387
U,花蓮縣,民眾服務,51,觀光遊憩設施,花蓮縣北東宮公園,24.0102033542544,121.6207686388741
U,花蓮縣,民眾服務,51,觀光遊憩設施,花蓮縣池南國家森林遊樂區,23.918271711338324,121.5020425173169
U,花蓮縣,民眾服務,51,觀光遊憩設施,花蓮縣哈拉灣公園,23.316855140949578,121.34475361723862
U,花蓮縣,民眾服務,51,觀光遊憩設施,花蓮縣站前石頭公園,23.9931257738923,121.60317518831508
U,花蓮縣,民眾服務,51,觀光遊憩設施,花蓮縣中山公園,23.99009615316843,121.6006810419626
U,花蓮縣,民眾服務,51,觀光遊憩設施,花蓮縣鳳林公園,23.74665069702237,121.45145407916289
U,花蓮縣,民眾服務,51,觀光遊憩設施,花蓮縣慕谷慕魚旅遊諮詢中心,23.9571901292837,121.5079451952813
U,花蓮縣,民眾服務,51,觀光遊憩設施,花蓮縣璞石閣公園,23.3351920756602,121.31942311352964
U,花蓮縣,民眾服務,51,觀光遊憩設施,花蓮縣環保公園,24.013684995048806,121.64421368530428
U,花蓮縣,民眾服務,51,觀光遊憩設施,花蓮縣干城鐵道公園,23.942877991896722,121.54581292881825
U,花蓮縣,民眾服務,51,觀光遊憩設施,花蓮縣月洞遊憩區,23.480137952337973,121.50762724590963
U,花蓮縣,民眾服務,51,觀光遊憩設施,富世遺址,24.149466003962743,121.62606499992914
U,花蓮縣,民眾服務,51,觀光遊憩設施,太魯閣國家公園遊客中心文物陳列室,24.15790100328263,121.62265199992
U,花蓮縣,民眾服務,51,觀光遊憩設施,天祥風景區,24.181821999414232,121.4940139999244
U,花蓮縣,民眾服務,51,觀光遊憩設施,東方夏威夷遊樂園,24.009399009113935,121.54209999996209
U,花蓮縣,民眾服務,51,觀光遊憩設施,布洛灣遊憩區,24.170616996139803,121.57279499989902
U,花蓮縣,民眾服務,51,觀光遊憩設施,奇萊主山北峰,24.11833299500984,121.33455599993228
U,花蓮縣,民眾服務,51,觀光遊憩設施,無明山,24.255399006422937,121.38467899996449
U,花蓮縣,民眾服務,51,觀光遊憩設施,巴巴山,24.342414003196176,121.43783399993991
U,花蓮縣,民眾服務,51,觀光遊憩設施,能高山南峰,23.965366996120878,121.27809099995056
U,花蓮縣,民眾服務,51,觀光遊憩設施,太魯閣大山,24.07907499524027,121.42099199992602
U,花蓮縣,民眾服務,51,觀光遊憩設施,能高山,23.99232500641441,121.26026099997364
U,花蓮縣,民眾服務,51,觀光遊憩設施,屏風山,24.149276997559916,121.34295199994433
U,花蓮縣,民眾服務,51,觀光遊憩設施,石門山,24.152430995665117,121.28459599995114
U,花蓮縣,民眾服務,51,觀光遊憩設施,馬比杉山,24.34832700680569,121.4856539999535
U,花蓮縣,民眾服務,51,觀光遊憩設施,南華山,24.039332999424243,121.28592899996046
U,花蓮縣,民眾服務,51,觀光遊憩設施,磐石山,24.104725002286294,121.38830899995358
U,花蓮縣,民眾服務,51,觀光遊憩設施,帕托魯山,24.099440004188054,121.46661999994836
U,花蓮縣,民眾服務,51,觀光遊憩設施,立霧主山,24.12491100258826,121.44571799994841
U,花蓮縣,民眾服務,51,觀光遊憩設施,羊頭山,24.208259996449872,121.37978199993447
U,花蓮縣,民眾服務,51,觀光遊憩設施,白楊步道,24.184929003770517,121.48995799994337
U,花蓮縣,民眾服務,51,觀光遊憩設施,燕子口,24.17391999555066,121.56451299989268
U,花蓮縣,民眾服務,51,觀光遊憩設施,梅園竹村步道,24.21472199220567,121.48347099989418
U,花蓮縣,民眾服務,51,觀光遊憩設施,綠水合流步道,24.179138006237732,121.50794099994847
U,花蓮縣,民眾服務,51,觀光遊憩設施,禪光寺,24.15930700700005,121.60578899994759
U,花蓮縣,民眾服務,51,觀光遊憩設施,砂卡礑步道（神秘谷步道）,24.162316003034533,121.61361799992208
U,花蓮縣,民眾服務,51,觀光遊憩設施,九曲洞,24.167542007344572,121.53363899994838
U,花蓮縣,民眾服務,51,觀光遊憩設施,蓮花池步道,24.22105200939772,121.48546699996461
U,花蓮縣,民眾服務,51,觀光遊憩設施,清水斷崖,24.21762600034481,121.69177699989373
U,花蓮縣,民眾服務,51,觀光遊憩設施,蘇花公路,24.218799001471073,121.69265899990279
U,花蓮縣,民眾服務,51,觀光遊憩設施,太魯閣國家公園,24.158228005343478,121.62304899993106
U,花蓮縣,民眾服務,51,觀光遊憩設施,花蓮縣觀光協進會機場旅遊服務中心,24.025820997233176,121.61322699989825
U,花蓮縣,民眾服務,51,觀光遊憩設施,花蓮宇宙樂園光隆博物館,24.058175004873995,121.60845599993606
U,花蓮縣,民眾服務,51,觀光遊憩設施,七星柴魚博物館,24.027030995812854,121.62931799988596
U,花蓮縣,民眾服務,51,觀光遊憩設施,七星柴魚博物館,24.027030995812854,121.62931799988596
U,花蓮縣,民眾服務,51,觀光遊憩設施,光隆礦石科技博物館,24.073851001361504,121.61095599992095
U,花蓮縣,民眾服務,51,觀光遊憩設施,花蓮宇宙樂園,24.0593410038988,121.60843399993394
U,花蓮縣,民眾服務,51,觀光遊憩設施,花蓮縣觀光協進會機場旅遊服務中心,24.025820997233176,121.61322699989825
U,花蓮縣,民眾服務,51,觀光遊憩設施,靜思精舍,24.05466700466712,121.60127599993427
U,花蓮縣,民眾服務,51,觀光遊憩設施,七星潭風景特定區,24.030831007711747,121.62695999994733
U,花蓮縣,民眾服務,51,觀光遊憩設施,十六股庄文物館,24.00234099736379,121.60088899989967
U,花蓮縣,民眾服務,51,觀光遊憩設施,花蓮縣立石雕博物館,23.989749995625928,121.62838099988369
U,花蓮縣,民眾服務,51,觀光遊憩設施,花蓮縣政府文化局山地文物陳列室,23.989743004282253,121.6283839999316
U,花蓮縣,民眾服務,51,觀光遊憩設施,溝仔尾夜市,23.9749129955444,121.60706799988965
U,花蓮縣,民眾服務,51,觀光遊憩設施,黃昏市場夜市,23.976510009258803,121.60995399995775
U,花蓮縣,民眾服務,51,觀光遊憩設施,南濱公園夜市,23.967307994750694,121.60906299989234
U,花蓮縣,民眾服務,51,觀光遊憩設施,中央市場夜市,23.974872994380465,121.60721599988878
U,花蓮縣,民眾服務,51,觀光遊憩設施,財團法人花蓮高爾夫俱樂部,23.9979089969584,121.62661799989853
U,花蓮縣,民眾服務,51,觀光遊憩設施,慈雲山觀光農園,23.98679500043606,121.56019799991935
U,花蓮縣,民眾服務,51,觀光遊憩設施,吉安鄉阿美文物館,23.970008000370555,121.58091899992277
U,花蓮縣,民眾服務,51,觀光遊憩設施,吉安慶修院,23.974830998765267,121.56585399991661
U,花蓮縣,民眾服務,51,觀光遊憩設施,吉安橫斷道路開鑿紀念碑,23.94871899226223,121.52509799989288
U,花蓮縣,民眾服務,51,觀光遊憩設施,君達香草健康世界,23.946469006699694,121.54396899995042
U,花蓮縣,民眾服務,51,觀光遊憩設施,米棧文旦觀光果園,23.810389000168506,121.55147099992722
U,花蓮縣,民眾服務,51,觀光遊憩設施,花蓮遊客服務中心,23.90598099138981,121.60209699987615
U,花蓮縣,民眾服務,51,觀光遊憩設施,池南林業陳列館,23.91831500416149,121.50199499994575
U,花蓮縣,民眾服務,51,觀光遊憩設施,牛山風景區,23.767572003790956,121.56131799993621
U,花蓮縣,民眾服務,51,觀光遊憩設施,遠雄花蓮海洋公園,23.901350993159653,121.6030079998868
U,花蓮縣,民眾服務,51,觀光遊憩設施,蕃薯寮休息區,23.746876000190348,121.55545699991934
U,花蓮縣,民眾服務,51,觀光遊憩設施,池南森林遊樂區,23.9185409996198,121.50204299992595
U,花蓮縣,民眾服務,51,觀光遊憩設施,鯉魚潭風景特定區,23.929576996984572,121.50627799991908
U,花蓮縣,民眾服務,51,觀光遊憩設施,怡園渡假村,23.845701999536548,121.51778699992789
U,花蓮縣,民眾服務,51,觀光遊憩設施,花蓮海洋公園,23.90090200246571,121.60334499992462
U,花蓮縣,民眾服務,51,觀光遊憩設施,兆豐平林休閒農場,23.80341100036688,121.45712199993385
U,花蓮縣,民眾服務,51,觀光遊憩設施,一村香草屋,23.74325499934974,121.4563699999311
U,花蓮縣,民眾服務,51,觀光遊憩設施,新光兆豐休閒農場,23.80222400489981,121.46178499995625
U,花蓮縣,民眾服務,51,觀光遊憩設施,林田山林業文物展示館,23.718078993732004,121.39887099992984
U,花蓮縣,民眾服務,51,觀光遊憩設施,瑞穗溫泉山莊,23.496557991679875,121.34364999993083
U,花蓮縣,民眾服務,51,觀光遊憩設施,江布南溫泉山莊,23.49533999838013,121.3442509999448
U,花蓮縣,民眾服務,51,觀光遊憩設施,椰子林溫泉飯店,23.49518300335207,121.34592999996292
U,花蓮縣,民眾服務,51,觀光遊憩設施,丹大山,23.600407002213128,121.21355099997393
U,花蓮縣,民眾服務,51,觀光遊憩設施,六順山,23.72449699688212,121.23955899995934
U,花蓮縣,民眾服務,51,觀光遊憩設施,安東軍山,23.87270599549411,121.2661279999513
U,花蓮縣,民眾服務,51,觀光遊憩設施,文旦觀光果園,23.68794600417227,121.48797699994877
U,花蓮縣,民眾服務,51,觀光遊憩設施,水璉柳橙觀光果園,23.63707299458019,121.38963599992677
U,花蓮縣,民眾服務,51,觀光遊憩設施,光復鄉原野迷宮,23.616045991028603,121.41722599991556
U,花蓮縣,民眾服務,51,觀光遊憩設施,花蓮觀光糖廠,23.659225995091848,121.42067499992996
U,花蓮縣,民眾服務,51,觀光遊憩設施,磯碕遊客服務中心,23.708989997374736,121.54609599991068
U,花蓮縣,民眾服務,51,觀光遊憩設施,石梯坪遊客服務中心,23.485699003348344,121.51090699994413
U,花蓮縣,民眾服務,51,觀光遊憩設施,月洞風景區,23.480463995450872,121.50798899991776
U,花蓮縣,民眾服務,51,觀光遊憩設施,月洞遊憩區,23.480038002098713,121.50773099994436
U,花蓮縣,民眾服務,51,觀光遊憩設施,秀姑巒溪泛舟終點,23.468010999437634,121.48973599993529
U,花蓮縣,民眾服務,51,觀光遊憩設施,北回歸線標誌,23.45133399313143,121.49623699990993
U,花蓮縣,民眾服務,51,觀光遊憩設施,磯崎海水浴場,23.701207995905836,121.54964299990839
U,花蓮縣,民眾服務,51,觀光遊憩設施,石梯坪,23.49125000527741,121.50955799995563
U,花蓮縣,民眾服務,51,觀光遊憩設施,長虹橋,23.468583996529446,121.48693999991829
U,花蓮縣,民眾服務,51,觀光遊憩設施,東部海岸國家風景區,23.904542994791992,121.60226899988983
U,花蓮縣,民眾服務,51,觀光遊憩設施,掃叭遺址,23.47067200092084,121.36088099995685
U,花蓮縣,民眾服務,51,觀光遊憩設施,林壹隆鶴岡觀光果園,23.522228994751917,121.38705099992886
U,花蓮縣,民眾服務,51,觀光遊憩設施,瑞穗鄉舞鶴觀光茶園,23.57649599950341,121.40539799994532
U,花蓮縣,民眾服務,51,觀光遊憩設施,瑞穗遊客服務中心,23.490779008446854,121.40013999997448
U,花蓮縣,民眾服務,51,觀光遊憩設施,湧泉休閒牧場,23.49018400331174,121.35258499996412
U,花蓮縣,民眾服務,51,觀光遊憩設施,秀姑巒溪泛舟起點,23.486672996731333,121.40265799993884
U,花蓮縣,民眾服務,51,觀光遊憩設施,奇美泛舟休息站,23.49054399484214,121.44659099991955
U,花蓮縣,民眾服務,51,觀光遊憩設施,瑞雄山莊,23.49514799874473,121.34666599995204
U,花蓮縣,民眾服務,51,觀光遊憩設施,吉祥庭園溫泉,23.48720300184002,121.35147299995621
U,花蓮縣,民眾服務,51,觀光遊憩設施,豐盛山莊,23.49432500128408,121.35159099995595
U,花蓮縣,民眾服務,51,觀光遊憩設施,黃家溫泉山莊,23.49644399694648,121.35700999994121
U,花蓮縣,民眾服務,51,觀光遊憩設施,虎爺溫泉會館,23.500669995781905,121.36088499993659
U,花蓮縣,民眾服務,51,觀光遊憩設施,瑞峰溫泉花園,23.49040799500376,121.35049599993604
U,花蓮縣,民眾服務,51,觀光遊憩設施,東岡秀川溫泉會館,23.48790399838864,121.3526189999505
U,花蓮縣,民眾服務,51,觀光遊憩設施,北回歸線標誌,23.465426002222554,121.35786899995473
U,花蓮縣,民眾服務,51,觀光遊憩設施,北回歸線標誌,23.465426002222554,121.35786899995473
U,花蓮縣,民眾服務,51,觀光遊憩設施,富源森林遊樂區,23.58858999862099,121.35625699994696
U,花蓮縣,民眾服務,51,觀光遊憩設施,蝴蝶谷森林遊樂區,23.58873899447791,121.35635499993252
U,花蓮縣,民眾服務,51,觀光遊憩設施,花東縱谷風景特定區,23.490781998071835,121.40014799994084
U,花蓮縣,民眾服務,51,觀光遊憩設施,瑞穗溫泉,23.49447400247975,121.35076899995651
U,花蓮縣,民眾服務,51,觀光遊憩設施,花東縱谷國家風景區管理處,23.522980005033254,121.38944099996256
U,花蓮縣,民眾服務,51,觀光遊憩設施,紅葉溫泉旅社,23.490648995654045,121.32527499994767
U,花蓮縣,民眾服務,51,觀光遊憩設施,紅葉溫泉(內溫泉),23.490932997766876,121.3260679999535
U,花蓮縣,民眾服務,51,觀光遊憩設施,南安遊憩區,23.30387900461314,121.2573599999684
U,花蓮縣,民眾服務,51,觀光遊憩設施,秀姑巒山,23.496774998508624,121.06231299998741
U,花蓮縣,民眾服務,51,觀光遊憩設施,馬利加南山,23.521577006402662,121.11717599999102
U,花蓮縣,民眾服務,51,觀光遊憩設施,馬西山,23.483739994966747,121.17397599996251
U,花蓮縣,民眾服務,51,觀光遊憩設施,新康山,23.316396999407864,121.12738799997456
U,花蓮縣,民眾服務,51,觀光遊憩設施,南雙頭山,23.350277999696488,121.01053399999209
U,花蓮縣,民眾服務,51,觀光遊憩設施,喀西帕南山,23.46861599389846,121.19522799996372
U,花蓮縣,民眾服務,51,觀光遊憩設施,內嶺爾山,23.579254003950417,121.19605799997201
U,花蓮縣,民眾服務,51,觀光遊憩設施,義西請馬至山,23.586445001769373,121.15327099998039
U,花蓮縣,民眾服務,51,觀光遊憩設施,塔芬山,23.406021003237846,121.02679099999347
U,花蓮縣,民眾服務,51,觀光遊憩設施,八通關古道,23.329237996931525,121.23602099995794
U,花蓮縣,民眾服務,51,觀光遊憩設施,安通吉祥溫泉農莊,23.282516992302604,121.34074999993369
U,花蓮縣,民眾服務,51,觀光遊憩設施,安通溫泉飯店,23.281176006612892,121.34194199996753
U,花蓮縣,民眾服務,51,觀光遊憩設施,安通溫泉,23.281060994720093,121.34098799994267
U,花蓮縣,民眾服務,51,觀光遊憩設施,加賀屋溫泉山莊,23.28349000467464,121.34295599996625
U,花蓮縣,民眾服務,51,觀光遊憩設施,紐澳華溫泉山莊,23.284563007939177,121.34394799997443
U,花蓮縣,民眾服務,51,觀光遊憩設施,六十石山,23.220298991748532,121.31531599993846
U,花蓮縣,民眾服務,51,觀光遊憩設施,公埔遺址,23.17971800060655,121.253850999965
U,花蓮縣,民眾服務,52,停車場地,花蓮縣東洋停車場,23.979480219862506,121.60886394918907
U,花蓮縣,民眾服務,52,停車場地,花蓮縣成佳財停車場,23.99447735704452,121.59349528390096
U,花蓮縣,民眾服務,52,停車場地,花蓮縣永發停車場,23.993498311693358,121.60204132293167
U,花蓮縣,民眾服務,52,停車場地,花蓮縣停車場,24.2981830619177,121.75263964963744
U,花蓮縣,民眾服務,52,停車場地,花蓮縣停車場,23.978320033061436,121.61370405095947
U,花蓮縣,民眾服務,52,停車場地,花蓮縣吉安鄉立體停車場,23.96599259665018,121.5922747468652
U,花蓮縣,民眾服務,52,停車場地,花蓮縣停車場,23.998165948766392,121.60182361649473
U,花蓮縣,民眾服務,52,停車場地,花蓮縣停車場,23.987045036873706,121.60023336777579
U,花蓮縣,民眾服務,52,停車場地,花蓮縣停車場,24.170235567904424,121.5740416859786
U,花蓮縣,民眾服務,52,停車場地,花蓮縣忠孝立體停車場,23.97389959254272,121.60625804779623
U,花蓮縣,民眾服務,52,停車場地,花蓮縣停車場,24.17045891468102,121.57410219621387
U,花蓮縣,民眾服務,52,停車場地,花蓮縣停車場,23.745618678233352,121.44898416646326
U,花蓮縣,民眾服務,52,停車場地,花蓮縣停車場,23.746419846478606,121.44734982659759
U,花蓮縣,民眾服務,52,停車場地,花蓮縣潭南停車場,23.9242066757865,121.50594468531915
U,花蓮縣,民眾服務,52,停車場地,花蓮縣停車場,23.71748550256065,121.39810280603778
U,花蓮縣,民眾服務,52,停車場地,花蓮縣停車場,24.183315801472386,121.49474891452745
U,花蓮縣,民眾服務,52,停車場地,花蓮縣停車場,23.744807810377882,121.45113574000942
U,花蓮縣,民眾服務,52,停車場地,花蓮縣停車場,23.74682452834459,121.55539160297589
U,花蓮縣,民眾服務,52,停車場地,花蓮縣停車場,24.170726485769723,121.57415580872845
U,花蓮縣,民眾服務,52,停車場地,花蓮縣停車場,23.984431990845582,121.60646186843434
U,花蓮縣,民眾服務,52,停車場地,花蓮縣停車場,24.1421268819644,121.2842058401841
U,花蓮縣,民眾服務,52,停車場地,花蓮縣停車場,23.656142635830292,121.40972355541567
U,花蓮縣,民眾服務,52,停車場地,花蓮縣停車場,23.667177043035505,121.42221735844963
U,花蓮縣,民眾服務,52,停車場地,花蓮縣停車場,23.701607814185202,121.54929344460076
U,花蓮縣,民眾服務,52,停車場地,花蓮縣停車場,23.983299347470112,121.60888655104712
U,花蓮縣,民眾服務,52,停車場地,花蓮縣停車場,23.99092611205942,121.61996544717108
U,花蓮縣,民眾服務,52,停車場地,花蓮縣停車場,23.99394112169036,121.62934093714057
U,花蓮縣,民眾服務,52,停車場地,花蓮縣停車場,23.993510011390192,121.59939134537603
U,花蓮縣,民眾服務,52,停車場地,花蓮縣停車場,23.655795176724133,121.40969092783223
U,花蓮縣,民眾服務,52,停車場地,花蓮縣停車場,23.976981288539882,121.60540619560844
U,花蓮縣,民眾服務,52,停車場地,花蓮縣停車場,24.17093950555369,121.57419784986742
U,花蓮縣,民眾服務,52,停車場地,花蓮縣南昌停車場,23.971319010624484,121.58221675897781
U,花蓮縣,民眾服務,52,停車場地,花蓮縣停車場,23.667431293269846,121.4247795542062
U,花蓮縣,民眾服務,52,停車場地,花蓮縣停車場,23.869342655052158,121.51079847216347
U,花蓮縣,民眾服務,52,停車場地,花蓮縣停車場,23.73156486180615,121.5583810553591
U,花蓮縣,民眾服務,52,停車場地,花蓮縣停車場,23.830288328765118,121.5862576709416
U,花蓮縣,民眾服務,52,停車場地,花蓮縣停車場,24.20056794659659,121.4914855985809
U,花蓮縣,民眾服務,52,停車場地,花蓮縣停車場,23.868791493062997,121.51029101398605
U,花蓮縣,民眾服務,52,停車場地,花蓮縣停車場,23.99086693692567,121.61680002156506
U,花蓮縣,民眾服務,52,停車場地,花蓮縣停車場,23.666319484028744,121.42142356746587
U,花蓮縣,民眾服務,52,停車場地,花蓮縣停車場,24.18720634381066,121.49038255246396
U,花蓮縣,民眾服務,52,停車場地,花蓮縣停車場,23.99176244507306,121.62009596563898
U,花蓮縣,民眾服務,52,停車場地,花蓮縣停車場,23.747877839330673,121.4531711826137
U,花蓮縣,民眾服務,52,停車場地,花蓮縣停車場,24.214723543161153,121.48365624033215
U,花蓮縣,民眾服務,52,停車場地,花蓮縣停車場,23.748057002935365,121.45294253240115
U,花蓮縣,民眾服務,52,停車場地,花蓮縣停車場,24.180533016175627,121.4031639938788
U,花蓮縣,民眾服務,52,停車場地,花蓮縣停車場,24.178567781307674,121.50797935745544
U,花蓮縣,民眾服務,52,停車場地,花蓮縣停車場,24.19804410908107,121.43287679893284
U,花蓮縣,民眾服務,52,停車場地,花蓮縣東管處停車場,23.522120428320694,121.39017097827357
U,花蓮縣,民眾服務,52,停車場地,花蓮縣潭北停車場,23.935430265685525,121.50693771318059
U,花蓮縣,民眾服務,52,停車場地,花蓮縣停車場,24.162101520196853,121.6043116531961
U,花蓮縣,民眾服務,52,停車場地,花蓮縣停車場,24.177104763491602,121.37239970673978
U,花蓮縣,民眾服務,52,停車場地,花蓮縣西嶼西臺停車場,23.565152618517477,121.48978169521571
U,花蓮縣,民眾服務,52,停車場地,花蓮縣停車場,23.61488714151161,121.41701522373585
U,花蓮縣,民眾服務,52,停車場地,花蓮縣光復鄉車站停車場,23.667096614280847,121.42165576643366
U,花蓮縣,民眾服務,52,停車場地,花蓮縣停車場,23.977575156397396,121.60495868962143
U,花蓮縣,民眾服務,52,停車場地,花蓮縣停車場,23.71739690147259,121.39874765554015
U,花蓮縣,民眾服務,52,停車場地,花蓮縣停車場,24.17777520735529,121.51284704986261
U,花蓮縣,民眾服務,52,停車場地,花蓮縣停車場,23.74773712793706,121.4528193752104
U,花蓮縣,民眾服務,52,停車場地,花蓮縣停車場,23.746037688621573,121.44717615920067
U,花蓮縣,民眾服務,52,停車場地,花蓮縣停車場,24.18431172849166,121.34247835953218
U,花蓮縣,民眾服務,52,停車場地,花蓮縣停車場,24.182081244037224,121.4941793731705
U,花蓮縣,民眾服務,52,停車場地,花蓮縣中山路臨時停車場,23.984936190203808,121.60360281230764
U,花蓮縣,民眾服務,52,停車場地,花蓮縣停車場,24.179298282934422,121.50875378286263
U,花蓮縣,民眾服務,52,停車場地,花蓮縣停車場,24.03831379699363,121.62404522052267
U,花蓮縣,民眾服務,52,停車場地,花蓮縣停車場,24.04142252719054,121.6223697885741
U,花蓮縣,民眾服務,52,停車場地,花蓮縣停車場,24.12738885121202,121.64123383974935
U,花蓮縣,民眾服務,52,停車場地,慈母橋停車場,24.173324007930006,121.54498699995547
U,花蓮縣,民眾服務,52,停車場地,天祥停車場,24.1506209978301,121.62685699990197
U,花蓮縣,民眾服務,52,停車場地,合歡山莊停車場,24.142134998823458,121.28440799995543
U,花蓮縣,民眾服務,52,停車場地,關原停車場,24.188909004473118,121.33406099995841
U,花蓮縣,民眾服務,52,停車場地,碧綠神木停車場,24.180419995624874,121.40334999992483
U,花蓮縣,民眾服務,52,停車場地,長春祠停車場,24.161767996958414,121.60420599989406
U,花蓮縣,民眾服務,52,停車場地,砂卡礑步道停車場,24.161295001303127,121.6131359999171
U,花蓮縣,民眾服務,52,停車場地,太魯閣國家公園遊客中心停車場,24.157501997488453,121.62272799989971
U,花蓮縣,民眾服務,52,停車場地,太魯閣國家公園管理處布洛管理區,24.171342005718113,121.5965839999431
U,花蓮縣,民眾服務,52,停車場地,文山溫泉停車場,24.200043002002186,121.49220699993381
U,花蓮縣,民眾服務,52,停車場地,白揚停車場,24.18238799957742,121.49386699992455
U,花蓮縣,民眾服務,52,停車場地,神禾服務站停車場,24.214369007959707,121.48362399996209
U,花蓮縣,民眾服務,52,停車場地,合歡山風景區停車場,24.1456219967217,121.28430899994781
U,花蓮縣,民眾服務,52,停車場地,花蓮宇宙樂園停車場,24.059148004842157,121.60897199993397
U,花蓮縣,民眾服務,52,停車場地,東洋廣場停車場,23.978900004088093,121.60928599993359
U,花蓮縣,民眾服務,52,停車場地,美崙山停車場,23.98541000547368,121.613389999939
U,花蓮縣,民眾服務,52,停車場地,中華停車場,23.984229001732448,121.60948999991689
U,花蓮縣,民眾服務,52,停車場地,忠孝停車場,23.97378799909618,121.60642499990499
U,花蓮縣,民眾服務,52,停車場地,銘星停車場,23.9986179921365,121.59552499987625
U,花蓮縣,民眾服務,52,停車場地,吉安仁里停四停車場,23.968408000597332,121.59389499991754
U,花蓮縣,民眾服務,52,停車場地,潭南停車場,23.923800999367153,121.5059259999242
U,花蓮縣,民眾服務,52,停車場地,潭北停車場,23.935270997527333,121.50754499991935
U,花蓮縣,民眾服務,52,停車場地,蕃薯寮休息區停車場,23.746818999822256,121.55550599992121
U,花蓮縣,民眾服務,52,停車場地,花蓮遊客服務中心停車場,23.90458499231532,121.60298099988023
U,花蓮縣,民眾服務,52,停車場地,鹽寮遊客中心停車場,23.84886799378281,121.59361099989016
U,花蓮縣,民眾服務,52,停車場地,池南森林遊樂區停車場,23.918903995413373,121.50195599991247
U,花蓮縣,民眾服務,52,停車場地,鳳林遊憩區小客車停車場,23.696905003839195,121.41299199995866
U,花蓮縣,民眾服務,52,停車場地,鳳林遊憩區入口處停車場,23.69710000373803,121.41035499995675
U,花蓮縣,民眾服務,52,停車場地,鳳林遊憩區烤肉區大小客車停車場,23.69387700672016,121.41229899996043
U,花蓮縣,民眾服務,52,停車場地,兆豐平林休閒農場停車場,23.802771994347207,121.46155099991319
U,花蓮縣,民眾服務,52,停車場地,公有公正街停車場,23.745906008258387,121.4489109999662
U,花蓮縣,民眾服務,52,停車場地,停四停車場,23.742693997459508,121.45673499992816
U,花蓮縣,民眾服務,52,停車場地,停一停車場,23.745851003074538,121.448770999944
U,花蓮縣,民眾服務,52,停車場地,停三停車場,23.74469500121733,121.45043499994239
U,花蓮縣,民眾服務,52,停車場地,停五停車場,23.745827993656956,121.45607899991633
U,花蓮縣,民眾服務,52,停車場地,彩光北豐農場停車場,23.792261996490122,121.4588029999187
U,花蓮縣,民眾服務,52,停車場地,富源森林遊樂區服務中心停車場,23.588701005302013,121.35445699996066
U,花蓮縣,民眾服務,52,停車場地,清水公園停車場,23.65572700001634,121.40983099994749
U,花蓮縣,民眾服務,52,停車場地,環河公園停車場,23.659202000048563,121.42094099994088
U,花蓮縣,民眾服務,52,停車場地,花蓮糖廠大客車停車場,23.65801499184728,121.42174199991943
U,花蓮縣,民眾服務,52,停車場地,花蓮糖廠小客車停車場,23.657862006572582,121.42184799995808
U,花蓮縣,民眾服務,52,停車場地,光復鄉停車場,23.66734199410306,121.42223499992042
U,花蓮縣,民眾服務,52,停車場地,光復鄉立體停車場,23.66728600049678,121.42446699993889
U,花蓮縣,民眾服務,52,停車場地,北迴歸線休息區停車場,23.452656998765512,121.49509899993352
U,花蓮縣,民眾服務,52,停車場地,石門遊憩區停車場,23.534633992717335,121.50549499990791
U,花蓮縣,民眾服務,52,停車場地,石梯遊憩區停車場,23.488929006316074,121.50829499995305
U,花蓮縣,民眾服務,52,停車場地,石梯遊憩區北口停車場,23.491243000752746,121.50811999993577
U,花蓮縣,民眾服務,52,停車場地,芭崎休息區停車場,23.733496004743756,121.5562999999432
U,花蓮縣,民眾服務,52,停車場地,長虹橋遊憩區停車場,23.463719994535634,121.49458799991291
U,花蓮縣,民眾服務,52,停車場地,磯崎海水浴場停車場,23.711717997939026,121.54755899991949
U,花蓮縣,民眾服務,52,停車場地,中口標誌休息區停車場,23.58734900616213,121.38291799996341
U,花蓮縣,民眾服務,52,停車場地,奇美泛舟中途站停車場,23.49907100389363,121.44627699995259
U,花蓮縣,民眾服務,52,停車場地,瑞港3、5瞭望台停車場,23.496300001203462,121.42750599994801
U,花蓮縣,民眾服務,52,停車場地,瑞穗泛舟中心停車場,23.490937994576495,121.39721299992563
U,花蓮縣,民眾服務,52,停車場地,玉山國家公園管理處南安遊客中心,23.47346800616506,121.27247899996995
U,花蓮縣,民眾服務,52,停車場地,停1-1停車場,23.33240400294479,121.31741599996664
U,花蓮縣,民眾服務,52,停車場地,停1-8停車場,23.33484299405699,121.31954899994581
U,花蓮縣,民眾服務,52,停車場地,羅山瀑布停車場,23.183099003492284,121.29192599996802
U,花蓮縣,民眾服務,53,服務性設施,花蓮縣新城鄉立托兒所,24.039402004787636,121.60443199993932
U,花蓮縣,民眾服務,53,服務性設施,花蓮縣秀林鄉公所,24.11932799364474,121.6247579998738
U,花蓮縣,民眾服務,53,服務性設施,花蓮縣立圖書館秀林分館,24.118842997268672,121.62468399989635
U,花蓮縣,民眾服務,53,服務性設施,花蓮縣秀林鄉立托兒所,24.11873199384344,121.62491899987896
U,花蓮縣,民眾服務,53,服務性設施,中華電信-新城服務中心,24.02608700869112,121.60670899994892
U,花蓮縣,民眾服務,53,服務性設施,花蓮縣新城鄉公所,24.0391410064183,121.60423499994597
U,花蓮縣,民眾服務,53,服務性設施,花蓮縣立圖書館新城分館,24.039915992523362,121.60416599988021
U,花蓮縣,民眾服務,53,服務性設施,花蓮縣新城鄉立托兒所,24.039402004787636,121.60443199993932
U,花蓮縣,民眾服務,53,服務性設施,花蓮縣新城鄉立托兒所,24.039402004787636,121.60443199993932
U,花蓮縣,民眾服務,53,服務性設施,亞太行動寬頻電信-花蓮中正加盟服務中心,23.97846200354666,121.60947399993265
U,花蓮縣,民眾服務,53,服務性設施,亞太行動寬頻電信-花蓮中山加盟服務中心,23.981765005010885,121.60543099993978
U,花蓮縣,民眾服務,53,服務性設施,亞太行動寬頻電信-花蓮市,23.976064995896845,121.6084209998896
U,花蓮縣,民眾服務,53,服務性設施,台灣自來水花蓮服務所,23.982533006906426,121.61770799994231
U,花蓮縣,民眾服務,53,服務性設施,台灣自來水花蓮給水廠,23.982533006906426,121.61770799994231
U,花蓮縣,民眾服務,53,服務性設施,台灣省自來水花蓮給水廠,23.981664004494622,121.61860299993732
U,花蓮縣,民眾服務,53,服務性設施,台灣省自來水花蓮服務所,23.98150099523027,121.6191609998836
U,花蓮縣,民眾服務,53,服務性設施,中華電信-花蓮營運處,23.97843800337181,121.60885499993036
U,花蓮縣,民眾服務,53,服務性設施,中華電信-花蓮中山特約服務中心,23.98367600355475,121.60391699993144
U,花蓮縣,民眾服務,53,服務性設施,中華電信-花蓮中正特約服務中心,23.973723005477666,121.602258999943
U,花蓮縣,民眾服務,53,服務性設施,遠傳電信-花蓮中山門市,23.97613900467509,121.61026899993256
U,花蓮縣,民眾服務,53,服務性設施,遠傳電信-花蓮門市,23.977072999041024,121.60689299990689
U,花蓮縣,民眾服務,53,服務性設施,威寶電信-花蓮中華直營服務中心,23.97616700390682,121.60772399992901
U,花蓮縣,民眾服務,53,服務性設施,威寶電信-花蓮中山特約服務中心,23.981528007143098,121.60597999994773
U,花蓮縣,民眾服務,53,服務性設施,台灣自來水吉安壽豐服務所,23.961706997527237,121.57254999991179
U,花蓮縣,民眾服務,53,服務性設施,台灣省自來水吉安服務所,23.962051003567154,121.57217899993627
U,花蓮縣,民眾服務,53,服務性設施,中華電信-花蓮建國特約服務中心,23.985006000588523,121.5962869999217
U,花蓮縣,民眾服務,53,服務性設施,威寶電信-吉安中華特約服務中心,23.97358900488657,121.58091499993957
U,花蓮縣,民眾服務,53,服務性設施,中華電信-吉安服務中心,23.974720994703745,121.57673799989128
U,花蓮縣,民眾服務,53,服務性設施,台灣自來水第九區管理處,23.982636000321776,121.61675599991467
U,花蓮縣,民眾服務,53,服務性設施,花蓮縣花蓮巿公所,23.982066996318117,121.60681799989217
U,花蓮縣,民眾服務,53,服務性設施,花蓮縣立圖書館花蓮分館,23.990224001306792,121.60123699992107
U,花蓮縣,民眾服務,53,服務性設施,花蓮縣立圖書館花蓮分館,23.990224001306792,121.60123699992107
U,花蓮縣,民眾服務,53,服務性設施,台灣電力公司花蓮區營業處,23.979757995447052,121.60749699989387
U,花蓮縣,民眾服務,53,服務性設施,花蓮縣花蓮市中華公有零售市場,23.9820659996907,121.60681799991023
U,花蓮縣,民眾服務,53,服務性設施,花蓮縣花蓮市復興公有零售市場,23.9820659996907,121.60681799991023
U,花蓮縣,民眾服務,53,服務性設施,花蓮縣花蓮市工程隊,23.9820659996907,121.60681799991023
U,花蓮縣,民眾服務,53,服務性設施,花蓮縣花蓮市立托兒所,23.980014999158232,121.59576299990704
U,花蓮縣,民眾服務,53,服務性設施,花蓮縣花蓮市立托兒所,23.980014999158232,121.59576299990704
U,花蓮縣,民眾服務,53,服務性設施,亞太行動寬頻電信-花蓮吉安加盟服務中心,23.973196004917682,121.57970399993977
U,花蓮縣,民眾服務,53,服務性設施,花蓮縣吉安鄉公所,23.972895001619598,121.5635289999306
U,花蓮縣,民眾服務,53,服務性設施,花蓮縣立圖書館吉安分館,23.972964004614358,121.57799399993792
U,花蓮縣,民眾服務,53,服務性設施,花蓮縣吉安鄉清潔隊,23.984960009532166,121.55361099996405
U,花蓮縣,民眾服務,53,服務性設施,花蓮縣吉安鄉立托兒所,23.988860006462176,121.5726339999426
U,花蓮縣,民眾服務,53,服務性設施,台灣省自來水壽豐營運所,23.86843899633347,121.50734699991412
U,花蓮縣,民眾服務,53,服務性設施,花蓮縣立圖書館壽豐分館,23.870187998853087,121.5090999999255
U,花蓮縣,民眾服務,53,服務性設施,中華電信-壽豐服務中心,23.87102400127141,121.51021699993144
U,花蓮縣,民眾服務,53,服務性設施,花蓮縣壽豐鄉立托兒所,23.870267998339898,121.5089039999177
U,花蓮縣,民眾服務,53,服務性設施,花蓮縣壽豐鄉立托兒所,23.870267998339898,121.5089039999177
U,花蓮縣,民眾服務,53,服務性設施,台灣省自來水鳳林營運所,23.745671004675952,121.45027099994881
U,花蓮縣,民眾服務,53,服務性設施,花蓮縣立圖書館鳳林分館,23.746440996401287,121.45285799992281
U,花蓮縣,民眾服務,53,服務性設施,中華電信-鳳林服務中心,23.744819003464407,121.4482239999501
U,花蓮縣,民眾服務,53,服務性設施,花蓮縣鳳林鎮公所,23.744673004135233,121.4516779999498
U,花蓮縣,民眾服務,53,服務性設施,花蓮縣鳳林鎮立托兒所,23.745313996820382,121.45184699992748
U,花蓮縣,民眾服務,53,服務性設施,花蓮縣鳳林鎮公共造產管理所,23.74472699832019,121.45176599992918
U,花蓮縣,民眾服務,53,服務性設施,花蓮縣立圖書館萬榮分館,23.714714998477152,121.41010599993473
U,花蓮縣,民眾服務,53,服務性設施,花蓮縣萬榮鄉公所,23.716439006170113,121.40903699996218
U,花蓮縣,民眾服務,53,服務性設施,花蓮縣萬榮鄉立托兒所,23.70978799339403,121.41480299991638
U,花蓮縣,民眾服務,53,服務性設施,台灣省自來水光復營運所,23.662243993948184,121.42017799992657
U,花蓮縣,民眾服務,53,服務性設施,中華電信-光復服務中心,23.66517000363744,121.42516499994919
U,花蓮縣,民眾服務,53,服務性設施,花蓮縣光復鄉公所,23.669174003860974,121.4234769999567
U,花蓮縣,民眾服務,53,服務性設施,花蓮縣立圖書館光復分館,23.663573995760586,121.42373299992593
U,花蓮縣,民眾服務,53,服務性設施,花蓮縣光復鄉立托兒所,23.669354998956127,121.42328199994166
U,花蓮縣,民眾服務,53,服務性設施,花蓮縣光復鄉立托兒所,23.669354998956127,121.42328199994166
U,花蓮縣,民眾服務,53,服務性設施,花蓮縣立圖書館豐濱分館,23.60240000342095,121.51888799994155
U,花蓮縣,民眾服務,53,服務性設施,花蓮縣壽豐鄉公所,23.870186005630327,121.50909999994764
U,花蓮縣,民眾服務,53,服務性設施,花蓮縣豐濱鄉公所,23.602424992281286,121.51889799990289
U,花蓮縣,民眾服務,53,服務性設施,花蓮縣豐濱鄉立托兒所,23.60118999162379,121.52097099989949
U,花蓮縣,民眾服務,53,服務性設施,花蓮縣豐濱鄉立托兒所,23.60118999162379,121.52097099989949
U,花蓮縣,民眾服務,53,服務性設施,台灣省自來水瑞穗營運所,23.502005997666775,121.37733199994439
U,花蓮縣,民眾服務,53,服務性設施,花蓮縣立圖書館瑞穗分館,23.493352002973836,121.39193299995628
U,花蓮縣,民眾服務,53,服務性設施,中華電信-瑞穗服務中心,23.49649700390667,121.38139199996117
U,花蓮縣,民眾服務,53,服務性設施,花蓮縣瑞穗鄉公所,23.496824995492588,121.3759669999322
U,花蓮縣,民眾服務,53,服務性設施,花蓮縣瑞穗鄉立托兒所,23.49641000683396,121.37577999997025
U,花蓮縣,民眾服務,53,服務性設施,花蓮縣瑞穗鄉立托兒所,23.49641000683396,121.37577999997025
U,花蓮縣,民眾服務,53,服務性設施,台灣省自來水玉里營運所,23.342400995085995,121.31656399994816
U,花蓮縣,民眾服務,53,服務性設施,中華電信-玉里服務中心,23.335531990749885,121.31412399993518
U,花蓮縣,民眾服務,53,服務性設施,中華電信-富里服務中心,23.176600998348874,121.24872499996752
U,花蓮縣,民眾服務,53,服務性設施,花蓮縣富里鄉公所,23.18002400105692,121.25012599996879
U,花蓮縣,民眾服務,53,服務性設施,花蓮縣立圖書館富里分館,23.17267199837194,121.24988999995976
U,花蓮縣,民眾服務,53,服務性設施,花蓮縣富里鄉立托兒所,23.1798160075756,121.25031199997926
U,花蓮縣,民眾服務,53,服務性設施,花蓮縣卓溪鄉公所,23.34645000196274,121.30342499996742
U,花蓮縣,民眾服務,53,服務性設施,花蓮縣卓溪鄉立托兒所,23.346531005449048,121.30340599997142
U,花蓮縣,民眾服務,53,服務性設施,花蓮縣玉里鎮公所,23.335410001718454,121.31531099996326
U,花蓮縣,民眾服務,53,服務性設施,花蓮縣立圖書館玉里分館,23.336073001740324,121.3158769999647
U,花蓮縣,民眾服務,53,服務性設施,花蓮縣玉里鎮公有零售市場管理所,23.33553599923411,121.3152039999516
U,花蓮縣,民眾服務,53,服務性設施,花蓮縣玉里鎮公有零售市場管理所,23.33553599923411,121.3152039999516
U,花蓮縣,民眾服務,55,產業用水及設施,花蓮縣台灣自來水公司第九區管理處溪頭淨水廠,23.6129697851985,121.37163854257848
U,花蓮縣,民眾服務,55,產業用水及設施,花蓮縣台灣自來水公司第九區管理處花蓮給水廠,23.98291484168774,121.61602835102482
U,花蓮縣,民眾服務,55,產業用水及設施,花蓮縣台灣自來水公司第九區管理處新社淨水廠,23.659106288962473,121.53594105987338
U,花蓮縣,民眾服務,55,產業用水及設施,花蓮縣台灣自來水公司第九區管理處光華淨水廠,23.928987607559883,121.58992892047655
U,花蓮縣,民眾服務,55,產業用水及設施,花蓮縣台灣自來水公司第九管理處鳳林淨水廠,23.75466856018239,121.42583636877896
U,花蓮縣,民眾服務,55,產業用水及設施,花蓮縣台灣自來水公司第九區管理處國慶淨水廠,24.006652696729745,121.58527505050593
U,花蓮縣,民眾服務,55,產業用水及設施,花蓮縣台灣自來水公司第九區管理處水璉淨水廠,23.788904173435483,121.563473287801
U,花蓮縣,民眾服務,55,產業用水及設施,花蓮縣台灣自來水公司第九區管理處光復淨水廠,23.66203855037448,121.42015054587027
U,花蓮縣,民眾服務,55,產業用水及設施,花蓮縣台灣自來水公司第九區管理處西林淨水廠,23.82033503536751,121.43117583885586
U,花蓮縣,民眾服務,55,產業用水及設施,花蓮縣台灣自來水公司第九區管理處新興淨水廠,24.134254689927708,121.6397164882191
U,花蓮縣,民眾服務,57,行政機關,花蓮縣政府,23.991400518362205,121.61967444821948
U,花蓮縣,民眾服務,57,行政機關,花蓮縣行政院農業委員會畜產試驗所澎湖工作站,23.627862855150763,121.51333129830716
U,花蓮縣,民眾服務,57,行政機關,花蓮縣花蓮商港安檢所,23.99947607864917,121.63452707216216
U,花蓮縣,民眾服務,57,行政機關,花蓮縣花蓮市原住民家庭暨婦女服務中心,23.990230180601053,121.62536447343366
U,花蓮縣,民眾服務,57,行政機關,花蓮縣秀林鄉原住民家庭暨婦女服務中心,24.119568632231314,121.62476972221633
U,花蓮縣,民眾服務,57,行政機關,花蓮縣豐濱鄉公所,23.601159165031273,121.52112376827068
U,花蓮縣,民眾服務,57,行政機關,花蓮縣瑞穗鄉戶政事務所,23.49656776460623,121.37588215081779
U,花蓮縣,民眾服務,57,行政機關,花蓮縣外垵漁港安檢所,23.563873607714232,121.48308353324684
U,花蓮縣,民眾服務,57,行政機關,花蓮縣台灣自來水公司第九區管理處佳民淨水廠,24.057766234923854,121.59485354381907
U,花蓮縣,民眾服務,57,行政機關,花蓮縣財政部關稅總局奇萊鼻燈塔,24.01567421950768,121.64291858852289
U,花蓮縣,民眾服務,57,行政機關,花蓮縣內政部東區老人之家養護課,24.003363788476204,121.61443021249035
U,花蓮縣,民眾服務,57,行政機關,花蓮縣花蓮港務局,23.980286334387568,121.61992618499127
U,花蓮縣,民眾服務,57,行政機關,行政院農業委員會水土保持局花蓮分局,23.992627992337738,121.61876899987485
U,花蓮縣,民眾服務,57,行政機關,花蓮縣交通部公路總局第四區養護工程處洛韶工務段大禹嶺道班房,24.1806684181266,121.30947946384504
U,花蓮縣,民眾服務,57,行政機關,花蓮縣行政院衛生署疾病管制局第六分局,23.995678633827534,121.6352026710792
U,花蓮縣,民眾服務,57,行政機關,花蓮縣和仁安檢所,24.246766720807212,121.71713595950602
U,花蓮縣,民眾服務,57,行政機關,花蓮縣台灣電力公司和平施工處,24.31628062951143,121.74486299968123
U,花蓮縣,民眾服務,57,行政機關,花蓮縣毒品危害防制中心,23.991764612282164,121.61721559239236
U,花蓮縣,民眾服務,57,行政機關,花蓮縣內垵南漁港安檢所,23.567218315321707,121.5014477644051
U,花蓮縣,民眾服務,57,行政機關,花蓮縣鳳林鎮公所,23.74469834888753,121.45181988950017
U,花蓮縣,民眾服務,57,行政機關,花蓮縣交通部公路總局第四區養工處洛韶工務段太魯閣監工站,24.15011754212128,121.62713411505835
U,花蓮縣,民眾服務,57,行政機關,花蓮縣法務部矯正署自強外役監獄無毒農作生態體驗園區,23.60546386489093,121.42273748532169
U,花蓮縣,民眾服務,57,行政機關,花蓮縣光復鄉戶政事務所,23.665474426345813,121.42501186739491
U,花蓮縣,民眾服務,57,行政機關,花蓮縣林務局花蓮林務區管理處玉里工作站,23.343181257783097,121.3181162497449
U,花蓮縣,民眾服務,57,行政機關,花蓮縣林務局花蓮林區管理處新城工作站,24.126467746336132,121.65295413464725
U,花蓮縣,民眾服務,57,行政機關,花蓮縣花蓮農田水利會新城工作站,24.037033835678177,121.60442974043954
U,花蓮縣,民眾服務,57,行政機關,花蓮縣花嶼漁港安檢所,23.398991014578428,121.31740984264908
U,花蓮縣,民眾服務,57,行政機關,花蓮縣行政院衛生署疾病管制局第六分局,23.991967808960645,121.61727092872022
U,花蓮縣,民眾服務,57,行政機關,花蓮縣經濟部標準檢驗局深層海水驗證中心,23.99013232772069,121.63256906085576
U,花蓮縣,民眾服務,57,行政機關,花蓮縣交通部公路總局臺北區監理所花蓮監理站玉里分站,23.347239533724096,121.31781745822784
U,花蓮縣,民眾服務,57,行政機關,花蓮縣新城鄉清潔隊,24.048555293525435,121.61775838829146
U,花蓮縣,民眾服務,57,行政機關,花蓮縣行政院國軍退除役官兵輔導委員會花蓮縣榮民服務處,23.980123411991123,121.61653319927447
U,花蓮縣,民眾服務,57,行政機關,花蓮縣經濟部標準檢驗局花蓮分局計程車計費表輪行檢定場,23.989917511758627,121.63225595384306
U,花蓮縣,民眾服務,57,行政機關,花蓮縣豐濱鄉戶政事務所,23.598395778717727,121.52233927274024
U,花蓮縣,民眾服務,57,行政機關,花蓮縣花蓮市部落健康營造中心,23.991370582281018,121.61714086044437
U,花蓮縣,民眾服務,57,行政機關,花蓮縣花蓮市公所,23.98205236432831,121.60673047301279
U,花蓮縣,民眾服務,57,行政機關,花蓮縣康樂安檢所,24.059504835885583,121.6151695611075
U,花蓮縣,民眾服務,57,行政機關,花蓮縣行政院海岸巡防署海洋巡防總局第六海巡隊,24.00130030693507,121.63986804312782
U,花蓮縣,民眾服務,57,行政機關,花蓮縣鳳林鎮戶政事務所,23.745859493662294,121.45003123828126
U,花蓮縣,民眾服務,57,行政機關,花蓮縣地方稅務局,23.992261417285594,121.6199676158989
U,花蓮縣,民眾服務,57,行政機關,花蓮縣林務局東勢林區管理處合歡山莊,24.14252346996542,121.28429848116618
U,花蓮縣,民眾服務,57,行政機關,花蓮縣吉安鄉調解委員會,23.972650477527054,121.56326007083557
U,花蓮縣,民眾服務,57,行政機關,花蓮縣磯崎安檢所,23.70798142515005,121.54756402272079
U,花蓮縣,民眾服務,57,行政機關,花蓮縣池西漁港安檢所,23.60029044227589,121.50582594478401
U,花蓮縣,民眾服務,57,行政機關,花蓮縣行政院勞工委員會勞工保險局花蓮辦事處,23.994649622649984,121.59776322939005
U,花蓮縣,民眾服務,57,行政機關,花蓮縣東嶼坪漁港安檢所,23.256570121473494,121.51249403458827
U,花蓮縣,民眾服務,57,行政機關,花蓮縣基隆關稅局員工訓練活動中心,23.990060774286935,121.63317308300856
U,花蓮縣,民眾服務,57,行政機關,花蓮縣花蓮機動查緝隊,23.962532783164338,121.59847578578228
U,花蓮縣,民眾服務,57,行政機關,花蓮縣萬榮鄉調解委員會,23.714909747194113,121.41110300340199
U,花蓮縣,民眾服務,57,行政機關,花蓮縣板下安檢所,24.175475389921257,121.65683853994608
U,花蓮縣,民眾服務,57,行政機關,花蓮縣交通部公路總局第四區養工處花蓮工務段鳳林監工站,23.924882412135503,121.53545891269675
U,花蓮縣,民眾服務,57,行政機關,花蓮縣交通部臺灣鐵路管理局花蓮電務段玉里電務分駐所,23.330489584690653,121.31163259315296
U,花蓮縣,民眾服務,57,行政機關,花蓮縣交通部公路總局花蓮保養場臺灣省車輛動員委員會第一中隊工,23.986935040524102,121.62083867840944
U,花蓮縣,民眾服務,57,行政機關,花蓮縣行政院農業委員會農糧署東區分署,23.974606091871635,121.59046229402054
U,花蓮縣,民眾服務,57,行政機關,花蓮縣吉安鄉社會福利館,23.972877217993098,121.56192931792577
U,花蓮縣,民眾服務,57,行政機關,花蓮縣行政院衛生署食品藥物管理局北區管理中心東部辦公室,23.99203344949625,121.61728316286728
U,花蓮縣,民眾服務,57,行政機關,花蓮縣大池漁港安檢所,23.61729211179394,121.50454871495891
U,花蓮縣,民眾服務,57,行政機關,花蓮縣身心障礙福利服務中心,23.991059183216397,121.6294695271458
U,花蓮縣,民眾服務,57,行政機關,花蓮縣台灣自來水公司第九區管理處荖溪淨水廠,23.889663603543905,121.51299329938271
U,花蓮縣,民眾服務,57,行政機關,花蓮縣崇德安檢所,24.16605900883183,121.65732757515231
U,花蓮縣,民眾服務,57,行政機關,花蓮縣家庭教育中心,24.006354855059673,121.58570980409023
U,花蓮縣,民眾服務,57,行政機關,花蓮縣大果葉漁港安檢所,23.594349845173284,121.51745486675118
U,花蓮縣,民眾服務,57,行政機關,花蓮縣行政院農業委員畜產試驗所花蓮種畜繁殖場,23.95041147169649,121.54742825753308
U,花蓮縣,民眾服務,57,行政機關,花蓮縣交通部花蓮港務局棧埠管理處,23.99794554982251,121.63485730623329
U,花蓮縣,民眾服務,57,行政機關,花蓮縣國防部東部地方軍事法院檢察署,23.980822113835597,121.61216924605381
U,花蓮縣,民眾服務,57,行政機關,花蓮縣國稅局花蓮分局,24.004389231617306,121.61930900263056
U,花蓮縣,民眾服務,57,行政機關,花蓮縣卓溪鄉公所,23.346611419541855,121.30339156971905
U,花蓮縣,民眾服務,57,行政機關,花蓮縣財政部臺灣省北區國稅局花蓮縣分局,23.984448354420667,121.60602592876229
U,花蓮縣,民眾服務,57,行政機關,花蓮縣太魯閣國家公園環境教育中心,24.20662856718965,121.48314300724837
U,花蓮縣,民眾服務,57,行政機關,花蓮縣內垵北漁港安檢所,23.5750541224192,121.5007938987614
U,花蓮縣,民眾服務,57,行政機關,花蓮縣教育部設置花蓮縣吉安鄉樂齡學習資源中心,23.97275719930412,121.5782416072809
U,花蓮縣,民眾服務,57,行政機關,花蓮縣交通部公路總局第四區養護工程處花蓮工務段,23.988091596421107,121.62095298507695
U,花蓮縣,民眾服務,57,行政機關,花蓮縣和平工業港安檢所,24.29420497489025,121.75622293364664
U,花蓮縣,民眾服務,57,行政機關,花蓮縣交通部公路總局第四區養護工程處洛韶工務段,24.206000897708964,121.45119374070465
U,花蓮縣,民眾服務,57,行政機關,花蓮縣花蓮再生燃料示範場,23.579432776825435,121.50095119056046
U,花蓮縣,民眾服務,57,行政機關,花蓮縣太魯閣國家公園管理處布洛灣管理站,24.17059103441486,121.57324850479085
U,花蓮縣,民眾服務,57,行政機關,花蓮縣教育部設置花蓮縣花蓮市樂齡學習資源中心,23.97939248797713,121.61134528620366
U,花蓮縣,民眾服務,57,行政機關,花蓮縣玉里鎮戶政事務所,23.3244772955245,121.31925324687413
U,花蓮縣,民眾服務,57,行政機關,花蓮縣卓溪鄉戶政事務所,23.345085474110384,121.30399305538575
U,花蓮縣,民眾服務,57,行政機關,花蓮縣花蓮港務總局港埠工程處船舶機械修理廠,24.00089277835403,121.64055937776594
U,花蓮縣,民眾服務,57,行政機關,花蓮縣行政院勞委會東區職業傷病診治中心,23.995236460792892,121.59250691217484
U,花蓮縣,民眾服務,57,行政機關,花蓮縣壽豐鄉清潔隊,23.870221800492434,121.50894485436841
U,花蓮縣,民眾服務,57,行政機關,花蓮縣綠洲安檢所,24.307186235497802,121.77001846986946
U,花蓮縣,民眾服務,57,行政機關,花蓮縣國立教育廣播電台花蓮分臺,24.006403157632715,121.63106582648474
U,花蓮縣,民眾服務,57,行政機關,花蓮縣經濟部工業局和平工業區服務中心,24.30577312243826,121.74959803265683
U,花蓮縣,民眾服務,57,行政機關,花蓮縣秀林鄉公所,24.11857383506013,121.62495658529463
U,花蓮縣,民眾服務,57,行政機關,花蓮縣花蓮市清潔隊,23.969494987800207,121.61159615113746
U,花蓮縣,民眾服務,57,行政機關,花蓮縣和平港務大樓,24.29417001821698,121.75514964239044
U,花蓮縣,民眾服務,57,行政機關,花蓮縣行政院海岸巡防署第九巡防區,24.0453452439298,121.60389131804523
U,花蓮縣,民眾服務,57,行政機關,花蓮縣壽豐鄉民代表會,23.870441615691742,121.50858885098174
U,花蓮縣,民眾服務,57,行政機關,花蓮縣花蓮環境保護局動力計排煙檢測站,23.997854836679338,121.63207459077572
U,花蓮縣,民眾服務,57,行政機關,花蓮縣娑婆噹淨水廠,24.004239718611036,121.54645191226467
U,花蓮縣,民眾服務,57,行政機關,花蓮縣豐濱鄉民代表會,23.59797501087805,121.5211431196248
U,花蓮縣,民眾服務,57,行政機關,花蓮縣新社安檢所,23.60471392183032,121.52824219267538
U,花蓮縣,民眾服務,57,行政機關,花蓮縣行政院農業委員會林務局花蓮林區管理處萬榮工作站,23.71761650631262,121.39756419016773
U,花蓮縣,民眾服務,57,行政機關,花蓮縣鹽寮漁港安檢所,23.830701820648745,121.58606395196185
U,花蓮縣,民眾服務,57,行政機關,花蓮縣順安安檢所,24.11416463745404,121.64002604079717
U,花蓮縣,民眾服務,57,行政機關,花蓮縣林務局花蓮林區管理處測量檢定隊,23.870210687000018,121.51015119972709
U,花蓮縣,民眾服務,57,行政機關,花蓮縣原住民族文化產業推展中心,23.674256144740493,121.42259844898918
U,花蓮縣,民眾服務,57,行政機關,花蓮縣秀林鄉清潔隊,24.11861684275018,121.62480177534943
U,花蓮縣,民眾服務,57,行政機關,花蓮縣新城鄉戶政事務所,24.034401016475577,121.60334588527593
U,花蓮縣,民眾服務,57,行政機關,花蓮縣政府社會處,23.99154516132807,121.6198378986332
U,花蓮縣,民眾服務,57,行政機關,花蓮縣臺灣花蓮地方法院民事庭,24.006632876815363,121.6232987223
U,花蓮縣,民眾服務,57,行政機關,花蓮縣岸巡八三大隊勤務中隊,24.045402279843515,121.60388303101843
U,花蓮縣,民眾服務,57,行政機關,花蓮縣水產培育所,23.933057981558722,121.50706621354956
U,花蓮縣,民眾服務,57,行政機關,花蓮縣吉安鄉公所,23.97297654708593,121.56361702887854
U,花蓮縣,民眾服務,57,行政機關,花蓮縣林務局東勢林區管理處松雪樓,24.140811941562017,121.28595522568104
U,花蓮縣,民眾服務,57,行政機關,花蓮縣赤馬漁港安檢所,23.58214229251982,121.51163773183592
U,花蓮縣,民眾服務,57,行政機關,花蓮縣政府花蓮地區水資源回收中心,23.93086081277048,121.59497358324784
U,花蓮縣,民眾服務,57,行政機關,花蓮縣行政院東部聯合服務中心,23.981406976803555,121.60568693333533
U,花蓮縣,民眾服務,57,行政機關,花蓮縣竹灣漁港安檢所,23.6307941511655,121.52518853571861
U,花蓮縣,民眾服務,57,行政機關,花蓮縣交通部公路總局第四區養護工程處花蓮工務段豐濱監工站,23.601005942224358,121.52274772639599
U,花蓮縣,民眾服務,57,行政機關,花蓮縣壽豐鄉戶政事務所,23.8700341182554,121.50927660234801
U,花蓮縣,民眾服務,57,行政機關,花蓮縣政府南區服務中心,23.341059337329227,121.32000981901298
U,花蓮縣,民眾服務,57,行政機關,花蓮縣豐濱鄉清潔隊,23.601287126252956,121.52088334616542
U,花蓮縣,民眾服務,57,行政機關,花蓮縣北埔安檢所,24.04163487027736,121.62225385513649
U,花蓮縣,民眾服務,57,行政機關,花蓮縣吉安鄉村聯合辦公室,23.972835399839205,121.56321842447684
U,花蓮縣,民眾服務,57,行政機關,花蓮縣光復鄉民代表會,23.66940585969387,121.42298359262794
U,花蓮縣,民眾服務,57,行政機關,花蓮縣林務局花蓮林區管理處南華工作站,23.945663228342646,121.54836902717757
U,花蓮縣,民眾服務,57,行政機關,花蓮縣吉安鄉公所清潔隊,23.98485250812012,121.55353194300328
U,花蓮縣,民眾服務,57,行政機關,花蓮縣內政部營建署城鄉發展分署東區規劃隊,23.99039234388784,121.61962952556345
U,花蓮縣,民眾服務,57,行政機關,花蓮縣鳳林鎮民代表會,23.746152962735078,121.45016259489795
U,花蓮縣,民眾服務,57,行政機關,花蓮縣臺灣菸酒公司玉里營業所,23.332116634280272,121.31270156684637
U,花蓮縣,民眾服務,57,行政機關,花蓮縣交通部中央氣象局花蓮氣象站,23.975126985740214,121.61349857477629
U,花蓮縣,民眾服務,57,行政機關,花蓮縣水璉安檢所,23.781154414370736,121.56948044037067
U,花蓮縣,民眾服務,57,行政機關,花蓮縣萬榮鄉戶政事務所,23.71461783084889,121.41012925903168
U,花蓮縣,民眾服務,57,行政機關,花蓮縣玉里鎮民代表會,23.33640625039776,121.31605223291346
U,花蓮縣,民眾服務,57,行政機關,花蓮縣合界漁港安檢所,23.6375514955665,121.52871288833728
U,花蓮縣,民眾服務,57,行政機關,花蓮縣七星潭安檢所,24.027248786705727,121.6310498803417
U,花蓮縣,民眾服務,57,行政機關,花蓮縣國防部東部地方軍事法院,23.980869918043947,121.61215104638298
U,花蓮縣,民眾服務,57,行政機關,花蓮縣富里鄉公所,23.179443046538896,121.25028716905933
U,花蓮縣,民眾服務,57,行政機關,花蓮縣臺灣花蓮地方法院玉里簡易庭,23.341008472247243,121.31805613159968
U,花蓮縣,民眾服務,57,行政機關,花蓮縣臺灣花蓮地方法院檢察署,23.989338029698995,121.61947343894549
U,花蓮縣,民眾服務,57,行政機關,花蓮縣富里鄉民代表會,23.173858936964315,121.24772469540494
U,花蓮縣,民眾服務,57,行政機關,花蓮縣花蓮工務段北埔道班,24.031380650020157,121.60172273834444
U,花蓮縣,民眾服務,57,行政機關,花蓮縣鳳林鎮清潔隊,23.7463125364473,121.45058511782184
U,花蓮縣,民眾服務,57,行政機關,花蓮縣花蓮港山林事業所,23.98036363030524,121.6159281281218
U,花蓮縣,民眾服務,57,行政機關,花蓮縣政府教育處,24.006424747718295,121.5857050487803
U,花蓮縣,民眾服務,57,行政機關,花蓮縣政府農業發展處多元化漁業園區,23.933389762722264,121.50744733556331
U,花蓮縣,民眾服務,57,行政機關,花蓮縣萬榮鄉公所清潔隊,23.71909724997085,121.40551302744551
U,花蓮縣,民眾服務,57,行政機關,花蓮縣林務局花蓮林區管理處新城工作站關原護管所,24.18783947015633,121.34013024042298
U,花蓮縣,民眾服務,57,行政機關,花蓮縣瑞穗鄉民代表會,23.49611758832911,121.37606802778284
U,花蓮縣,民眾服務,57,行政機關,花蓮縣光復鄉調解委員會,23.669359148514726,121.42314561600784
U,花蓮縣,民眾服務,57,行政機關,花蓮縣行政院海岸巡防署海岸巡防總局東部地區巡防局第九巡防區岸,24.069957476598223,121.61359228942796
U,花蓮縣,民眾服務,57,行政機關,花蓮縣小門漁港安檢所,23.650170509913362,121.51888186612234
U,花蓮縣,民眾服務,57,行政機關,花蓮縣財政部臺灣省北區國稅局玉里稽徵所,23.332298981162754,121.31682191476186
U,花蓮縣,民眾服務,57,行政機關,花蓮縣行政院衛生署東區社區醫學訓練中心,23.97898448440207,121.61134169004086
U,花蓮縣,民眾服務,57,行政機關,花蓮縣經濟部礦務局東區辦事處,23.990589993556977,121.62968371094414
U,花蓮縣,民眾服務,57,行政機關,花蓮縣萬榮鄉公所,23.71488687023935,121.41099084562708
U,花蓮縣,民眾服務,57,行政機關,花蓮縣內政部入出國及移民署專勤事務第一大隊花蓮縣專勤隊,24.00009790247819,121.63440074963067
U,花蓮縣,民眾服務,57,行政機關,花蓮縣花蓮漁港安檢所,23.99523048802368,121.63829489232194
U,花蓮縣,民眾服務,57,行政機關,花蓮縣交通部公路總局第四區養護工程處洛韶工務段慈恩監工站伍橋,24.192013003839218,121.38421510364219
U,花蓮縣,民眾服務,57,行政機關,花蓮縣衛生局,23.991900559608276,121.6172626770111
U,花蓮縣,民眾服務,57,行政機關,花蓮縣台灣自來水公司第九區管理處富世淨水廠,24.15102473477513,121.62378373108855
U,花蓮縣,民眾服務,57,行政機關,花蓮縣秀林鄉民代表會,24.118068237460378,121.62528047669657
U,花蓮縣,民眾服務,57,行政機關,花蓮縣綠水地質館,24.17911005944766,121.50782256183349
U,花蓮縣,民眾服務,57,行政機關,花蓮縣沙東安檢所,24.09198285705711,121.61896815164789
U,花蓮縣,民眾服務,57,行政機關,職業訓練局花蓮就業服務站,23.989632998063133,121.60227399990532
U,花蓮縣,民眾服務,57,行政機關,中央健康保險局東區分局,23.976529006964856,121.61200999994387
U,花蓮縣,民眾服務,57,行政機關,花蓮縣經濟部礦務局和平礦場保安中心,24.305767209541223,121.74964075419388
U,花蓮縣,民眾服務,57,行政機關,花蓮縣光復鄉公所,23.669260302861282,121.42315222906653
U,花蓮縣,民眾服務,57,行政機關,花蓮縣交通部中央氣象局花蓮氣象雷達站,23.988581890095716,121.62863650853278
U,花蓮縣,民眾服務,57,行政機關,花蓮縣財政部國有財產局臺灣北區辦事處花蓮分處,23.984166134094618,121.60626878571873
U,花蓮縣,民眾服務,57,行政機關,花蓮縣萬榮鄉民代表會,23.714897514385456,121.41114494953236
U,花蓮縣,民眾服務,57,行政機關,花蓮縣花蓮工務段鳳林分駐所,23.747068146005237,121.44742286590498
U,花蓮縣,民眾服務,57,行政機關,花蓮縣農業局加灣林務所,24.0727946324096,121.6130363800827
U,花蓮縣,民眾服務,57,行政機關,花蓮縣外交部東部花蓮辦事處,23.981356258455886,121.60563506491177
U,花蓮縣,民眾服務,57,行政機關,花蓮縣內政部營建署太魯閣國家公園管理處綠水展示館,24.178730721254386,121.5082700423352
U,花蓮縣,民眾服務,57,行政機關,花蓮縣交通部花蓮港務局棧埠工程處,23.997774268632956,121.63488752328612
U,花蓮縣,民眾服務,57,行政機關,花蓮縣行政院勞工委員會職業訓練局吉安就業服務臺,23.972899554610677,121.5630801799531
U,花蓮縣,民眾服務,57,行政機關,花蓮縣臺灣高等法院花蓮分院,23.990951540974034,121.62750442957915
U,花蓮縣,民眾服務,57,行政機關,花蓮縣台灣自來水公司第九區管理處支亞干淨水廠,23.80057952222508,121.43439183261307
U,花蓮縣,民眾服務,57,行政機關,花蓮縣自來水公司第九區管理處尚志淨水廠,23.998633500404303,121.61300043260727
U,花蓮縣,民眾服務,57,行政機關,花蓮縣鳳林地政事務所,23.746271482724346,121.45338190357886
U,花蓮縣,民眾服務,57,行政機關,花蓮縣玉里地政事務所,23.341666918986437,121.3182639226552
U,花蓮縣,民眾服務,57,行政機關,花蓮縣秀林鄉戶政事務所,24.118256131492306,121.62406344572912
U,花蓮縣,民眾服務,57,行政機關,花蓮縣新城鄉民代表會,24.04022259441578,121.60415838765107
U,花蓮縣,民眾服務,57,行政機關,花蓮縣臺灣高等法院花蓮分院檢察署,23.99060323084089,121.6272768022648
U,花蓮縣,民眾服務,57,行政機關,花蓮縣警察局天祥派出所,24.18292000400501,121.49420199994451
U,花蓮縣,民眾服務,57,行政機關,花蓮縣消防局和平消防分隊,24.31280799847344,121.74706299988122
U,花蓮縣,民眾服務,57,行政機關,花蓮縣警察局水源派出所,24.00321100364582,121.55496199993418
U,花蓮縣,民眾服務,57,行政機關,花蓮縣警察局銅門派出所,23.96634000847744,121.4841359999605
U,花蓮縣,民眾服務,57,行政機關,花蓮縣警察局文蘭派出所,23.951371001558435,121.50601899993691
U,花蓮縣,民眾服務,57,行政機關,花蓮縣警察局和平派出所,24.311902994325454,121.74748099984845
U,花蓮縣,民眾服務,57,行政機關,花蓮縣警察局和仁派出所,24.24476399691756,121.72166299987143
U,花蓮縣,民眾服務,57,行政機關,花蓮縣警察局崇德派出所,24.16264299700989,121.65214899989213
U,花蓮縣,民眾服務,57,行政機關,花蓮縣警察局富世派出所,24.15038000272835,121.62669999992099
U,花蓮縣,民眾服務,57,行政機關,花蓮縣警察局洛韶派出所,24.206254001455807,121.45266999993443
U,花蓮縣,民眾服務,57,行政機關,花蓮縣警察局合歡派出所,24.179889000437097,121.30771599995533
U,花蓮縣,民眾服務,57,行政機關,花蓮縣警察局秀林分駐所,24.119237999540914,121.62460999990775
U,花蓮縣,民眾服務,57,行政機關,花蓮縣警察局加灣派出所,24.08301300135701,121.60688899992098
U,花蓮縣,民眾服務,57,行政機關,花蓮縣警察局三棧派出所,24.10133600005435,121.60824399991229
U,花蓮縣,民眾服務,57,行政機關,花蓮縣警察局佳民派出所,24.054241008359213,121.59888699994933
U,花蓮縣,民眾服務,57,行政機關,花蓮縣警察局慈恩派出所,24.190541002116067,121.38820999994834
U,花蓮縣,民眾服務,57,行政機關,崇德漁港安檢所,24.16524100424898,121.65704299992828
U,花蓮縣,民眾服務,57,行政機關,國家公園警察大隊太魯閣國家公園,24.17329500344654,121.63134799992359
U,花蓮縣,民眾服務,57,行政機關,公路總局第四區養護工程處洛韶工務段,24.206086009226983,121.45141899996663
U,花蓮縣,民眾服務,57,行政機關,經濟部工業局和平工業專用港管理小組,24.301188997320182,121.75463199987269
U,花蓮縣,民眾服務,57,行政機關,花蓮縣秀林鄉衛生所,24.117970007783825,121.62556799994664
U,花蓮縣,民眾服務,57,行政機關,花蓮縣秀林鄉鄉民代表會,24.11770000629716,121.62543799994218
U,花蓮縣,民眾服務,57,行政機關,花蓮縣秀林鄉戶政事務所,24.12022300641841,121.62658199994083
U,花蓮縣,民眾服務,57,行政機關,花蓮縣消防局新秀消防分隊,24.127064995429027,121.65295199988533
U,花蓮縣,民眾服務,57,行政機關,花蓮縣消防局北埔消防分隊,24.03345299883889,121.6042469999046
U,花蓮縣,民眾服務,57,行政機關,花蓮縣警察局北埔派出所,24.033634001796067,121.60415999991741
U,花蓮縣,民眾服務,57,行政機關,花蓮縣警察局嘉里派出所,24.016466998849026,121.60712699990947
U,花蓮縣,民眾服務,57,行政機關,花蓮縣警察局新城派出所,24.126882002891673,121.65365899991616
U,花蓮縣,民眾服務,57,行政機關,林務局花蓮林區管理處新城工作站,24.126253007484365,121.65286899994253
U,花蓮縣,民眾服務,57,行政機關,林務局花蓮林區管理處新城工作站,24.126253007484365,121.65286899994253
U,花蓮縣,民眾服務,57,行政機關,內政部空中勤務總隊勤務第一大隊第三隊,24.031356999752568,121.61021399991515
U,花蓮縣,民眾服務,57,行政機關,行政院海岸巡防署海岸巡防總局東部地區巡防局第八三岸巡大隊,24.045283996583382,121.60392499990091
U,花蓮縣,民眾服務,57,行政機關,花蓮縣新城鄉鄉民代表會,24.039865003951267,121.60388399992678
U,花蓮縣,民眾服務,57,行政機關,花蓮縣警察局新城分局,24.126882003159132,121.6536399999238
U,花蓮縣,民眾服務,57,行政機關,花蓮縣新城鄉戶政事務所,24.03462999721254,121.60344699989612
U,花蓮縣,民眾服務,57,行政機關,花蓮縣新城鄉衛生所,24.030378005695336,121.60545199993562
U,花蓮縣,民眾服務,57,行政機關,花蓮縣警察局美崙派出所,23.994878009122306,121.63170399995597
U,花蓮縣,民眾服務,57,行政機關,花蓮縣警察局軒轅派出所,23.977621004008377,121.61204499993379
U,花蓮縣,民眾服務,57,行政機關,花蓮縣消防局美崙消防分隊,24.013195003354465,121.63037799992752
U,花蓮縣,民眾服務,57,行政機關,花蓮縣消防局美崙消防分隊,24.013195003354465,121.63037799992752
U,花蓮縣,民眾服務,57,行政機關,花蓮縣消防局花蓮消防分隊,23.981757003814128,121.60754399992835
U,花蓮縣,民眾服務,57,行政機關,花蓮縣消防局花蓮消防分隊,23.981757003814128,121.60754399992835
U,花蓮縣,民眾服務,57,行政機關,花蓮縣警察局民意派出所,24.001091997176996,121.62026399989402
U,花蓮縣,民眾服務,57,行政機關,花蓮縣警察局民意派出所,24.001091997176996,121.62026399989402
U,花蓮縣,民眾服務,57,行政機關,花蓮縣警察局豐川派出所,23.993208999366495,121.60447199990699
U,花蓮縣,民眾服務,57,行政機關,花蓮縣警察局豐川派出所,23.993208999366495,121.60447199990699
U,花蓮縣,民眾服務,57,行政機關,花蓮縣警察局中華派出所,23.97520100161485,121.59852199992392
U,花蓮縣,民眾服務,57,行政機關,花蓮縣警察局中正派出所,23.975409999965716,121.60505699991694
U,花蓮縣,民眾服務,57,行政機關,花蓮縣警察局中山派出所,23.981312993413912,121.60550699988151
U,花蓮縣,民眾服務,57,行政機關,花蓮縣警察局自強派出所,23.996447999547907,121.6003789999136
U,花蓮縣,民眾服務,57,行政機關,台灣花蓮地方法院花蓮簡易庭,24.006776995342705,121.6232009998898
U,花蓮縣,民眾服務,57,行政機關,台灣花蓮地方法院花蓮簡易庭,24.006776995342705,121.6232009998898
U,花蓮縣,民眾服務,57,行政機關,工業技術研究院能源與資源研究所,24.013782994751573,121.63002699988779
U,花蓮縣,民眾服務,57,行政機關,交通部花蓮港務局棧埠工程處,23.980415992901744,121.6199289998756
U,花蓮縣,民眾服務,57,行政機關,營建署東區工程組,23.990226006633055,121.63007899993951
U,花蓮縣,民眾服務,57,行政機關,花蓮縣長期照顧管理中心,23.991024996214534,121.62894299989559
U,花蓮縣,民眾服務,57,行政機關,花蓮縣長期照顧管理中心,23.991024996214534,121.62894299989559
U,花蓮縣,民眾服務,57,行政機關,花蓮縣稅捐稽徵處,23.99237100825472,121.61993699994675
U,花蓮縣,民眾服務,57,行政機關,台灣更生保護會花蓮分會,23.989528001926804,121.61947199992292
U,花蓮縣,民眾服務,57,行政機關,台灣更生保護會花蓮分會,23.989528001926804,121.61947199992292
U,花蓮縣,民眾服務,57,行政機關,營建署新生地開發局,23.99061100055279,121.61956499991568
U,花蓮縣,民眾服務,57,行政機關,衛生署藥物食品檢驗局東部檢驗站,23.992055003116562,121.61755699993029
U,花蓮縣,民眾服務,57,行政機關,台灣花蓮地方法院觀護人室,23.989528001926804,121.61947199992292
U,花蓮縣,民眾服務,57,行政機關,台灣花蓮地方法院觀護人室,23.989528001926804,121.61947199992292
U,花蓮縣,民眾服務,57,行政機關,財團法人犯罪被害人保護協會,23.989528001926804,121.61947199992292
U,花蓮縣,民眾服務,57,行政機關,財團法人犯罪被害人保護協會,23.989528001926804,121.61947199992292
U,花蓮縣,民眾服務,57,行政機關,花蓮縣工商(業)發展投資策進會,23.991424002522056,121.61950999992084
U,花蓮縣,民眾服務,57,行政機關,花蓮縣家畜疾病防治所,23.992749997986184,121.61769799990323
U,花蓮縣,民眾服務,57,行政機關,花蓮縣家畜疾病防治所,23.992749997986184,121.61769799990323
U,花蓮縣,民眾服務,57,行政機關,花蓮縣阿美建設協會,23.97134899790551,121.60667899990315
U,花蓮縣,民眾服務,57,行政機關,交通部東部鐵路改善工程局東部,23.993884999843523,121.60003299991791
U,花蓮縣,民眾服務,57,行政機關,職業訓練局花蓮就業服務站,23.989632998063133,121.60227399990532
U,花蓮縣,民眾服務,57,行政機關,花蓮縣消防局救災救護第一大隊,23.981757003814128,121.60754399992835
U,花蓮縣,民眾服務,57,行政機關,花蓮縣消防局救災救護第一大隊,23.981757003814128,121.60754399992835
U,花蓮縣,民眾服務,57,行政機關,花蓮市立殯儀館,23.96962300115722,121.61174099991459
U,花蓮縣,民眾服務,57,行政機關,國有財產局台灣北區辦事處花蓮分處,23.99218300517167,121.62833899993386
U,花蓮縣,民眾服務,57,行政機關,內政部入出國及移民署,23.981438997359856,121.60575399990516
U,花蓮縣,民眾服務,57,行政機關,內政部入出國及移民署,23.981438997359856,121.60575399990516
U,花蓮縣,民眾服務,57,行政機關,花蓮縣政府民政局,23.991424002522056,121.61950999992084
U,花蓮縣,民眾服務,57,行政機關,花蓮縣政府地政局,23.991424002522056,121.61950999992084
U,花蓮縣,民眾服務,57,行政機關,中央健康保險局東區分局,23.976529006964856,121.61200999994387
U,花蓮縣,民眾服務,57,行政機關,調查局花蓮縣調查站,23.98323000092478,121.61844899991931
U,花蓮縣,民眾服務,57,行政機關,調查局東部地區機動工作組,23.99267900329018,121.61737399992282
U,花蓮縣,民眾服務,57,行政機關,調查局東部地區機動工作組,23.99267900329018,121.61737399992282
U,花蓮縣,民眾服務,57,行政機關,關稅總局基隆關稅局花蓮分局,23.996028004219795,121.6351489999268
U,花蓮縣,民眾服務,57,行政機關,關稅總局基隆關稅局花蓮分局,23.996028004219795,121.6351489999268
U,花蓮縣,民眾服務,57,行政機關,經濟部礦務局東區辦事處,23.990643007307842,121.62966799994025
U,花蓮縣,民眾服務,57,行政機關,外交部領事事務局花蓮辦事處,23.981438997359856,121.60575399990516
U,花蓮縣,民眾服務,57,行政機關,外交部領事事務局花蓮辦事處,23.981438997359856,121.60575399990516
U,花蓮縣,民眾服務,57,行政機關,工業局美崙兼和平及光華工業區,24.013195003354465,121.63037799992752
U,花蓮縣,民眾服務,57,行政機關,工業局美崙兼和平及光華工業區,24.013195003354465,121.63037799992752
U,花蓮縣,民眾服務,57,行政機關,海岸巡防總局第六(花蓮)海巡隊,24.000346997890837,121.64114599990086
U,花蓮縣,民眾服務,57,行政機關,花蓮憲兵隊,23.978077999769464,121.61076899991474
U,花蓮縣,民眾服務,57,行政機關,衛生署疾病管制局第六分局,23.992082998270085,121.61754699989966
U,花蓮縣,民眾服務,57,行政機關,行政院東部聯合服務中心,23.981438997359856,121.60575399990516
U,花蓮縣,民眾服務,57,行政機關,行政院東部聯合服務中心,23.981438997359856,121.60575399990516
U,花蓮縣,民眾服務,57,行政機關,國防部總政治作戰局福利總處東管處,24.00285899274973,121.62973699987646
U,花蓮縣,民眾服務,57,行政機關,內政部警政署鐵路警察局第四警務段,23.991162997028844,121.60108199989656
U,花蓮縣,民眾服務,57,行政機關,內政部警政署鐵路警察局第四警務段,23.991162997028844,121.60108199989656
U,花蓮縣,民眾服務,57,行政機關,臺銀人壽保險股份有限公司花蓮分公司,23.97887800401422,121.6070389999282
U,花蓮縣,民眾服務,57,行政機關,臺灣土地銀行-花蓮分行,23.982632004050885,121.6052779999361
U,花蓮縣,民眾服務,57,行政機關,花蓮縣政府教育處,24.00641800089217,121.58595699992073
U,花蓮縣,民眾服務,57,行政機關,內政部入出國及移民署專勤事務第一大花蓮縣專勤隊,24.01294099622529,121.64092799988768
U,花蓮縣,民眾服務,57,行政機關,公路總局第四區養護工程處花蓮工務段,23.988385003202627,121.6211179999252
U,花蓮縣,民眾服務,57,行政機關,交通部臺灣鐵路管理局北區供應廠採購課,23.995090998100668,121.60040599990886
U,花蓮縣,民眾服務,57,行政機關,合作金庫銀行-花蓮分行,23.9760219973755,121.61023899989817
U,花蓮縣,民眾服務,57,行政機關,行政院海岸巡防署海岸巡防總局東部地區機動海巡隊,24.006454996445946,121.63902199988671
U,花蓮縣,民眾服務,57,行政機關,國防部後備司令部北部地區後備司令部花蓮縣後備司令部,23.97669800725563,121.61612599995037
U,花蓮縣,民眾服務,57,行政機關,國防部後備司令部北部地區後備司令部花蓮縣後備司令部,23.97669800725563,121.61612599995037
U,花蓮縣,民眾服務,57,行政機關,國防部軍法司東部地方軍事法院,23.98092999885173,121.61253199990693
U,花蓮縣,民眾服務,57,行政機關,國防部聯合後勤司令部第二地區支援指揮部,23.983703000596705,121.61953099991682
U,花蓮縣,民眾服務,57,行政機關,花蓮縣警察局吉安派出所,23.97374399699572,121.56366999990983
U,花蓮縣,民眾服務,57,行政機關,花蓮縣消防局吉安消防分隊,23.973023005862057,121.56321499994263
U,花蓮縣,民眾服務,57,行政機關,花蓮縣消防局仁里消防分隊,23.969011993672456,121.59241999989031
U,花蓮縣,民眾服務,57,行政機關,花蓮縣警察局北昌派出所,23.988075005785824,121.59201599994229
U,花蓮縣,民眾服務,57,行政機關,花蓮縣警察局北昌派出所,23.988075005785824,121.59201599994229
U,花蓮縣,民眾服務,57,行政機關,花蓮縣警察局太昌派出所,23.991570002740893,121.57519699992693
U,花蓮縣,民眾服務,57,行政機關,花蓮縣警察局太昌派出所,23.991570002740893,121.57519699992693
U,花蓮縣,民眾服務,57,行政機關,花蓮縣警察局仁里派出所,23.967916997961026,121.59315199991006
U,花蓮縣,民眾服務,57,行政機關,花蓮縣警察局仁里派出所,23.967916997961026,121.59315199991006
U,花蓮縣,民眾服務,57,行政機關,內政部國土測繪中心吉安辦公室,23.965382006335417,121.59252199993972
U,花蓮縣,民眾服務,57,行政機關,林務局花蓮林區管理處南華工作站,23.94573600028298,121.5483599999196
U,花蓮縣,民眾服務,57,行政機關,花蓮縣警察局稻香派出所,23.963779997228976,121.57201799990635
U,花蓮縣,民眾服務,57,行政機關,花蓮縣警察局南華派出所,23.947256003240813,121.54756099993637
U,花蓮縣,民眾服務,57,行政機關,教育部花蓮縣聯絡處,23.984083006386502,121.59908399994765
U,花蓮縣,民眾服務,57,行政機關,臺灣銀行-北花蓮分行,23.976951998256105,121.60738499990798
U,花蓮縣,民眾服務,57,行政機關,警政署警察電訊所花蓮分所,23.993228006576732,121.62021499994087
U,花蓮縣,民眾服務,57,行政機關,花蓮縣警察局花蓮分局,23.977621004008377,121.61204499993379
U,花蓮縣,民眾服務,57,行政機關,中央氣象局花蓮氣象站,23.975269006616426,121.61336999994202
U,花蓮縣,民眾服務,57,行政機關,農糧署東區分署,23.974456997618177,121.59017499990615
U,花蓮縣,民眾服務,57,行政機關,花蓮縣政府衛生局,23.991434000870672,121.61715099991682
U,花蓮縣,民眾服務,57,行政機關,花蓮縣政府衛生局,23.991434000870672,121.61715099991682
U,花蓮縣,民眾服務,57,行政機關,花蓮縣花蓮市市民代表會,23.979534000426312,121.60566599991569
U,花蓮縣,民眾服務,57,行政機關,花蓮縣花蓮市市民代表會,23.979534000426312,121.60566599991569
U,花蓮縣,民眾服務,57,行政機關,花蓮港務消防隊,23.99910099866129,121.63447599990096
U,花蓮縣,民眾服務,57,行政機關,花蓮港務消防隊,23.99910099866129,121.63447599990096
U,花蓮縣,民眾服務,57,行政機關,花蓮縣消防局,23.981757003814128,121.60754399992835
U,花蓮縣,民眾服務,57,行政機關,花蓮縣消防局,23.981757003814128,121.60754399992835
U,花蓮縣,民眾服務,57,行政機關,花蓮縣警察局,23.993199997299655,121.62016699989559
U,花蓮縣,民眾服務,57,行政機關,花蓮港務警察所,23.997229993801344,121.63497799987991
U,花蓮縣,民眾服務,57,行政機關,花蓮港務警察所,23.997229993801344,121.63497799987991
U,花蓮縣,民眾服務,57,行政機關,花蓮縣花蓮市戶政事務所,23.981407999919767,121.60669699991236
U,花蓮縣,民眾服務,57,行政機關,花蓮縣花蓮市戶政事務所,23.981407999919767,121.60669699991236
U,花蓮縣,民眾服務,57,行政機關,花蓮縣花蓮地政事務所,23.99236799532746,121.61834499988872
U,花蓮縣,民眾服務,57,行政機關,花蓮縣花蓮地政事務所,23.99236799532746,121.61834499988872
U,花蓮縣,民眾服務,57,行政機關,國立教育廣播電台花蓮分台,24.00653699532119,121.63105299988263
U,花蓮縣,民眾服務,57,行政機關,標準檢驗局花蓮分局,23.99040299350816,121.63312599987862
U,花蓮縣,民眾服務,57,行政機關,北區國稅局花蓮縣分局,24.004236991652117,121.6194139998669
U,花蓮縣,民眾服務,57,行政機關,台灣高等法院花蓮分院,23.991095008462008,121.62715399995545
U,花蓮縣,民眾服務,57,行政機關,台灣花蓮地方法院,23.989528001926804,121.61947199992292
U,花蓮縣,民眾服務,57,行政機關,台灣花蓮地方法院,23.989528001926804,121.61947199992292
U,花蓮縣,民眾服務,57,行政機關,花蓮縣議會,23.994082008755566,121.62095799995366
U,花蓮縣,民眾服務,57,行政機關,花蓮縣議會,23.994082008755566,121.62095799995366
U,花蓮縣,民眾服務,57,行政機關,交通部花蓮港務局,23.980415992901744,121.6199289998756
U,花蓮縣,民眾服務,57,行政機關,內政部東區老人之家,23.989516000504164,121.62688099990835
U,花蓮縣,民眾服務,57,行政機關,花蓮縣環境保護局,23.989013003733998,121.62642699992732
U,花蓮縣,民眾服務,57,行政機關,花蓮縣環境保護局,23.989013003733998,121.62642699992732
U,花蓮縣,民眾服務,57,行政機關,國軍退除役官兵輔導委員會,24.00174999901637,121.61816399990266
U,花蓮縣,民眾服務,57,行政機關,花蓮縣審計室,23.99211399801349,121.6186489999012
U,花蓮縣,民眾服務,57,行政機關,花蓮縣審計室,23.99211399801349,121.6186489999012
U,花蓮縣,民眾服務,57,行政機關,花蓮縣立慢性病防治所,23.991434000870672,121.61715099991682
U,花蓮縣,民眾服務,57,行政機關,花蓮縣立慢性病防治所,23.991434000870672,121.61715099991682
U,花蓮縣,民眾服務,57,行政機關,花蓮縣政府,23.991424002522056,121.61950999992084
U,花蓮縣,民眾服務,57,行政機關,花蓮縣選舉委員會,23.990523004407457,121.61918099993622
U,花蓮縣,民眾服務,57,行政機關,花蓮縣選舉委員會,23.990523004407457,121.61918099993622
U,花蓮縣,民眾服務,57,行政機關,水利署第九河川局,23.972914001133905,121.6061069999183
U,花蓮縣,民眾服務,57,行政機關,水利署第九河川局,23.972914001133905,121.6061069999183
U,花蓮縣,民眾服務,57,行政機關,林務局花蓮林區管理處,23.977781996374187,121.5941409998934
U,花蓮縣,民眾服務,57,行政機關,林務局花蓮林區管理處,23.977781996374187,121.5941409998934
U,花蓮縣,民眾服務,57,行政機關,花蓮縣花蓮市衛生所,23.991434000870672,121.61715099991682
U,花蓮縣,民眾服務,57,行政機關,花蓮縣花蓮市衛生所,23.991434000870672,121.61715099991682
U,花蓮縣,民眾服務,57,行政機關,台灣花蓮看守所,24.00501099240529,121.61825899987471
U,花蓮縣,民眾服務,57,行政機關,國軍退除役官兵輔導委員會,23.980021999839394,121.61631299990735
U,花蓮縣,民眾服務,57,行政機關,臺灣糖業股份有限公司商品行銷事業部花蓮營業所,23.974929009210985,121.58945999995618
U,花蓮縣,民眾服務,57,行政機關,臺灣菸酒股份有限公司花蓮營業處,23.97666299938453,121.60328399990833
U,花蓮縣,民眾服務,57,行政機關,臺灣高等法院花蓮分院檢察署,23.991095008462008,121.62715399995545
U,花蓮縣,民眾服務,57,行政機關,臺灣花蓮地方法院檢察署,23.989528001926804,121.61947199992292
U,花蓮縣,民眾服務,57,行政機關,臺灣花蓮地方法院檢察署,23.989528001926804,121.61947199992292
U,花蓮縣,民眾服務,57,行政機關,花蓮縣警察局民防管制中心,23.993199997299655,121.62016699989559
U,花蓮縣,民眾服務,57,行政機關,花蓮縣警察局刑事警察大隊,23.993199997299655,121.62016699989559
U,花蓮縣,民眾服務,57,行政機關,花蓮縣警察局婦幼警察隊,23.993199997299655,121.62016699989559
U,花蓮縣,民眾服務,57,行政機關,花蓮縣警察局保安警察隊,23.992703999882664,121.62237599990995
U,花蓮縣,民眾服務,57,行政機關,花蓮縣警察局保安警察隊,23.992703999882664,121.62237599990995
U,花蓮縣,民眾服務,57,行政機關,花蓮縣警察局交通警察隊,23.992703999882664,121.62237599990995
U,花蓮縣,民眾服務,57,行政機關,花蓮縣警察局交通警察隊,23.992703999882664,121.62237599990995
U,花蓮縣,民眾服務,57,行政機關,花蓮縣警察局少年警察隊,23.992703999882664,121.62237599990995
U,花蓮縣,民眾服務,57,行政機關,花蓮縣警察局少年警察隊,23.992703999882664,121.62237599990995
U,花蓮縣,民眾服務,57,行政機關,行政院農業委員會水土保持局花蓮分局,23.992627992337738,121.61876899987485
U,花蓮縣,民眾服務,57,行政機關,台灣中油股份有限公司油品行銷事業部東區營業處,23.99998599638603,121.63234799989465
U,花蓮縣,民眾服務,57,行政機關,臺灣菸酒股份有限公司花蓮酒廠,24.01762800435135,121.63683799992934
U,花蓮縣,民眾服務,57,行政機關,交通部臺灣鐵路管理局花蓮工務段,23.993884999843523,121.60003299991791
U,花蓮縣,民眾服務,57,行政機關,交通部臺灣鐵路管理局花蓮電務段,23.99297500428685,121.59951799993812
U,花蓮縣,民眾服務,57,行政機關,交通部臺灣鐵路管理局花蓮運務段,23.993884999843523,121.60003299991791
U,花蓮縣,民眾服務,57,行政機關,交通部花蓮港務局港埠工程處,23.9978990064572,121.634813999939
U,花蓮縣,民眾服務,57,行政機關,交通部花蓮港務局棧埠管理處,23.9978990064572,121.634813999939
U,花蓮縣,民眾服務,57,行政機關,榮民工程股份有限公司大理石工廠,24.016884996722972,121.62438999989843
U,花蓮縣,民眾服務,57,行政機關,花蓮縣動植物防疫所,23.992749997986184,121.61769799990323
U,花蓮縣,民眾服務,57,行政機關,花蓮縣動植物防疫所,23.992749997986184,121.61769799990323
U,花蓮縣,民眾服務,57,行政機關,花蓮縣立體育場,24.003549002755268,121.58544299993196
U,花蓮縣,民眾服務,57,行政機關,交通部臺灣鐵路管理局花蓮機務段,24.001827996075104,121.60548499989655
U,花蓮縣,民眾服務,57,行政機關,花蓮縣文化局,23.990157998456347,121.62892899989896
U,花蓮縣,民眾服務,57,行政機關,花蓮縣地方稅務局,23.99237100825472,121.61993699994675
U,花蓮縣,民眾服務,57,行政機關,法務部行政執行署花蓮行政執行處,23.976414999430762,121.61566499990832
U,花蓮縣,民眾服務,57,行政機關,法務部行政執行署花蓮行政執行處,23.976414999430762,121.61566499990832
U,花蓮縣,民眾服務,57,行政機關,台灣花蓮少年觀護所,23.994539008780325,121.61726499995147
U,花蓮縣,民眾服務,57,行政機關,台灣花蓮少年觀護所,23.994539008780325,121.61726499995147
U,花蓮縣,民眾服務,57,行政機關,交通部中央氣象局花蓮氣象雷達站,23.988516996408617,121.62827199989331
U,花蓮縣,民眾服務,57,行政機關,交通部台灣鐵路管理局花蓮機廠,23.994046006245128,121.60246099994056
U,花蓮縣,民眾服務,57,行政機關,花蓮縣家庭教育中心,24.00641800089217,121.58595699992073
U,花蓮縣,民眾服務,57,行政機關,臺北區監理所花蓮監理站,23.96102500295969,121.58669499993374
U,花蓮縣,民眾服務,57,行政機關,臺北區監理所花蓮監理站,23.96102500295969,121.58669499993374
U,花蓮縣,民眾服務,57,行政機關,花蓮縣政府客家事務處,23.963363993452344,121.58890599988756
U,花蓮縣,民眾服務,57,行政機關,經濟部工業局光華工業區服務中心,23.93611299782435,121.59381199991022
U,花蓮縣,民眾服務,57,行政機關,花蓮縣吉安鄉鄉民代表會,23.972861001974408,121.56313599992335
U,花蓮縣,民眾服務,57,行政機關,花蓮縣吉安鄉鄉民代表會,23.972861001974408,121.56313599992335
U,花蓮縣,民眾服務,57,行政機關,花蓮縣警察局吉安分局,23.967916997961026,121.59315199991006
U,花蓮縣,民眾服務,57,行政機關,花蓮縣警察局吉安分局,23.967916997961026,121.59315199991006
U,花蓮縣,民眾服務,57,行政機關,花蓮縣吉安鄉戶政事務所,23.97321899254427,121.56384499989113
U,花蓮縣,民眾服務,57,行政機關,花蓮縣吉安鄉戶政事務所,23.97321899254427,121.56384499989113
U,花蓮縣,民眾服務,57,行政機關,台灣花蓮監獄,23.948373997854578,121.52741499991286
U,花蓮縣,民眾服務,57,行政機關,農業委員會畜產試驗所花蓮種畜繁殖場,23.950307995908897,121.54748499990718
U,花蓮縣,民眾服務,57,行政機關,農業委員會花蓮區農業改良場,23.974553998821797,121.56429299991301
U,花蓮縣,民眾服務,57,行政機關,農業委員會花蓮區農業改良場,23.974553998821797,121.56429299991301
U,花蓮縣,民眾服務,57,行政機關,花蓮縣吉安鄉衛生所,23.973806009180205,121.56384699995483
U,花蓮縣,民眾服務,57,行政機關,臺灣省花東區車輛行車事故鑑定委員會,23.96102500295969,121.58669499993374
U,花蓮縣,民眾服務,57,行政機關,臺灣省花東區車輛行車事故鑑定委員會,23.96102500295969,121.58669499993374
U,花蓮縣,民眾服務,57,行政機關,臺灣省花蓮農田水利會,23.987487003730426,121.58991999993248
U,花蓮縣,民眾服務,57,行政機關,花蓮縣消防局壽豐消防分隊,23.869284007277297,121.5089589999567
U,花蓮縣,民眾服務,57,行政機關,花蓮縣警察局月眉派出所,23.86785399950259,121.55669099991658
U,花蓮縣,民眾服務,57,行政機關,花蓮縣警察局溪口派出所,23.82045800147079,121.47309099993895
U,花蓮縣,民眾服務,57,行政機關,花蓮縣警察局平和派出所,23.885136996760497,121.52041199991272
U,花蓮縣,民眾服務,57,行政機關,花蓮縣警察局水璉派出所,23.784306005799085,121.56371399994835
U,花蓮縣,民眾服務,57,行政機關,花蓮縣警察局壽豐分駐所,23.870094998034187,121.50935499991748
U,花蓮縣,民眾服務,57,行政機關,內政部國土測繪中心壽豐辦公室,23.845639996711604,121.50492999992102
U,花蓮縣,民眾服務,57,行政機關,花蓮縣警察局池南派出所,23.92148400861569,121.50581399995988
U,花蓮縣,民眾服務,57,行政機關,花蓮縣警察局鹽寮派出所,23.868333002196724,121.59770499993006
U,花蓮縣,民眾服務,57,行政機關,花蓮縣警察局重光派出所,23.89230699617316,121.50941299991419
U,花蓮縣,民眾服務,57,行政機關,花蓮縣警察局志學派出所,23.906314997859727,121.53253799991495
U,花蓮縣,民眾服務,57,行政機關,花蓮縣警察局豐田派出所,23.848562007401075,121.49490799995674
U,花蓮縣,民眾服務,57,行政機關,花蓮縣壽豐鄉戶政事務所,23.870094999361225,121.50923699992968
U,花蓮縣,民眾服務,57,行政機關,花蓮縣壽豐鄉衛生所,23.871270001979216,121.50894699993717
U,花蓮縣,民眾服務,57,行政機關,行政院國軍退除役官兵輔導委員會花蓮農場,23.872216993112627,121.51474399990325
U,花蓮縣,民眾服務,57,行政機關,行政院國軍退除役官兵輔導委員會花蓮農場,23.872216993112627,121.51474399990325
